timestamp,integral_dt,error_count,x,y,z,x_integral,y_integral,z_integral,temperature,range_m_s2,scaling,device_id,x_raw,y_raw,z_raw,temperature_raw
35563967,5250,0,0.027507637,0.58242786,-9.850274,-0.0022116697,0.00570169,-0.050672807,50.5,78.0,0.0023928226,1114658,216,305,-3395,0
35662739,4272,0,-0.14271341,0.7528979,-9.764913,0.005481209,-0.0034809648,-0.04554079,50.5,78.0,0.0023928226,1114658,1215,1421,-3768,10942
35766714,4298,0,0.62503445,-0.6838829,-9.665047,-0.00040374167,0.006269105,-0.036535837,50.75,78.0,0.0023928226,1114658,-102,10,-2423,10199
35865316,6300,0,0.4666171,0.66149616,-9.860858,-0.0047459453,-0.013968358,-0.064931385,50.5,78.0,0.0023928226,1114658,1804,535,-4090,-9
35967166,4199,0,1.1426752,3.0038018,-9.84433,-0.0020645936,-0.008234211,-0.041099627,50.5,78.0,0.0023928226,1114658,2338,-265,-4440,10943
36069070,5303,0,1.426381,3.5092227,-9.628158,0.013035725,0.013134459,-0.06379226,50.5,78.0,0.0023928226,1114658,1082,-9,-4007,10204
36171932,4212,0,1.3017615,3.1262357,-9.707449,-0.007902671,-0.003668691,-0.04182608,50.5,78.0,0.0023928226,1114658,2042,-616,-4136,2049
36273780,5244,0,-0.23643127,-0.438719,-9.986892,-0.0009796168,-0.018626064,-0.059605993,50.625,78.0,0.0023928226,1114658,1484,35,-3374,10203
36375617,5251,0,1.2707833,1.2243606,-9.415585,0.005252749,0.0035606755,-0.052345425,50.625,78.0,0.0023928226,1114658,1559,1350,-3896,10944
36477468,5179,0,0.80863845,0.87313664,-9.68219,0.025630755,0.005484621,-0.052904192,50.75,78.0,0.0023928226,1114658,793,2762,-3508,8193
36578266,4199,0,-1.1706443,-0.18553291,-9.456549,0.012814894,0.02146697,-0.035700362,50.625,78.0,0.0023928226,1114658,-981,3081,-4376,10949
36682217,5250,0,-1.0244864,-1.1584686,-10.013327,0.0035792142,0.01846864,-0.043277364,50.625,78.0,0.0023928226,1114658,-2115,1774,-1289,10947
36784066,5249,0,-0.9604574,-1.3487719,-10.032043,0.013282897,-0.0012644919,-0.04708285,50.5,78.0,0.0023928226,1114658,-1208,1713,-3254,10947
36884873,4206,0,-1.0771396,-0.5752176,-9.833734,-0.0006924362,-0.0065238685,-0.038219783,50.5,78.0,0.0023928226,1114658,261,1467,-3231,8193
36988817,4199,0,0.28661215,0.4608464,-9.637868,-0.0113125555,-0.01243422,-0.03897909,50.625,78.0,0.0023928226,1114658,1616,137,-3296,8193
37088602,4197,0,0.69851094,0.34435204,-9.754025,0.02108376,0.013651929,-0.043679044,50.625,78.0,0.0023928226,1114658,-998,1990,-2686,-9
37189373,4177,0,0.14592828,0.5168317,-9.650862,-0.0029074913,-0.013866979,-0.044929408,50.625,78.0,0.0023928226,1114658,2045,880,-4004,10942
37293318,4167,0,0.8133765,0.62267524,-9.64623,0.014356129,0.013028192,-0.038010553,50.625,78.0,0.0023928226,1114658,-4,815,-3373,2048
37392016,4200,0,-0.35399792,0.21730416,-9.658187,-0.026662404,-0.008712358,-0.04600484,50.625,78.0,0.0023928226,1114658,1776,-1857,-4027,10944
37495967,4193,0,-0.4068181,0.13480835,-9.712455,-0.01519822,-0.0033060377,-0.033637814,50.625,78.0,0.0023928226,1114658,1101,-545,-3912,8193
37593617,4197,0,-0.68793994,-0.49114835,-9.984707,-0.019119427,-0.0035592197,-0.04068722,50.625,78.0,0.0023928226,1114658,1073,794,-1654,-10
37695541,4274,0,0.75350934,2.6076534,-9.710811,-0.011461304,-0.014815727,-0.03561299,50.5,78.0,0.0023928226,1114658,4352,-1771,-4364,10961
37800468,4101,0,-0.09750746,0.10195809,-9.634916,0.039428756,-0.010817321,-0.037706573,50.625,78.0,0.0023928226,1114658,429,3295,-4175,2048
37898159,4232,0,2.1559942,0.18367022,-10.082272,0.016047439,0.0038386614,-0.0351475,50.5,78.0,0.0023928226,1114658,-1343,-2650,-2003,10944
37998916,4142,0,-1.8467375,-0.316446,-9.267095,0.043132417,0.00488165,-0.05328309,50.5,78.0,0.0023928226,1114658,-316,6299,-5503,0
38102876,4123,0,1.9272406,-0.3670007,-10.90609,0.03279947,0.021110864,-0.06673323,50.5,78.0,0.0023928226,1114658,-2766,-2084,-1598,8192
38204756,4225,0,-2.0749178,1.0925121,-11.668469,-0.065310486,0.0041192155,-0.02806939,50.625,78.0,0.0023928226,1114658,798,1421,185,10211
38305525,4206,0,1.718368,0.5002297,-11.047606,0.027874311,0.012540622,-0.021764202,50.625,78.0,0.0023928226,1114658,105,-2614,-1810,10965
38407366,4200,0,2.3076656,-0.7943915,-9.9158325,-0.045835596,0.0074416073,-0.048763398,50.5,78.0,0.0023928226,1114658,-1398,-5755,-4850,8192
38509217,4165,0,-0.67241675,0.9316602,-10.175772,0.03762669,0.010109314,-0.05192042,50.625,78.0,0.0023928226,1114658,-54,5880,-1235,10960
38611072,5173,0,-1.6600344,1.3308779,-9.826422,-0.0023782584,0.008448555,-0.049065344,50.625,78.0,0.0023928226,1114658,-68,5873,-3050,-10
38711866,4199,0,-0.88851887,0.9324061,-9.855673,-0.04050526,0.011994275,-0.060105,50.625,78.0,0.0023928226,1114658,-1032,-281,-4110,-10
38813716,4195,0,0.30365548,0.30645978,-9.619168,0.023823733,0.006826004,-0.055573124,50.5,78.0,0.0023928226,1114658,46,632,-2874,8192
38914517,4200,0,-0.6533855,0.0033069863,-9.352604,0.031079885,-0.0020522964,-0.078774,50.625,78.0,0.0023928226,1114658,-972,3574,-9364,10205
39016394,4228,0,0.58413327,-0.9155129,-12.5985365,0.0053563095,-0.0032207707,-0.08031877,50.625,78.0,0.0023928226,1114658,-1299,-2167,-2531,10961
39118217,4200,0,0.14969876,-0.1330881,-10.666512,-0.016038395,0.010839761,-0.037651617,50.75,78.0,0.0023928226,1114658,-870,2449,-3307,10959
39221153,4236,0,0.34733373,1.0007248,-10.515267,-0.0206231,0.026576133,-0.036161054,50.625,78.0,0.0023928226,1114658,-156,-3840,-4715,8192
39323016,4227,0,0.050154198,0.10720153,-10.981643,-0.025355672,0.004536814,-0.063598886,50.5,78.0,0.0023928226,1114658,-236,1950,-5443,8193
39422752,5285,0,0.7573417,-0.11760157,-12.268285,0.014562211,-0.013053722,-0.101210564,50.625,78.0,0.0023928226,1114658,1719,2913,-9683,10969
39527716,4176,0,-0.08334877,-0.13109468,-11.188444,-0.0026975546,0.003690351,-0.07422297,50.625,78.0,0.0023928226,1114658,371,1478,-3842,10974
39629567,4200,0,0.34297,1.2113675,-10.872661,-0.01624709,0.006444081,-0.04514571,50.5,78.0,0.0023928226,1114658,-876,-2748,-1885,8192
39730367,4199,0,0.37929347,2.6534216,-9.677797,0.027058275,-0.006126912,-0.082543574,50.625,78.0,0.0023928226,1114658,2499,2504,-10203,10977
39832289,4273,0,1.3977598,0.025857065,-11.259429,-0.006730223,-0.0026193869,-0.059385512,50.5,78.0,0.0023928226,1114658,483,-1582,-3486,10196
39931967,4200,0,0.054269597,-0.6513022,-12.68351,0.010693776,-0.0057311445,-0.076659694,50.625,78.0,0.0023928226,1114658,1618,2320,-371,8193
40035943,5222,0,-0.1663076,-0.2874857,-9.103692,-0.042344842,0.02080212,-0.0575653,50.5,78.0,0.0023928226,1114658,-3151,-2182,-6857,2049
40134702,4286,0,1.047461,0.51929486,-8.434732,-0.0016390503,0.0026950515,-0.032459978,50.625,78.0,0.0023928226,1114658,-1352,-5126,-5704,10192
40235469,4253,0,0.9947632,1.574039,-8.444245,0.043804165,0.004020463,-0.05962703,50.625,78.0,0.0023928226,1114658,-76,695,-6799,10194
40337267,4150,0,-0.5667521,-0.7272779,-10.0375805,0.029108077,0.012497638,-0.06510516,50.625,78.0,0.0023928226,1114658,-614,5964,-1540,10983
40441224,4177,0,-1.236025,-0.21267502,-8.42794,0.0150365615,0.005199518,-0.0433409,50.625,78.0,0.0023928226,1114658,-211,6487,-4305,10987
40542039,4152,0,-0.5597049,1.369983,-8.260054,-0.04980354,0.009347051,-0.03405795,50.625,78.0,0.0023928226,1114658,-102,-108,-4531,10982
40643866,4188,0,0.9028843,1.044322,-9.05583,-0.034947723,-0.0070434604,-0.06374536,50.5,78.0,0.0023928226,1114658,903,-4124,-6274,8192
40745717,4193,0,1.5524944,-0.19281793,-10.3739,0.0020900476,-0.010522826,-0.0616491,50.5,78.0,0.0023928226,1114658,1932,-2513,-2447,0
40847607,5268,0,0.49129716,-1.2017319,-9.663659,0.035853244,0.0077608065,-0.042563494,50.625,78.0,0.0023928226,1114658,481,1350,-1629,11000
40950468,4200,0,-0.42084107,1.5429469,-7.646786,0.036770683,0.005344675,-0.04481614,50.625,78.0,0.0023928226,1114658,519,4148,-6184,8193
41047066,4199,0,1.3060253,1.7515953,-9.053459,0.006378443,-0.005700018,-0.031655576,50.5,78.0,0.0023928226,1114658,-219,-3380,-903,8193
41148916,4199,0,-0.003952136,1.2922392,-8.329009,0.041825246,-0.015472859,-0.059500113,50.625,78.0,0.0023928226,1114658,2925,3560,-9186,-10
41255004,4194,0,1.8479706,-1.6210445,-9.9885025,0.027623676,-0.010745916,-0.029142665,50.625,78.0,0.0023928226,1114658,-176,-3707,-1050,-10
41352616,5249,0,-0.54703546,-1.2173699,-9.953655,-0.051631443,0.012013617,-0.012769196,50.625,78.0,0.0023928226,1114658,-330,179,-525,16970
41458742,4268,0,-1.7282095,2.3642879,-9.132846,0.015927555,0.0067895465,-0.044465628,50.625,78.0,0.0023928226,1114658,1276,7245,-1647,10185
41562669,5263,0,-0.8021763,0.06921992,-8.739936,0.026589585,-0.013491546,-0.04511951,50.625,78.0,0.0023928226,1114658,1393,5889,-6231,10186
41663470,4253,0,-0.61682564,-2.2788074,-9.975617,-0.011771152,-0.014183672,-0.04468312,50.625,78.0,0.0023928226,1114658,219,4665,-7224,10188
41762159,4222,0,-0.33972433,-1.3138747,-10.759082,-0.033182997,0.010118576,-0.039952297,50.625,78.0,0.0023928226,1114658,1165,-810,-3341,-10
41863967,4183,0,-0.050660867,0.28339303,-8.946555,0.02492165,0.01295911,-0.07635029,50.625,78.0,0.0023928226,1114658,-208,2200,-9926,8193
41965904,5337,0,0.9082099,1.8127934,-9.329565,0.009090048,0.004221689,-0.03151987,50.625,78.0,0.0023928226,1114658,445,-2539,-2230,10195
42068716,4200,0,-0.23756446,0.7927912,-10.417181,0.012588941,-0.0077507887,-0.022898361,50.625,78.0,0.0023928226,1114658,1384,4999,-2155,-10
42168467,4174,0,0.74960726,-1.0237665,-10.839761,0.009722502,-0.0020623086,-0.07244553,50.625,78.0,0.0023928226,1114658,629,-28,-5080,8193
42269267,4088,0,0.0018721175,-0.4201624,-10.5916605,0.0006694234,0.016968612,0.0062477663,50.625,78.0,0.0023928226,1114658,-66,-1687,-1279,11015
42371160,4243,0,-0.5411927,1.203287,-9.666781,0.012975133,0.01372845,-0.06894464,50.625,78.0,0.0023928226,1114658,-130,3423,-5092,11009
42475067,4200,0,-0.7104753,0.6015211,-9.440206,-0.030088631,-0.009863694,-0.019724464,50.625,78.0,0.0023928226,1114658,2035,803,-3748,0
42576929,4213,0,-0.1547779,-1.0137103,-8.886991,-0.010601843,-0.01271744,-0.029549217,50.625,78.0,0.0023928226,1114658,871,2265,-6587,2049
42677716,4194,0,-0.90786034,-0.9448833,-9.546592,-0.017367039,-0.0008435553,-0.0009453376,50.625,78.0,0.0023928226,1114658,1732,3328,-3481,8192
42777467,5222,0,0.29346076,-0.019316604,-9.727206,0.010458506,0.023227789,-0.04241611,50.625,78.0,0.0023928226,1114658,-1346,-1171,-444,2048
42882500,4233,0,-0.7084748,1.503818,-8.776316,-0.009424041,0.0030013141,-0.036890604,50.625,78.0,0.0023928226,1114658,2321,3690,-6185,16970
42986417,4200,0,1.7427274,-1.1001319,-10.527955,0.021640884,-0.003037525,-0.044879496,50.625,78.0,0.0023928226,1114658,29,-2756,-857,8193
43085149,6326,0,0.05757144,-0.9504797,-9.746072,0.017875852,-0.00764441,-0.0797451,50.625,78.0,0.0023928226,1114658,-124,-212,-3962,11038
43191187,4221,0,-0.8251589,1.7201939,-7.7161193,-0.017673422,0.007108433,-0.036277313,50.625,78.0,0.0023928226,1114658,857,2207,-8675,-10
43288816,5217,0,-0.055473175,1.0283486,-8.230837,-0.01116466,0.009789683,-0.039351206,50.625,78.0,0.0023928226,1114658,622,-4181,-922,8193
43389616,4199,0,1.5265199,0.7616551,-10.088116,0.033175312,0.0036889925,-0.05966075,50.625,78.0,0.0023928226,1114658,2494,-152,-1064,-10
43491582,4316,0,0.36710703,-1.2787815,-10.789739,0.030194946,0.0017947151,-0.05394033,50.5,78.0,0.0023928226,1114658,975,2982,-288,11028
43596467,4091,0,0.37439036,0.33984527,-9.28378,-0.012868369,0.004415708,-0.051454555,50.625,78.0,0.0023928226,1114658,-928,-1713,-3495,2048
43698317,4200,0,0.8348477,1.1733422,-9.163544,0.013948257,0.0070107915,-0.05700772,50.625,78.0,0.0023928226,1114658,-659,-1113,-3703,8193
43800217,5300,0,0.7987945,0.05946161,-12.15986,0.036347188,0.00239757,-0.097963974,50.625,78.0,0.0023928226,1114658,-219,1951,-2164,2049
43902065,5298,0,-0.51910776,-1.5544164,-10.307403,0.025596421,0.0008149205,-0.057955522,50.625,78.0,0.0023928226,1114658,-581,3398,-780,11045
44007017,4188,0,0.42547673,-0.06332662,-9.669768,0.040786978,0.007882571,-0.06796423,50.75,78.0,0.0023928226,1114658,-2482,2055,-3037,11053
44107816,4200,0,-0.27689165,0.8739007,-7.735848,-0.03278625,-7.5667376e-05,-0.0357255,50.625,78.0,0.0023928226,1114658,-1124,900,-4882,-10
44205467,4200,0,0.65731215,1.4080801,-8.937304,-0.008667501,-0.0007229484,-0.014596619,50.75,78.0,0.0023928226,1114658,735,93,-4489,8193
44306267,4200,0,0.48328248,0.10213836,-9.696332,-0.013627793,-0.0069932803,-0.0066109095,50.625,78.0,0.0023928226,1114658,1200,-1263,-1136,8193
44408158,4242,0,0.43688256,-1.3405204,-9.264481,-0.03378933,0.016824596,-0.047474794,50.625,78.0,0.0023928226,1114658,-2251,-1372,-5969,8192
44511017,4200,0,-0.88093364,0.65950066,-8.95438,-0.039396375,0.019860558,-0.05253348,50.5,78.0,0.0023928226,1114658,-2480,1204,-4466,-10
44612866,4200,0,-0.8902398,1.2445748,-8.600538,0.021617036,-0.0072568357,-0.055216752,50.5,78.0,0.0023928226,1114658,723,5332,-7682,16970
44714742,5270,0,0.9959932,-0.8904595,-11.789658,0.02274717,-0.009105106,-0.09468256,50.5,78.0,0.0023928226,1114658,-554,467,-38,11050
44817617,6300,0,0.5280987,-0.98253673,-10.172573,-0.009798602,-0.00035519217,-0.029833011,50.625,78.0,0.0023928226,1114658,1210,655,-6943,8192
44921566,4200,0,0.17870426,0.3116322,-10.13052,-0.0011991854,0.016062843,-0.045780815,50.625,78.0,0.0023928226,1114658,-1738,194,-259,-10
45023483,4266,0,0.089706294,1.9227011,-10.382293,0.00758568,0.012710883,-0.052886434,50.625,78.0,0.0023928226,1114658,1383,361,-956,8192
45124270,4253,0,-0.0085050715,0.3145505,-10.576219,0.0062835854,-0.0056793885,-0.026450876,50.75,78.0,0.0023928226,1114658,1723,1682,-713,10207
45226103,4136,0,0.7386712,-1.0637935,-11.090227,-0.00790261,-0.00023778062,-0.020157268,50.5,78.0,0.0023928226,1114658,-299,-1757,-587,8193
45327916,5175,0,0.68527997,-1.0758352,-10.603152,0.010724188,-0.0055496814,-0.04120543,50.5,78.0,0.0023928226,1114658,1271,2286,-1632,8192
45430817,4148,0,-0.4416578,1.5642271,-9.890639,0.0022162457,0.014654049,-0.028425632,50.75,78.0,0.0023928226,1114658,1144,2083,-2670,11057
45528466,4115,0,0.6502809,1.6924403,-8.528662,0.008549313,-0.009662573,-0.057398256,50.625,78.0,0.0023928226,1114658,1839,471,-9906,-10
45629276,4102,0,-0.10219052,0.5521801,-9.200629,-0.002977984,0.0039481646,-0.04756294,50.625,78.0,0.0023928226,1114658,990,2264,-8789,-10
46756968,4200,0,1.1971655,1.3611286,-8.524754,0.027499856,-0.010079945,-0.025136301,50.625,78.0,0.0023928226,1114658,389,-1270,-1978,8193
46858817,4148,0,2.2615001,-0.55337715,-8.540247,-0.0005866703,-0.02172627,-0.03135497,50.625,78.0,0.0023928226,1114658,-32,-4991,-4895,11093
46957517,4200,0,1.4635978,-0.48436844,-8.931459,0.0335706,-0.017994897,-0.009718131,50.625,78.0,0.0023928226,1114658,2512,-1295,-2826,11080
47059367,5207,0,-3.1275315,-0.1887017,-8.47192,0.0066158255,0.0112372665,-0.025576541,50.625,78.0,0.0023928226,1114658,-95,8106,2602,8193
47162289,4222,0,1.561265,0.023767583,-7.2430573,-0.043538675,0.0051839366,-0.046565805,50.75,78.0,0.0023928226,1114658,-644,-6510,-3681,-9
47262017,4128,0,-1.0763241,1.128493,-7.263415,-0.01834846,-0.013734237,-0.023417428,50.625,78.0,0.0023928226,1114658,1805,5683,-6774,10213
47363866,4188,0,-0.7841679,-0.16474278,-9.909224,-0.022897203,0.0048978208,-0.035277907,50.625,78.0,0.0023928226,1114658,2135,4150,-521,-9
47467817,5220,0,0.11742318,-0.9869155,-9.992412,0.028770987,-0.0046004048,-0.042462226,50.75,78.0,0.0023928226,1114658,606,2978,-1074,-9
47568616,4151,0,0.53253037,0.88016003,-9.2332,0.019119402,-0.005866074,-0.02448846,50.5,78.0,0.0023928226,1114658,-429,-953,-2106,-10
47667318,4203,0,-0.3596061,1.938386,-10.293379,0.022958042,0.0029105674,-0.04129921,50.625,78.0,0.0023928226,1114658,879,2846,4061,-10
47769175,4193,0,0.10143163,1.3483231,-8.651234,0.0056095114,-0.016868884,-0.009992903,50.625,78.0,0.0023928226,1114658,2626,222,-6040,8193
47872066,4199,0,-0.16202264,-0.86494875,-11.581048,0.012638247,-0.0046669333,-0.078463145,50.5,78.0,0.0023928226,1114658,39,3609,-350,2048
47973987,4271,0,-0.027035646,-1.1339766,-10.24746,-0.018235428,0.021928148,-0.035234742,50.625,78.0,0.0023928226,1114658,-2292,-625,-1882,11101
48075767,5250,0,0.9948626,0.5297568,-10.813141,0.0032711579,0.006544728,-0.031576693,50.625,78.0,0.0023928226,1114658,-752,-2624,2723,2048
48178716,4249,0,-0.4274196,1.4912874,-9.124338,0.011204801,-0.005311119,-0.09043027,50.625,78.0,0.0023928226,1114658,443,3073,-7232,11098
48282684,4267,0,1.4519622,-0.91293955,-10.8306055,-0.014650567,-0.018087847,-0.056943484,50.625,78.0,0.0023928226,1114658,1828,-2784,-6896,-10
48383469,4218,0,-0.11190691,-2.0080144,-10.1113,-0.0072914935,0.0055361423,-0.029712211,50.625,78.0,0.0023928226,1114658,-241,-808,-7731,10213
48483167,4200,0,-2.1686192,-0.7274159,-9.943943,-0.022769941,0.008485242,-0.03885635,50.625,78.0,0.0023928226,1114658,-1396,4574,120,16970
48587159,5184,0,-1.3782624,0.79095674,-8.297147,0.048672795,0.011965846,-0.062771484,50.625,78.0,0.0023928226,1114658,-1388,6176,-8148,11104
48687927,4210,0,-0.47276437,2.9378376,-9.115939,-0.018196728,0.018720236,-0.040855758,50.625,78.0,0.0023928226,1114658,871,2861,-9606,8192
48786645,4215,0,-0.3235923,1.2557693,-9.466395,-0.033965632,-0.0065632463,0.00091929577,50.625,78.0,0.0023928226,1114658,510,-136,-1409,-10
48888466,4126,0,-1.4391017,-0.40126562,-10.44813,0.031461645,-0.005766471,-0.029458415,50.75,78.0,0.0023928226,1114658,350,6838,-1015,8193
48992417,4148,0,0.44336897,-2.5389452,-12.287843,-0.007880304,-0.0029429963,-0.07735266,50.75,78.0,0.0023928226,1114658,-1698,-455,2461,11115
49093217,4148,0,-1.0059334,-1.284045,-9.837221,-0.023789253,0.008360513,-0.011773546,50.625,78.0,0.0023928226,1114658,-1122,2285,-1616,10224
49195067,5178,0,-1.5701162,-0.12835419,-9.758507,0.008608062,0.021373225,-0.07485145,50.625,78.0,0.0023928226,1114658,-1259,3352,-3253,0
49295866,4199,0,0.37224105,1.6752723,-9.676315,0.012535211,0.0051797386,-0.062338516,50.75,78.0,0.0023928226,1114658,1078,3627,-9192,2048
49399839,5272,0,1.0502534,-0.47440475,-12.5116,0.0081419395,-0.03305271,-0.06498883,50.625,78.0,0.0023928226,1114658,1009,-1419,3368,-10
49502716,4199,0,0.18523717,-1.3973982,-12.764925,0.025949713,-0.015633674,-0.042232174,50.625,78.0,0.0023928226,1114658,2671,2433,2223,11111
49604575,5258,0,-1.7590723,-0.9062964,-10.690603,-0.013903633,0.01237577,-0.11663991,50.625,78.0,0.0023928226,1114658,-326,4237,-3938,11116
49706417,5172,0,1.222332,0.9497414,-9.897301,0.026299847,-0.010853871,-0.052588988,50.625,78.0,0.0023928226,1114658,2608,-2100,-2677,11121
49807216,4198,0,0.1054719,0.36277384,-9.557128,-0.031945422,0.012005175,-0.053470995,50.625,78.0,0.0023928226,1114658,-485,-1620,-4191,8192
49908016,4200,0,1.1336339,0.0040435204,-10.45347,0.018845188,0.0032705802,-0.04057,50.5,78.0,0.0023928226,1114658,-1877,-3215,-863,2048
50009892,4225,0,1.7002339,0.27636337,-11.205168,-0.022166798,-0.0047547147,-0.010968787,50.625,78.0,0.0023928226,1114658,-496,-1585,3996,2049
50115961,5215,0,1.175741,0.053593986,-9.813967,-0.02033614,-0.011156813,-0.06554948,50.75,78.0,0.0023928226,1114658,-2002,-2358,-1816,-10
50214682,4266,0,0.6170031,0.7030575,-8.919063,-0.021859862,-0.007270824,-0.08180888,50.75,78.0,0.0023928226,1114658,1944,-3340,-7287,10238
50318568,4202,0,-1.4457401,-1.5154942,-10.186731,-0.014568911,0.0068357503,-0.04128741,50.625,78.0,0.0023928226,1114658,1283,3153,-8133,2049
50417267,4151,0,-0.35388628,-1.2371572,-9.751552,-0.022951819,-0.0036841962,-0.017500872,50.75,78.0,0.0023928226,1114658,1351,395,-2052,8192
50521217,4128,0,0.5126024,0.2877904,-8.848068,0.007661993,0.0277558,-0.012827017,50.625,78.0,0.0023928226,1114658,-1023,172,-3592,10223
50622017,4124,0,-0.027164258,1.550853,-10.074967,0.015097415,-0.010713562,-0.029346295,50.625,78.0,0.0023928226,1114658,2253,805,1886,11134
50723867,5160,0,1.6498525,-0.57399696,-9.405301,0.0022743675,-0.016038205,-0.06125108,50.75,78.0,0.0023928226,1114658,1682,-2001,-5994,11142
50826801,6334,0,1.5921637,-0.8130832,-10.931183,-0.019351484,0.00079068635,-0.043834448,50.625,78.0,0.0023928226,1114658,1168,-3368,-1206,11140
50928618,4201,0,1.0654117,-0.0011514457,-9.155783,-0.016961213,0.0059218933,-0.037728652,50.75,78.0,0.0023928226,1114658,-237,-4699,-5365,11130
51030467,5250,0,1.6374207,1.4853112,-9.7357,-0.018785827,0.0036737062,-0.024354,50.625,78.0,0.0023928226,1114658,-341,-5387,-906,8193
51133399,4215,0,0.59316254,-0.22964798,-11.6817,-0.021645864,-0.0069462825,-0.019370152,50.625,78.0,0.0023928226,1114658,1254,-1240,2112,-10
51229973,4179,0,-0.26822802,-0.5009346,-9.776094,0.032666355,-0.01006871,-0.033422988,50.625,78.0,0.0023928226,1114658,2028,2578,-7410,8193
51333944,4184,0,-0.4139754,-1.3132888,-9.922389,0.022655135,0.010238789,-0.028109463,50.625,78.0,0.0023928226,1114658,-1047,596,-4116,2049
51434740,4224,0,-0.26269573,0.6236151,-8.123852,0.010151689,0.0062174173,-0.06736665,50.625,78.0,0.0023928226,1114658,-1029,2819,-8155,11137
51534466,4186,0,-0.29620314,1.4173765,-10.304915,-0.004913125,0.003788876,-0.016136907,50.625,78.0,0.0023928226,1114658,1150,1832,1624,-10
51639565,4289,0,0.24805678,-0.75386375,-9.863241,0.03469275,-0.003937146,-0.083560266,50.625,78.0,0.0023928226,1114658,166,4424,-4967,11139
51741317,4197,0,0.5547835,-1.3325825,-11.060944,0.00029842008,0.0032524264,-0.019205777,50.625,78.0,0.0023928226,1114658,386,-1321,283,-10
51840017,4200,0,-0.5249331,-0.6608519,-10.208707,0.018973138,0.008645846,-0.018696196,50.75,78.0,0.0023928226,1114658,-1471,990,-364,-10
51941931,4264,0,-0.0012546277,1.0848541,-8.282911,-0.019932268,0.010452691,-0.032517828,50.75,78.0,0.0023928226,1114658,-743,121,-7485,11146
52042740,4273,0,-0.291827,1.1594436,-9.912592,0.02243287,-0.006344784,-0.069587946,50.625,78.0,0.0023928226,1114658,676,3596,-1898,11150
52146669,4253,0,0.63339347,-1.1612989,-10.70067,-0.019842995,0.0026753454,-0.08602936,50.625,78.0,0.0023928226,1114658,190,1414,-166,10229
52247491,4275,0,0.57212657,-1.9791063,-11.062567,-0.014398257,0.024653414,-0.028833812,50.75,78.0,0.0023928226,1114658,-2281,-1146,-576,10234
52347193,4226,0,-0.32824615,0.40898675,-10.941043,0.007893585,0.0008640451,-0.07039252,50.625,78.0,0.0023928226,1114658,-2059,876,-994,-9
52452167,4200,0,0.571949,0.97457904,-10.286077,-0.016783725,-0.001018138,-0.026669795,50.75,78.0,0.0023928226,1114658,-38,-1608,-1546,0
52554057,5290,0,0.70103323,-0.88150555,-10.08876,0.00060116866,-0.007817109,-0.051276408,50.75,78.0,0.0023928226,1114658,-2130,-893,-3488,-9
52656917,4192,0,0.81269795,-1.8776426,-9.938465,-0.019140631,-0.019907156,-0.02189373,50.75,78.0,0.0023928226,1114658,-1583,-1056,527,2048
52759817,4196,0,0.25456408,0.49801263,-9.193646,0.0073555484,0.0009501318,0.027332794,50.875,78.0,0.0023928226,1114658,-1080,555,-779,8193
52860617,5251,0,-0.6764817,0.58229995,-8.809467,-0.0028924618,0.0031262636,-0.05238825,50.625,78.0,0.0023928226,1114658,-2730,2138,-3802,2048
52965616,4199,0,-0.9626336,-0.5558645,-9.377474,-0.019339386,-0.0075651566,-0.06529663,50.625,78.0,0.0023928226,1114658,459,4674,-7305,11177
53067605,4339,0,0.2046323,-1.2143518,-9.9583025,-0.037279982,0.019971887,-0.037433412,50.625,78.0,0.0023928226,1114658,-720,-1995,-4539,11162
53168366,5349,0,0.6800923,-0.7513665,-9.9590225,0.006508405,-0.013707857,-0.003404675,50.625,78.0,0.0023928226,1114658,-2501,-2127,2101,11156
53270159,5285,0,0.7353114,1.1844243,-8.363246,0.010717921,0.012085706,-0.038822208,50.625,78.0,0.0023928226,1114658,-568,1089,-1009,11175
53373046,4229,0,0.26670963,-0.72444606,-9.243794,-0.0164838,-0.009170684,-0.0029531072,50.75,78.0,0.0023928226,1114658,-1361,-182,-1701,16971
53474867,4089,0,0.5611624,-1.1456462,-9.067386,0.004409399,0.0129459165,-0.014558268,50.625,78.0,0.0023928226,1114658,-412,41,-5465,0
53577789,4222,0,0.45307562,0.38492566,-9.4490385,0.009440931,0.025912173,0.009831406,50.625,78.0,0.0023928226,1114658,-2048,1311,-1217,2049
53679617,4126,0,-0.10157836,1.0286132,-7.9032416,0.013332739,0.005261547,-0.048846778,50.75,78.0,0.0023928226,1114658,-748,2413,-9829,10233
53781468,5197,0,-0.2810232,0.9122097,-10.0138035,0.008889082,-0.0011705192,-0.050537366,50.625,78.0,0.0023928226,1114658,3526,3303,-4252,8193
53882267,4200,0,0.20826414,-0.81076854,-9.478432,-0.008836947,0.0050547477,-0.0734531,50.625,78.0,0.0023928226,1114658,1030,-577,-11539,11176
53984159,4241,0,0.9900209,0.26649353,-8.528487,0.009214192,0.0025726785,-0.03436219,50.625,78.0,0.0023928226,1114658,1040,-1995,-4546,11187
54084924,4207,0,-0.07040512,0.6117501,-9.798906,0.031009834,-0.018198367,-0.074589334,50.75,78.0,0.0023928226,1114658,1318,1798,-4307,0
54186791,4225,0,-0.25549105,1.3121569,-10.4766865,0.00086866005,-0.0020314462,0.01628178,50.75,78.0,0.0023928226,1114658,2628,878,263,11180
54292817,5204,0,0.5235362,-1.0399269,-10.79362,0.025568511,-0.0006181454,-0.06475591,50.625,78.0,0.0023928226,1114658,3779,1174,-4341,16970
54389417,4193,0,0.19869375,-1.2893422,-9.645978,-0.022948723,0.0068778684,-0.005066625,50.75,78.0,0.0023928226,1114658,1543,387,-6276,11179
54493367,4168,0,-0.041603792,0.51634485,-10.443771,0.0030787175,0.02652771,-0.07673674,50.75,78.0,0.0023928226,1114658,2302,1244,-1093,-10
54596341,4274,0,0.62619644,0.8339585,-9.837013,0.0012081668,0.010813335,-0.05229142,50.75,78.0,0.0023928226,1114658,-1821,-192,-3193,11187
54698159,4211,0,0.34974048,0.3474342,-10.863579,-0.010807313,-0.021437097,-0.015375262,50.5,78.0,0.0023928226,1114658,1409,-768,2753,11184
54798917,4163,0,0.8945767,-1.2377082,-9.5916605,-0.005095171,-0.00793186,0.018287648,50.625,78.0,0.0023928226,1114658,1356,-1353,-2187,8193
54900767,4191,0,-0.2284998,-0.98327565,-9.2598295,0.033715848,0.019523349,-0.038764127,50.625,78.0,0.0023928226,1114658,-3448,2676,-4645,-10
55002669,5282,0,-0.582923,2.0989883,-8.883618,0.013475107,0.01669087,-0.045133833,50.625,78.0,0.0023928226,1114658,1948,3639,-5373,10240
55103491,4275,0,0.45937765,1.0979176,-9.144204,0.0011117324,-0.0030968366,-0.041933823,50.625,78.0,0.0023928226,1114658,2938,2200,-6667,10238
55205272,4120,0,-0.23555839,-1.1935475,-10.345283,0.020151366,-0.007445226,-0.078453615,50.625,78.0,0.0023928226,1114658,1998,3052,-6020,-10
55309217,5227,0,0.17220134,-0.79272425,-11.502271,-0.00053048925,-0.0059968266,-0.03797226,50.75,78.0,0.0023928226,1114658,-658,-731,4324,11184
55410036,4167,0,0.13649485,0.7197393,-8.4111805,0.0011996053,0.0041683195,0.020848816,50.625,78.0,0.0023928226,1114658,-1341,-418,-1523,11191
55511867,4195,0,-0.22836941,0.627977,-7.925109,0.0009002101,0.0028734081,-0.018117474,50.625,78.0,0.0023928226,1114658,270,2686,-8693,11192
55612667,4200,0,0.0082035605,-1.0485785,-7.9954033,0.014086184,0.004675727,-0.030791413,50.625,78.0,0.0023928226,1114658,-173,2919,-11060,16970
55713467,4200,0,-1.3718125,-1.1612451,-10.084584,-0.0013769338,0.020077663,-0.04321918,50.75,78.0,0.0023928226,1114658,-1218,3940,-4891,8193
55818467,4200,0,0.062415306,0.60193974,-10.062595,-0.0056261155,-0.00018065685,-0.06911481,50.75,78.0,0.0023928226,1114658,-2637,-460,-2228,8193
55919266,4199,0,1.1671686,1.3084695,-9.984892,-0.0026254447,-0.018129515,-0.051855236,50.75,78.0,0.0023928226,1114658,2401,-3814,2411,11193
56021206,4290,0,1.7827173,0.15893789,-10.414641,0.023713391,-0.007400048,-0.046029232,50.75,78.0,0.0023928226,1114658,1012,-2662,-3613,8192
56121973,4256,0,0.16463652,-0.93208313,-12.138982,0.010082642,-0.014928037,0.009582528,50.75,78.0,0.0023928226,1114658,-1030,971,3706,11208
56223767,5251,0,-0.5717702,-0.41164035,-10.5124655,0.012587087,0.006007075,-0.046501905,50.625,78.0,0.0023928226,1114658,194,2641,-572,2048
56325622,5240,0,-0.07810431,1.0147494,-9.188424,-0.0106920535,0.005277762,-0.033374008,50.75,78.0,0.0023928226,1114658,-207,1159,-2018,11196
56426417,4177,0,0.3253231,0.879793,-9.581787,-0.006668493,-0.023348251,-0.018746965,50.75,78.0,0.0023928226,1114658,3541,-1312,-3830,8192
56530366,5223,0,0.46545926,-1.0113606,-10.907703,-0.014486511,-0.012954882,-0.0010888667,50.625,78.0,0.0023928226,1114658,254,-1884,1429,-10
56633266,4114,0,-0.14627984,-0.8754171,-9.857819,-0.014175456,0.012046574,0.014478311,50.625,78.0,0.0023928226,1114658,-2203,925,1530,8192
56735163,5211,0,0.28282237,1.5171859,-9.938083,-0.013738168,0.01367564,-0.008550804,50.75,78.0,0.0023928226,1114658,961,-2325,163,8192
56838018,6301,0,1.1337858,0.8009263,-10.064743,-0.01905648,-0.016116746,-0.050730463,50.625,78.0,0.0023928226,1114658,-1914,-1587,-142,10235
56935667,4092,0,0.38727644,0.5376728,-9.958194,0.026865326,-0.0012629523,-0.06146804,50.75,78.0,0.0023928226,1114658,3645,2186,-3164,-10
57036469,4138,0,0.5892396,-1.6422206,-10.851531,-0.015846262,0.0072282357,-0.03596204,50.875,78.0,0.0023928226,1114658,858,469,-874,-10
57140417,4171,0,-0.1036743,-0.11660734,-10.184694,-0.006547278,0.02109627,-0.006141959,50.625,78.0,0.0023928226,1114658,1650,1176,619,11215
57241217,4142,0,-0.5181828,1.4677265,-9.091034,0.021972409,0.0060429755,-0.066272564,50.625,78.0,0.0023928226,1114658,2049,411,-2889,8192
57343073,4203,0,-0.58553797,1.1366167,-9.807493,0.022117013,0.0045205546,-0.06994018,50.625,78.0,0.0023928226,1114658,-366,5731,-3278,11213
57442817,4148,0,0.81975394,-0.65336436,-11.021099,0.0037921146,-0.006619843,-0.0562209,50.625,78.0,0.0023928226,1114658,-2517,-148,1118,11205
57547817,4196,0,0.6932889,-1.7934523,-11.405615,-0.025494643,0.0008425167,-0.021289827,50.75,78.0,0.0023928226,1114658,-475,-3173,2520,-10
57653947,4280,0,-0.12316802,1.6457787,-8.408424,-0.0076058405,0.01576968,-0.038437184,50.75,78.0,0.0023928226,1114658,-1895,2676,-6729,11217
57755719,4154,0,0.5404665,0.6771273,-9.905875,-0.008174384,-0.0006899086,-0.038166266,50.75,78.0,0.0023928226,1114658,-1134,-667,-1747,2048
57858715,4299,0,1.1942081,-1.2194537,-11.285499,0.027052049,-0.011319177,-0.04380688,50.875,78.0,0.0023928226,1114658,1416,-1619,1557,-10
57960467,4150,0,-0.14619404,-0.21717137,-10.888489,0.023421237,0.0116823595,-0.06009,50.625,78.0,0.0023928226,1114658,935,2403,-1144,8193
58061274,4127,0,0.50501835,0.26426545,-8.897209,0.0034668234,0.011939174,-0.03947743,50.75,78.0,0.0023928226,1114658,-3764,-2,-4587,11216
58163159,4223,0,-0.09361316,0.38592792,-9.734925,0.012560965,-0.010942095,-0.044178836,50.75,78.0,0.0023928226,1114658,-1306,2075,-3332,10240
58269195,5278,0,1.6516854,-0.8781347,-10.772339,-0.005718243,0.005059744,-0.045736216,50.875,78.0,0.0023928226,1114658,2526,-3751,-2122,11220
58370020,4253,0,0.24985628,0.52346903,-10.092171,0.023581758,0.0065417164,-0.06408399,50.75,78.0,0.0023928226,1114658,3082,357,-4653,8193
58467617,5250,0,-0.080425575,0.37214008,-9.541771,0.026093831,0.0049629887,-0.031078134,50.75,78.0,0.0023928226,1114658,-1628,925,1334,11227
58569467,5198,0,-0.24772418,1.9753174,-8.510876,-0.0016935905,0.0132260965,-0.08377842,50.75,78.0,0.0023928226,1114658,1167,3099,-7574,8193
58674492,4226,0,0.48698005,-1.3683355,-9.823057,-0.031985838,-0.0024649466,-0.01982653,50.75,78.0,0.0023928226,1114658,1211,-1448,-5408,8193
58774229,5262,0,-0.13001715,-1.1203053,-9.399921,-0.028452568,-0.0024271237,-0.040613182,50.875,78.0,0.0023928226,1114658,1589,869,-6368,11230
58877166,4239,0,-0.15852344,0.09699822,-8.975944,0.04291172,-0.0032473586,-0.07026638,50.625,78.0,0.0023928226,1114658,1150,2764,-8707,11222
58978968,5251,0,0.50704914,1.5515927,-9.7500305,0.01041985,0.007463499,-0.070734315,50.75,78.0,0.0023928226,1114658,578,-1406,-2980,8193
59075570,4184,0,0.3664594,1.3625817,-10.79207,0.0074833552,0.00800193,-0.06651487,50.75,78.0,0.0023928226,1114658,91,1025,-2659,2049
59181617,4200,0,0.7683819,-1.2568079,-12.244917,0.0073450534,-0.017735364,-0.061974596,50.75,78.0,0.0023928226,1114658,814,1155,1823,2048
59283493,4226,0,-0.095634475,-1.3414496,-11.230566,-0.017188853,0.0046284245,-0.044276897,50.625,78.0,0.0023928226,1114658,-1722,-644,359,8193
59384347,4281,0,-0.5703623,0.606991,-9.999793,0.0009977624,0.010371139,-0.083950356,50.625,78.0,0.0023928226,1114658,-579,4299,-5147,11243
59486159,4219,0,0.6586483,1.0904657,-9.150058,0.017639354,0.002760354,-0.053806636,50.75,78.0,0.0023928226,1114658,347,-845,-6024,11232
59586960,4232,0,0.9507052,0.22488959,-10.973143,0.00053428503,0.0029181505,-0.056208353,50.75,78.0,0.0023928226,1114658,20,-1720,-604,11237
59688767,5251,0,1.5675548,-1.380087,-10.163668,-0.022435907,-0.0037968433,-0.0263027,50.625,78.0,0.0023928226,1114658,279,-3446,-1732,8193
59790696,5329,0,-0.51176953,-0.13106233,-10.081486,-0.022509916,0.011248027,-0.051812034,50.75,78.0,0.0023928226,1114658,988,125,-3751,10254
59891472,4256,0,-0.84067166,1.569578,-8.520928,-0.00078913406,0.009553069,-0.007905008,50.75,78.0,0.0023928226,1114658,135,4263,-5082,8192
59993267,4129,0,-0.7924364,0.84877807,-9.701156,0.021334521,0.0025007674,-0.067925386,50.75,78.0,0.0023928226,1114658,37,3750,-2790,10240
60091967,4200,0,-0.68139076,0.12893537,-9.860579,0.01668034,-0.00615448,-0.035268784,50.75,78.0,0.0023928226,1114658,-626,5141,421,8193
60195917,4177,0,0.88346297,-1.4461867,-10.360266,0.025454246,-0.00013269743,-0.07625926,50.75,78.0,0.0023928226,1114658,-1451,-637,-4186,11233
60296717,4192,0,0.7756834,-0.70448583,-11.011973,0.006980269,0.011634908,-0.045850918,50.75,78.0,0.0023928226,1114658,-942,-1840,-209,10250
60398566,5215,0,-1.0276877,0.84735376,-9.059619,-0.0161501,0.00074936566,-0.041449185,50.75,78.0,0.0023928226,1114658,-468,-2585,-3626,11238
60503577,4205,0,0.29683742,-0.23843263,-10.043979,0.03113759,-0.013442856,-0.03573579,50.75,78.0,0.0023928226,1114658,1029,3467,-1626,2049
60605417,4195,0,0.71772623,-1.4965949,-10.06697,0.020442968,-0.0016531462,-0.056977727,50.75,78.0,0.0023928226,1114658,74,-2162,-7382,8193
60706217,4200,0,0.23752631,-1.101526,-11.45856,-0.008768137,0.013427314,-0.04607851,50.75,78.0,0.0023928226,1114658,-1699,-240,3291,11243
60808114,5297,0,-0.26752678,1.0670345,-9.079367,-0.02611524,0.009030113,-0.022924898,50.625,78.0,0.0023928226,1114658,-787,587,-3480,-10
60908877,4211,0,-0.30451366,1.1753427,-8.425054,0.005086154,-0.0075392183,-0.055644013,50.625,78.0,0.0023928226,1114658,1134,2818,-8883,-9
61010740,4210,0,0.24453782,-0.36832273,-10.202922,0.041942142,-0.012369019,-0.043225404,50.75,78.0,0.0023928226,1114658,2120,3274,-4057,11253
61111547,4185,0,1.5365707,-1.4979767,-10.326589,0.018197158,-0.011771253,-0.026692059,50.75,78.0,0.0023928226,1114658,519,-2047,-3306,11257
61215547,4237,0,-0.91445935,0.76611865,-9.907916,-0.006230798,0.017132066,-0.029286712,50.75,78.0,0.0023928226,1114658,133,3574,-3578,11252
61316346,4272,0,-0.46176025,1.7147629,-8.129972,0.010458981,0.00583113,-0.037527323,50.75,78.0,0.0023928226,1114658,1104,3942,-6481,11253
61416016,5209,0,-1.0238419,1.230391,-8.6037245,-0.0052780616,0.0041633765,-0.06154358,50.875,78.0,0.0023928226,1114658,753,3683,-7924,11260
61518917,4201,0,0.11633163,-1.2367176,-10.554084,0.031136483,-0.0051304493,-0.023709064,51.0,78.0,0.0023928226,1114658,1435,2763,-2660,-9
61621869,4253,0,0.72546333,-1.6502647,-10.6214,0.00955313,0.011329973,-0.07848655,50.75,78.0,0.0023928226,1114658,-2180,-1483,-4675,10261
61719547,4280,0,-0.43445137,-0.46353182,-9.744867,0.025381623,-0.00013813017,-0.070932426,50.75,78.0,0.0023928226,1114658,-606,4470,-4484,11250
61820354,4287,0,-1.0753936,2.240132,-9.561372,0.03689124,0.0054891054,-0.024949877,50.625,78.0,0.0023928226,1114658,1921,5261,-2120,11260
61925267,4105,0,0.18627241,0.38403416,-10.795124,-0.02462498,-0.006722834,-0.065692,50.875,78.0,0.0023928226,1114658,1547,-1377,-1649,11262
62027147,4231,0,0.6961334,-1.3599768,-10.212854,-0.05044668,-0.013054565,-0.014513779,50.75,78.0,0.0023928226,1114658,1858,-2394,-3586,8192
62127940,4224,0,1.2260479,-1.3490607,-9.929332,-0.044084433,0.00697301,-0.046809793,50.75,78.0,0.0023928226,1114658,-36,-3407,-5548,2048
62229767,4200,0,-1.0026019,0.92815614,-9.86577,-0.025584638,0.020294534,-0.016881863,50.625,78.0,0.0023928226,1114658,-264,943,-1503,2048
62331623,5256,0,-0.63991797,2.0817661,-8.614655,-0.003938836,0.007875402,-0.036208704,50.75,78.0,0.0023928226,1114658,1596,3872,-6211,11262
62432417,4139,0,-0.5778899,0.29162115,-9.594192,0.009579856,-0.0037021732,-0.06360755,50.625,78.0,0.0023928226,1114658,321,5964,-6532,11257
62533217,4120,0,-0.38884613,-1.5601176,-10.636839,0.0012187302,-0.0069509065,-0.035395194,50.625,78.0,0.0023928226,1114658,1293,3702,-1309,11267
62632968,5215,0,-0.47292894,-1.1916999,-10.830766,-0.03528275,-0.0008536229,-0.027869435,50.75,78.0,0.0023928226,1114658,-482,1147,-170,8193
62735866,4199,0,0.024292875,0.67138624,-8.980255,0.024388947,0.0061913836,-0.06737523,50.75,78.0,0.0023928226,1114658,-1180,3521,-4819,11285
62837717,4200,0,0.62307465,1.7554595,-9.844512,0.036144253,0.005597667,-0.051115993,50.75,78.0,0.0023928226,1114658,93,2666,-1034,-10
62939607,5290,0,1.1806592,0.03085602,-9.999306,0.033244736,-0.016294725,-0.049923964,50.75,78.0,0.0023928226,1114658,1733,-316,-3290,11270
63046743,4272,0,-1.3029354,-0.91808265,-10.246145,0.004091952,0.00032544514,-0.019864375,50.75,78.0,0.0023928226,1114658,177,5147,568,11277
63144340,5274,0,0.06369529,0.17471156,-10.664997,-0.015725989,0.019786408,-0.039490264,50.625,78.0,0.0023928226,1114658,-383,-228,731,11270
63245165,4249,0,-0.22450125,1.3484703,-8.345418,0.0054561603,0.0030993316,-0.0058996533,50.625,78.0,0.0023928226,1114658,-74,4100,-3832,11275
63347016,4246,0,-0.6421116,0.79890925,-9.224029,0.015262123,-0.011646487,-0.0637397,50.75,78.0,0.0023928226,1114658,693,5530,-6276,2048
63449949,4251,0,1.4284749,-1.5738758,-11.879193,0.010189652,0.0014659646,-0.06052191,50.75,78.0,0.0023928226,1114658,-1319,-2673,2448,11271
63553869,4252,0,0.12693076,-0.54973346,-9.225006,-0.040422913,0.019901967,-0.026824404,50.75,78.0,0.0023928226,1114658,-297,-3017,-4818,10240
63650416,4199,0,-0.05279984,-0.35746104,-9.430899,0.014967781,0.0029120843,-0.03301132,50.625,78.0,0.0023928226,1114658,-469,-1067,-4241,-10
63756468,4128,0,-0.9083313,1.1734105,-9.636784,0.004469238,-0.002941799,-0.019230705,50.625,78.0,0.0023928226,1114658,2107,5026,-1833,8193
63857267,4105,0,-0.46813306,-0.27931008,-9.452538,0.016166283,-0.011659977,-0.029825259,50.75,78.0,0.0023928226,1114658,1270,5294,-6206,8193
63959158,4242,0,-0.5222184,-1.7366581,-9.574035,0.031051941,-0.0016873674,-0.057781447,50.75,78.0,0.0023928226,1114658,-504,3531,-9641,11281
64059926,4210,0,-1.617848,-0.0020897668,-9.465981,0.013499621,0.017036762,-0.050031777,50.75,78.0,0.0023928226,1114658,-1694,6077,-2854,2049
65386067,4112,0,-0.093635224,-0.16114156,-10.114325,0.013655882,0.019054895,-0.046875436,50.75,78.0,0.0023928226,1114658,334,302,-3264,11294
65486867,4075,0,0.49525326,1.0444344,-9.68471,-0.01888039,0.018873716,-0.06626696,50.75,78.0,0.0023928226,1114658,-2910,-1928,-2114,11301
65588717,4200,0,-0.92940915,1.2128682,-8.323246,0.01586957,-0.0046210466,-0.06442064,50.75,78.0,0.0023928226,1114658,1025,3872,-9310,10227
65688467,4145,0,1.0603386,-0.17230055,-10.169106,0.026312701,-0.020940702,-0.04207032,50.75,78.0,0.0023928226,1114658,803,-346,-2221,8193
65793467,4199,0,0.64146626,-0.5938547,-9.894766,0.0093400655,-0.011470271,-0.03338407,50.75,78.0,0.0023928226,1114658,2083,-1016,-4760,2048
65994017,4171,0,0.8922388,1.3898922,-8.995484,0.010051346,-0.0028300437,-0.023557624,50.75,78.0,0.0023928226,1114658,1455,-2102,-5099,11314
66095867,4200,0,-0.23048086,0.5853144,-8.6631365,-0.025450822,0.0012550732,-0.057003547,50.75,78.0,0.0023928226,1114658,91,1338,-10867,11299
66196666,4164,0,1.5784345,-0.2751429,-11.177227,0.009235935,-0.00671422,-0.025665589,50.75,78.0,0.0023928226,1114658,1259,-1752,2032,11304
66300629,4205,0,-0.104400374,-0.8369222,-8.844156,0.030913964,-0.013006146,-0.03564604,50.875,78.0,0.0023928226,1114658,381,-236,-4579,11308
66399362,4202,0,-0.8695006,-0.5048283,-8.690344,-0.012398486,0.010931934,-0.040592637,50.75,78.0,0.0023928226,1114658,-3255,2097,-4439,-10
66501216,4249,0,0.5027647,1.6949278,-10.498014,0.012161214,-0.0006052588,-0.035510857,50.875,78.0,0.0023928226,1114658,3057,-1471,2194,11299
66606167,4200,0,-0.12765305,-1.0503544,-9.9283,0.030543955,0.00015945657,-0.08107645,50.75,78.0,0.0023928226,1114658,342,3394,-6801,8192
66705946,4230,0,0.09030563,-0.66256714,-10.580705,-0.028434845,0.021827431,-0.026404815,50.75,78.0,0.0023928226,1114658,-1326,-806,-184,11313
66804617,6297,0,0.232121,-0.32690355,-9.882732,0.005611063,0.017589334,-0.02849224,50.75,78.0,0.0023928226,1114658,1264,1036,-3546,11316
66906467,4201,0,-0.0066503636,1.6869746,-9.075311,-0.032428738,0.01775628,-0.046629936,50.75,78.0,0.0023928226,1114658,343,-2330,-4431,8193
67009366,4191,0,1.0623655,0.6601689,-11.145494,0.0024934525,0.0053685536,-0.05606579,50.75,78.0,0.0023928226,1114658,-163,-1627,1264,-10
67111221,4203,0,0.28613332,-0.9023094,-10.2831135,0.027228419,-0.009405198,-0.07777311,50.75,78.0,0.0023928226,1114658,2113,3805,-7460,8192
67213152,5335,0,-0.123107225,-1.377736,-10.430324,-0.013670788,0.009549352,-0.03571181,50.75,78.0,0.0023928226,1114658,-2226,285,-1990,11324
67313991,4325,0,0.5111603,-0.050423514,-10.995533,-0.0044486495,0.0031323934,-0.075448565,50.75,78.0,0.0023928226,1114658,-3378,-1497,-812,11326
67415718,4196,0,0.96791697,1.3476958,-10.809319,0.013683637,-0.0034298326,-0.07211085,50.875,78.0,0.0023928226,1114658,-240,-2627,-165,10234
67516517,4170,0,-1.0435859,1.5135767,-10.329479,0.018641468,-3.5385601e-06,-0.075582154,50.75,78.0,0.0023928226,1114658,1551,5555,-469,11316
67618386,4192,0,0.80015635,-0.36935237,-11.3686075,-0.0024543596,0.00024208063,-0.03370855,50.75,78.0,0.0023928226,1114658,1094,-199,2797,-10
67719196,4229,0,-0.2071942,-1.1810446,-10.151105,-0.0057372553,0.00984872,-0.064454384,50.875,78.0,0.0023928226,1114658,-671,2310,-5238,11331
67821045,4228,0,0.43131003,-0.910524,-9.478758,0.0025874123,0.0109467935,-0.055622242,50.75,78.0,0.0023928226,1114658,-2898,-900,-4139,2049
67923916,4199,0,-0.5487524,1.4683307,-7.8903327,0.0041167145,-0.0014915424,-0.036496583,50.75,78.0,0.0023928226,1114658,1382,4578,-7106,11318
68021567,4160,0,-0.99167603,1.3823562,-9.568089,0.015115646,0.008445036,-0.042057958,50.75,78.0,0.0023928226,1114658,1690,5649,-3518,8192
68124468,4127,0,1.3996425,-0.6881814,-11.75541,-0.023246925,-0.004829313,-0.035299283,50.75,78.0,0.0023928226,1114658,785,-2200,2655,8193
68226316,4154,0,0.053093504,-0.41878504,-10.303206,0.008532302,0.01509607,-0.026811454,50.875,78.0,0.0023928226,1114658,25,2173,-3264,8192
68330267,4200,0,1.1865265,1.6954081,-10.641045,0.00048959506,0.0030562624,-0.02343634,50.625,78.0,0.0023928226,1114658,696,-1921,1079,11324
68428968,6206,0,1.4065135,1.6078714,-9.028451,-0.012993123,0.0024349838,-0.08657773,50.75,78.0,0.0023928226,1114658,-940,-3584,-5233,8193
68532917,4201,0,0.8689398,0.20068526,-10.489459,0.044322006,-0.008781081,-0.045180526,50.875,78.0,0.0023928226,1114658,1950,1635,-888,8192
68632666,5197,0,1.3017509,-1.101852,-11.56709,0.019557336,-0.00039836933,-0.06707314,50.75,78.0,0.0023928226,1114658,472,-1673,-89,16971
68735569,4202,0,-0.46964085,0.56932527,-9.631608,-0.005199578,0.00704763,-0.006323058,50.875,78.0,0.0023928226,1114658,593,1312,-3131,10222
68839540,4223,0,0.08398479,1.7159564,-8.852174,0.020868015,0.005755816,-0.052008826,50.75,78.0,0.0023928226,1114658,122,1495,-5530,11353
68940348,4213,0,1.1087971,0.49788073,-9.512141,0.023049138,-0.0027380465,-0.066641346,50.875,78.0,0.0023928226,1114658,1211,641,-5085,11328
69042166,4186,0,1.2944611,-0.8802621,-10.510208,0.010579115,0.0044977204,-0.060267895,50.75,78.0,0.0023928226,1114658,-180,-1445,-4577,10250
69144017,5242,0,0.14811566,-0.20226991,-10.832245,-0.0044139703,0.02736367,-0.060982704,50.75,78.0,0.0023928226,1114658,-1181,-1269,-950,2048
69244854,4237,0,0.3277284,1.4100589,-10.197877,-0.023156926,0.015500807,-0.04105749,50.75,78.0,0.0023928226,1114658,955,-2679,-67,0
69346762,4262,0,-0.4483099,1.5361422,-9.212474,-0.020014133,-0.0075261747,-0.013637715,50.75,78.0,0.0023928226,1114658,2738,446,-2532,11352
69451703,4142,0,0.16527322,-1.196328,-9.674131,0.032100014,0.0018101201,-0.072106466,50.75,78.0,0.0023928226,1114658,-890,2997,-8044,-10
69549317,4174,0,-0.3270145,-1.8269339,-9.692545,-0.024297405,-0.014803061,-0.04720555,50.875,78.0,0.0023928226,1114658,-585,3168,-5885,11349
69653280,4086,0,0.134457,0.8886305,-10.137174,0.02579218,0.015674219,-0.04589739,50.875,78.0,0.0023928226,1114658,-496,1494,-410,-10
69754092,4103,0,0.120586514,2.1695092,-8.656753,0.028736655,0.008511577,-0.0233865,50.75,78.0,0.0023928226,1114658,574,936,-5282,-9
69853875,5309,0,-0.11681267,1.1506845,-8.628351,0.022656327,-0.00044422265,-0.03683202,50.875,78.0,0.0023928226,1114658,217,4176,-5623,10235
69954691,4275,0,-0.19279632,-0.6870396,-10.209399,0.02921521,-0.0069709313,-0.070533104,50.875,78.0,0.0023928226,1114658,-64,5053,-7663,10239
70058579,4188,0,0.8928747,-1.1110739,-10.6558275,0.006364071,0.006842235,-0.024883546,50.875,78.0,0.0023928226,1114658,-440,-1732,-1143,8192
70160426,5259,0,0.7861446,0.3910362,-9.476065,-0.0021295932,0.013037887,-0.07143652,50.75,78.0,0.0023928226,1114658,-1225,-2823,-5388,2049
70262267,5172,0,1.1146038,1.9606831,-10.329282,-0.017982427,0.009930896,-0.06628968,50.625,78.0,0.0023928226,1114658,572,-4496,-82,11355
70365203,4236,0,1.521771,-0.06003646,-9.913481,-0.03970714,-0.0127433855,-0.0410902,50.75,78.0,0.0023928226,1114658,1645,-5208,-4835,11343
70467017,5251,0,1.2897543,-1.8435782,-11.694657,-0.033500712,0.008494164,-0.06111201,50.75,78.0,0.0023928226,1114658,81,-4659,-368,11355
70568866,5226,0,0.48074692,-0.46122435,-9.737881,-0.038911812,0.022750596,-0.044121187,50.875,78.0,0.0023928226,1114658,-1242,-5193,-4111,8192
70671766,5250,0,-0.18453401,1.2792714,-10.087662,-0.03256268,0.02340797,-0.03927926,50.875,78.0,0.0023928226,1114658,-1746,304,653,11362
70773617,5249,0,0.28344974,1.0399766,-9.104598,-0.044733416,-0.010849006,-0.060896765,50.875,78.0,0.0023928226,1114658,514,-3083,-6267,10237
70872383,4225,0,2.0687518,0.24697019,-10.889067,0.044167235,-0.010352965,-0.08135102,50.75,78.0,0.0023928226,1114658,2050,-656,-2710,-10
70974166,4161,0,-0.30507088,-2.3610187,-9.834632,0.040859424,-0.005502722,-0.022395303,50.875,78.0,0.0023928226,1114658,725,2648,-6304,11363
71077153,4287,0,-0.74125344,-0.29109666,-9.789121,0.046951804,0.004431495,-0.038642336,50.875,78.0,0.0023928226,1114658,414,5118,-2303,11361
71183173,4248,0,0.62915224,1.9496382,-10.16041,0.037633937,-0.0021278618,-0.06989925,50.75,78.0,0.0023928226,1114658,425,1334,-984,11359
71284992,5275,0,-0.67179644,-0.08302497,-8.633812,0.023194091,-0.015343284,-0.03137797,50.75,78.0,0.0023928226,1114658,1239,6116,-5166,2049
71381566,4199,0,1.4138606,-0.25022,-9.530029,0.046493225,-0.0059317686,-0.027061246,50.75,78.0,0.0023928226,1114658,1313,258,-2316,-10
71487617,4148,0,0.9182372,-0.45485422,-9.305586,0.03261238,0.010970632,-0.06003677,50.75,78.0,0.0023928226,1114658,-2716,-2015,-2148,2048
71588417,4157,0,-1.7206422,1.4335266,-8.53738,-0.0007902576,0.0017133688,-0.07400057,50.875,78.0,0.0023928226,1114658,-1544,6045,-4220,11363
71690267,4199,0,0.02448698,1.6856067,-9.96624,-0.039874025,-0.00012680418,-0.04074459,50.75,78.0,0.0023928226,1114658,2310,43,-546,11361
71791067,4176,0,1.1377234,0.20859724,-10.840368,-0.029298814,-0.008689273,-0.008415948,50.75,78.0,0.0023928226,1114658,1755,-3756,451,11360
71892916,4199,0,1.7872574,-1.9345322,-10.590949,-0.026246186,0.0044111665,-0.0593615,50.75,78.0,0.0023928226,1114658,-1132,-5130,-4073,2049
71994832,4266,0,0.5445825,-0.84544474,-11.077489,0.003910467,0.023299878,-0.031788696,51.0,78.0,0.0023928226,1114658,-2705,-2709,1721,0
72096617,5250,0,1.0482489,1.535928,-9.087502,0.010928201,0.0016422748,-0.06797917,50.75,78.0,0.0023928226,1114658,-970,-1503,-3560,2049
72197458,4241,0,0.40248054,1.3716214,-10.235821,0.029468441,-0.005097261,-0.08812699,50.875,78.0,0.0023928226,1114658,625,1322,-3168,8192
72299266,4199,0,1.5914619,-1.1760807,-10.767882,0.03705439,-0.009675219,-0.05772715,50.75,78.0,0.0023928226,1114658,1117,-970,-3260,-10
72400067,4200,0,-0.17112797,-1.7530117,-9.820651,0.03275414,-0.007932166,-0.031678896,51.0,78.0,0.0023928226,1114658,158,2049,-5419,-10
72504021,4199,0,2.0755844,0.2320165,-9.307094,-0.0026071786,0.014727614,-0.056394458,50.75,78.0,0.0023928226,1114658,-1800,-4870,-4557,-10
72605946,4280,0,0.2463921,1.9024489,-9.845185,-0.029203264,0.010721047,-0.04164776,50.625,78.0,0.0023928226,1114658,1058,-1253,-1009,11374
72706769,4270,0,-0.08370203,0.5413449,-10.882669,-0.02685406,0.0049080984,-0.016287692,50.75,78.0,0.0023928226,1114658,2859,-156,-54,11374
72808517,4134,0,0.46241316,-0.9718019,-10.605135,-0.038125027,-0.0012700991,-0.0052688615,50.875,78.0,0.0023928226,1114658,1648,-2126,-1553,11370
72911446,4201,0,-0.7877367,0.42277002,-8.165221,-0.010451878,0.0040139803,-0.012115709,50.75,78.0,0.0023928226,1114658,751,3009,-6192,-10
73013266,4118,0,-1.2165786,1.9328417,-8.2372265,0.004307901,0.008022842,-0.048540056,50.875,78.0,0.0023928226,1114658,-187,5278,-6166,8192
73114066,4144,0,-0.5845024,1.7197381,-9.157089,0.012907425,-0.00465049,-0.08125192,50.75,78.0,0.0023928226,1114658,1467,5479,-5755,10244
73215917,4200,0,0.8654232,-0.47292334,-10.591193,0.04790444,-0.021333711,-0.031645995,50.75,78.0,0.0023928226,1114658,2475,3097,-3810,11375
73317766,5242,0,1.0690931,-1.525556,-9.984161,0.019221151,-0.0039430195,-0.053701833,50.75,78.0,0.0023928226,1114658,-892,-1428,-4850,-10
73419617,5251,0,1.1725175,-0.6640432,-9.677262,0.010542683,0.012292186,-0.08292164,50.75,78.0,0.0023928226,1114658,-3032,-3346,-4125,2048
73520417,4148,0,1.4281917,2.038721,-9.728104,-0.0025294381,0.011359642,-0.062360305,50.875,78.0,0.0023928226,1114658,-2091,-4423,-1696,11376
73621217,4148,0,1.7823315,1.6015713,-10.321517,0.0044322615,0.002540158,-0.069999844,50.875,78.0,0.0023928226,1114658,-289,-4020,-960,8192
73727267,4170,0,0.47986835,-1.2599913,-9.999859,-0.043598566,-0.010526134,-0.012893161,50.75,78.0,0.0023928226,1114658,1795,-1615,-3965,11381
73829146,5235,0,0.025404112,-0.30997375,-8.952893,-0.041893058,0.012795294,-0.01896923,50.75,78.0,0.0023928226,1114658,299,-2703,-4351,8192
73930967,5251,0,0.20721598,1.6520028,-8.723873,-0.042323496,0.008326151,-0.021182388,50.875,78.0,0.0023928226,1114658,803,-2192,-2840,8193
74027567,4172,0,-0.16656639,2.6214209,-9.297977,0.03613848,-0.00043629835,-0.039562248,50.75,78.0,0.0023928226,1114658,2492,3275,-3242,8192
74131545,4228,0,1.7238821,0.16227803,-9.937718,0.0010323673,-0.012941181,-0.03720349,50.75,78.0,0.0023928226,1114658,1906,-3252,-4410,-10
74232354,4192,0,1.2777781,-1.910755,-9.398888,0.01121937,-0.0042110984,-0.055703823,50.875,78.0,0.0023928226,1114658,638,-2482,-5979,11371
74334167,4155,0,0.357027,-0.70927304,-10.078092,0.010881969,0.018109286,-0.058980938,50.875,78.0,0.0023928226,1114658,-2037,-1404,-2604,11394
74436017,5204,0,1.0643284,1.7249273,-9.874602,0.008316427,0.008220687,-0.033279452,50.75,78.0,0.0023928226,1114658,873,-3258,-721,-10
74538926,4135,0,1.2133147,1.3435662,-9.366206,-0.0040729796,-0.00953193,-0.041944485,50.625,78.0,0.0023928226,1114658,1406,-2934,-5455,11379
74640767,4199,0,1.9504733,-1.4289632,-10.932308,-0.018251477,0.0016866387,-0.0721148,50.75,78.0,0.0023928226,1114658,-1032,-3604,-3640,-10
74742729,5362,0,0.95359945,-1.4912993,-11.347198,0.009856372,0.014421816,-0.06497153,50.875,78.0,0.0023928226,1114658,-1963,-3018,2182,-10
74843446,4196,0,0.82172316,0.84661996,-9.005773,0.034614194,0.0054103243,-0.042023186,50.75,78.0,0.0023928226,1114658,-372,-1658,-5883,11394
74945272,4126,0,1.240601,2.7512631,-9.841407,0.022412492,-0.00086503563,-0.06352289,50.625,78.0,0.0023928226,1114658,955,-2719,-2546,2049
75043967,4200,0,-1.314649,2.1475248,-9.519381,0.021032427,-0.0048967213,-0.019301405,50.875,78.0,0.0023928226,1114658,1557,5970,-1424,8193
75145869,4213,0,-0.56749094,-0.14137828,-9.264381,0.018636266,-0.01160488,-0.06303947,50.875,78.0,0.0023928226,1114658,529,6062,-5473,10245
75247666,5247,0,-0.9179571,-1.8169819,-10.328561,-0.034853697,-0.0052951686,-0.055062756,50.75,78.0,0.0023928226,1114658,1004,1690,-2392,-10
75348467,4093,0,-0.06938222,0.36395332,-9.527781,-0.015600775,0.014549512,-0.0046923,50.75,78.0,0.0023928226,1114658,-918,-1479,32,8193
75453467,4200,0,0.08934385,2.1894014,-9.769569,-0.028047299,0.013374843,-0.039742474,50.875,78.0,0.0023928226,1114658,-85,-964,954,8193
75551159,4242,0,0.77687144,2.004128,-9.327645,0.045070227,-0.0056364196,-0.06657408,50.75,78.0,0.0023928226,1114658,2075,1555,-4680,8192
75655111,4245,0,1.7634715,-1.3799106,-8.874473,0.038155526,-0.011237512,-0.072225444,50.75,78.0,0.0023928226,1114658,372,411,-8800,-10
75756917,4200,0,-0.71934307,-2.400836,-10.167064,0.033113483,-0.005705288,-0.038580682,50.75,78.0,0.0023928226,1114658,-1028,3769,-3746,11406
75857717,4200,0,-1.178519,0.7455067,-8.504043,-0.0029818963,0.0021270432,-0.041663054,50.875,78.0,0.0023928226,1114658,247,4604,-7753,11403
75961667,4183,0,-1.6876727,1.9954515,-6.9246736,0.006872159,-0.0007322943,-0.03144938,50.625,78.0,0.0023928226,1114658,627,4547,-10672,11407
76060387,6321,0,1.5838095,1.7749754,-8.985846,-0.0048500965,0.0027855414,-0.07481355,50.875,78.0,0.0023928226,1114658,1371,-3812,-6682,11392
76162216,4199,0,2.0245814,-0.64722955,-11.275535,0.008587135,-0.00067801244,-0.03120268,50.75,78.0,0.0023928226,1114658,1027,-2888,787,-10
76264066,5249,0,0.9073916,-2.8610418,-9.815002,0.029959403,-0.0031235353,-0.076498576,50.75,78.0,0.0023928226,1114658,-1470,-1672,-6946,2049
76365941,5261,0,0.014366969,-0.62136555,-9.859008,0.044149254,0.0039198347,-0.04542605,50.625,78.0,0.0023928226,1114658,-935,69,-3429,11404
76466747,4195,0,0.5546221,2.6271281,-9.435058,0.03401653,0.002868826,-0.06645467,50.625,78.0,0.0023928226,1114658,1195,-139,-5870,11417
76568567,4154,0,0.3157619,2.330062,-8.3292,0.029120011,-0.0018806038,-0.034811374,50.625,78.0,0.0023928226,1114658,2181,3288,-9006,11408
76667266,6287,0,0.22714433,0.7768272,-9.39225,-0.037152205,-0.011185829,-0.08206529,50.75,78.0,0.0023928226,1114658,378,1276,-4364,-10
76769157,5290,0,1.68536,-1.1534796,-11.240882,-0.02099986,-0.012229689,-0.04080509,50.625,78.0,0.0023928226,1114658,1096,-5141,-59,11411
76870967,5250,0,0.3388394,-1.5426427,-9.41296,0.04620862,0.001438299,-0.048626173,50.75,78.0,0.0023928226,1114658,-514,94,-4492,8193
76972817,5226,0,-0.6463337,1.170836,-9.047513,0.042376686,0.013513928,-0.07046831,50.875,78.0,0.0023928226,1114658,-380,5927,-3814,-10
77075742,4154,0,-0.39294133,2.2597418,-8.423821,0.020268774,0.00018673623,-0.025248533,50.75,78.0,0.0023928226,1114658,994,5188,-3702,-10
77177567,5192,0,-1.1345097,-0.12156619,-10.225138,-0.025671884,0.0007418683,-0.08149369,50.75,78.0,0.0023928226,1114658,1326,2735,-6399,-10
77279475,5308,0,0.57778746,-2.0618904,-10.058058,-0.044666603,-0.009152021,-0.027804835,50.75,78.0,0.0023928226,1114658,-1506,-2100,-341,10231
77380291,4249,0,0.5791666,-1.0696636,-9.807344,0.0025422443,0.010714267,-0.037529506,50.875,78.0,0.0023928226,1114658,195,-3770,-4202,10229
77481069,4211,0,-0.7978424,1.3068463,-9.49393,0.03774371,0.008865978,-0.017785192,50.875,78.0,0.0023928226,1114658,899,3797,-786,10240
77582867,4151,0,-1.0168078,1.9523538,-9.577142,-0.009581323,0.013630111,-0.071121916,50.875,78.0,0.0023928226,1114658,135,4923,-3678,11426
77683666,4113,0,0.14092863,0.35620925,-9.615931,-0.04631185,-0.008124555,-0.016858563,50.875,78.0,0.0023928226,1114658,784,-2294,-2641,11426
77785517,4200,0,2.254349,-0.89291,-10.78961,-0.0087676365,-0.00017084045,-0.061377667,50.75,78.0,0.0023928226,1114658,428,-4179,-3332,11420
77887366,5207,0,0.43707946,-1.1697795,-10.540647,-0.004586932,0.021506097,-0.034355406,50.75,78.0,0.0023928226,1114658,-3467,-3036,869,-10
77990293,6326,0,1.0154792,1.380279,-9.863449,0.011017532,0.009522409,-0.09358508,50.875,78.0,0.0023928226,1114658,-1218,-2970,1607,2049
78092158,4241,0,0.63915414,1.9897145,-9.336748,-0.03756645,-0.006366058,-0.05386185,50.875,78.0,0.0023928226,1114658,315,-3536,-4192,-10
78193976,5259,0,0.74250597,-0.7484747,-11.564677,-0.02866448,-0.019286707,-0.051179137,50.875,78.0,0.0023928226,1114658,1071,-2106,1855,-10
78296867,4183,0,-0.43091628,-1.3145181,-10.742599,-0.031473998,0.0069056614,-0.053755853,50.75,78.0,0.0023928226,1114658,-1318,638,-3290,11418
78398750,5261,0,-1.203775,0.851447,-9.497303,-0.01706303,0.009229263,-0.029278334,50.75,78.0,0.0023928226,1114658,-576,2930,-1752,11420
78504794,4227,0,1.8219205,1.3760949,-11.143274,0.022779025,0.005109173,-0.049830742,50.875,78.0,0.0023928226,1114658,1327,-1903,-780,0
78603548,4282,0,-0.34420577,-0.1684402,-9.638436,0.029982079,-0.0039565093,-0.02304165,50.875,78.0,0.0023928226,1114658,597,5026,-3081,11422
78707469,4253,0,0.18974294,-1.3928589,-10.810365,0.032169465,0.012129546,-0.0721593,50.625,78.0,0.0023928226,1114658,106,750,-3110,10243
78808297,4281,0,-1.1424253,0.06861231,-10.273927,0.039982717,0.005901537,-0.020859553,50.75,78.0,0.0023928226,1114658,-61,1910,-2994,10240
78910067,4151,0,0.71076185,2.2333465,-8.829332,0.0074102227,0.00406944,-0.06844803,50.75,78.0,0.0023928226,1114658,424,-2032,-7075,11430
79011950,5205,0,1.5003856,1.2759508,-10.625719,0.009576432,-0.0046486873,-0.056131873,50.75,78.0,0.0023928226,1114658,2478,-3292,-602,2049
79112770,4253,0,2.399259,-1.1515096,-10.092894,0.010235591,-0.0073067113,-0.05381999,50.75,78.0,0.0023928226,1114658,693,-4836,-5224,16971
79212500,4138,0,-0.9154696,-1.7440377,-10.0660305,0.029718457,0.0048973835,-0.06765386,50.75,78.0,0.0023928226,1114658,-1056,1583,-8032,2048
79313267,4119,0,-0.6195569,0.61532027,-9.995791,0.05280016,0.012169982,-0.027519621,50.625,78.0,0.0023928226,1114658,129,4917,-2378,11424
79415181,4245,0,0.7575418,2.7559159,-8.572257,0.032795426,0.006177566,-0.055900533,50.625,78.0,0.0023928226,1114658,243,587,-7850,8193
79521206,4239,0,0.05902564,-0.06263839,-9.337662,-0.032084234,-0.017309157,-0.024029007,50.75,78.0,0.0023928226,1114658,3246,-1472,-7326,11428
79623017,4200,0,1.1920732,-1.1900797,-10.164241,-0.010371347,-0.003577622,-0.046881787,50.875,78.0,0.0023928226,1114658,693,-4653,-4067,2049
79723817,4197,0,-0.04551646,-0.35473678,-10.793138,0.042070534,0.010437993,-0.03831626,50.75,78.0,0.0023928226,1114658,365,955,588,11421
79824617,4200,0,-0.026328135,1.7335047,-9.777968,0.0462541,0.0035312907,-0.01079996,50.875,78.0,0.0023928226,1114658,1359,3072,1035,2048
79926487,4221,0,0.11720843,2.0730596,-9.111403,0.033755977,-0.014951426,-0.034411814,50.875,78.0,0.0023928226,1114658,3124,1795,-4741,-10
80028371,5305,0,1.7431722,-0.7264001,-10.37873,0.018804152,-0.015603443,-0.09747712,50.875,78.0,0.0023928226,1114658,1532,-3007,-7154,11430
80130185,5268,0,0.8691919,-1.9171329,-11.6890545,-0.019427015,0.0013401741,-0.03754066,50.875,78.0,0.0023928226,1114658,-612,-3457,1366,11434
80230974,4201,0,-0.5397691,0.27381784,-9.124746,-0.03357304,0.009517985,-0.025765324,50.875,78.0,0.0023928226,1114658,-1218,-900,-4861,8193
80332817,4200,0,-0.928821,1.5619314,-9.231735,-0.018236773,0.0038818219,-0.05337699,50.75,78.0,0.0023928226,1114658,-510,4301,-4116,8193
80436767,5227,0,1.0583656,0.18728182,-9.447862,0.036217455,-0.01783241,-0.045173988,50.75,78.0,0.0023928226,1114658,2229,5328,-3943,2048
80537567,4200,0,1.2703812,-1.2716179,-10.12264,0.033902124,-0.010426595,-0.07116803,50.75,78.0,0.0023928226,1114658,1150,-123,-9705,11430
80639469,4246,0,0.56430566,-0.85963815,-10.6291065,0.03466597,0.007949667,-0.05270548,50.625,78.0,0.0023928226,1114658,-82,-876,-210,10237
80743366,5207,0,1.3533884,1.8433081,-8.8558035,-0.00070253835,-0.00080029137,-0.045363285,50.875,78.0,0.0023928226,1114658,105,-3437,-2719,-10
80844166,4199,0,0.99800533,1.3832325,-9.315424,0.018912485,-0.003881425,-0.06899923,50.875,78.0,0.0023928226,1114658,2319,-1751,-7336,-10
80948122,5255,0,0.45693803,-0.82456225,-10.125861,-0.01782716,-0.0068874666,-0.028409436,50.875,78.0,0.0023928226,1114658,928,-4467,529,11439
81048934,4204,0,1.350081,-0.88823897,-9.7924185,0.0008392482,0.004259107,-0.030898053,50.875,78.0,0.0023928226,1114658,-1197,-4706,-1584,11437
81150791,4225,0,0.7279185,0.916441,-9.166966,0.0042946036,0.014338663,-0.042501446,50.875,78.0,0.0023928226,1114658,-200,-3490,-5014,11433
81251592,4226,0,0.55133194,2.0077524,-9.905538,-0.0035319305,0.0063586826,-0.07285881,50.875,78.0,0.0023928226,1114658,255,-1619,-1021,11443
81353425,4191,0,1.632824,0.17404366,-10.574173,-0.0018763006,-0.0013727742,-0.036970567,50.75,78.0,0.0023928226,1114658,803,-4177,700,-10
81452158,4242,0,0.82305545,-1.4577616,-10.495994,0.03686301,-0.010263502,-0.043017212,50.875,78.0,0.0023928226,1114658,-450,1555,-826,11434
