timestamp,integral_dt,error_count,x,y,z,x_integral,y_integral,z_integral,temperature,range_m_s2,scaling,device_id,x_raw,y_raw,z_raw,temperature_raw
32382421,4000,0,0.18770805,0.27959973,-9.915546,0.0010829659,-0.0012798045,-0.038893905,60.6205,156.9064,0.0047884034,1442850,33,7,-1954,9249
32486421,4000,0,-0.5227079,0.48227334,-9.995101,0.0021580146,0.0031542894,-0.039204083,60.64266,156.9064,0.0047884034,1442850,-91,-264,-2048,9257
32586458,4038,0,0.26282364,0.80511886,-9.834691,0.002503278,-0.0012120968,-0.037512228,60.631577,156.9064,0.0047884034,1442850,92,19,-2047,9253
32690456,4035,0,0.31224075,1.7477621,-10.408938,-0.0015989721,-0.0004813685,-0.03520924,60.63435,156.9064,0.0047884034,1442850,205,225,-1622,9254
32790420,3976,0,-0.4390052,-0.89337796,-10.281312,0.008819447,0.016895078,-0.048126996,60.628807,156.9064,0.0047884034,1442850,-530,-1084,-2242,9252
32890420,4000,0,-0.60917753,-1.9248189,-10.1543255,0.008383419,-0.0048437133,-0.039777096,60.63712,156.9064,0.0047884034,1442850,-470,-30,-1750,9255
32994461,4034,0,0.097647004,-0.4918762,-10.137458,0.0070758746,0.012830792,-0.041515607,60.628807,156.9064,0.0047884034,1442850,-176,-874,-2105,9252
33094420,3955,0,0.30624625,0.27075878,-9.807648,0.007511261,0.016780956,-0.036326673,60.63435,156.9064,0.0047884034,1442850,19,-805,-2099,9254
33198421,3965,0,0.45305648,1.8663158,-9.790099,-0.010154084,-0.0012368776,-0.04512893,60.628807,156.9064,0.0047884034,1442850,313,574,-2591,9252
33302420,3978,0,-0.5805741,-0.52170897,-9.933849,0.004152867,-0.009463545,-0.038192533,60.631577,156.9064,0.0047884034,1442850,-309,229,-1973,9253
33402420,3993,0,-0.40714315,-0.7349832,-9.906307,0.011945763,0.002217698,-0.037092507,60.62327,156.9064,0.0047884034,1442850,-384,-416,-1403,9250
33502421,4001,0,0.82727003,0.2619118,-10.058163,0.003382211,0.005801484,-0.03766902,60.63435,156.9064,0.0047884034,1442850,98,-604,-1300,9254
33606427,4006,0,-0.6763623,0.6870698,-9.775564,-0.0033905506,-4.9140188e-05,-0.04546816,60.648197,156.9064,0.0047884034,1442850,-25,277,-2563,9259
33706427,4004,0,-0.567764,0.03737103,-10.070487,0.0066671437,0.0023898343,-0.04327075,60.62327,156.9064,0.0047884034,1442850,-517,-104,-1886,9250
33810421,4001,0,0.8916676,0.95796055,-9.770318,-0.01457712,0.0024693063,-0.037235692,60.62327,156.9064,0.0047884034,1442850,991,-11,-2356,9250
33910440,4019,0,-0.54968894,-0.089012526,-9.859041,0.0019025726,-0.006230389,-0.04069185,60.68144,156.9064,0.0047884034,1442850,-162,335,-2319,9271
34010421,4001,0,-0.21424036,-0.80546486,-9.911425,-0.0053429822,0.0062856325,-0.039243553,60.65097,156.9064,0.0047884034,1442850,25,-520,-1899,9260
34114425,4005,0,0.74437094,1.7618021,-9.878258,-0.0045972536,0.0025052184,-0.037833534,60.664818,156.9064,0.0047884034,1442850,395,454,-2351,9265
34214421,4001,0,0.2178243,0.2200436,-10.087858,-0.008019245,-0.008696265,-0.04012601,60.645428,156.9064,0.0047884034,1442850,794,642,-2146,9258
34318420,3957,0,0.17498392,0.17595969,-9.591255,0.019380419,0.01077359,-0.043298367,60.66205,156.9064,0.0047884034,1442850,-761,-414,-2755,9264
34422421,4001,0,-1.1198866,0.024029793,-10.043924,-0.0050137537,-0.0013285507,-0.042874523,60.66205,156.9064,0.0047884034,1442850,174,236,-1842,9264
34522420,3965,0,1.4843422,0.7574649,-9.96223,-0.014426372,-0.003929208,-0.045572937,60.628807,156.9064,0.0047884034,1442850,916,644,-2002,9252
34626420,3976,0,1.6621855,1.2591137,-9.918541,-0.010478886,-0.006670168,-0.04240129,60.67036,156.9064,0.0047884034,1442850,1015,837,-2490,9267
34726420,4000,0,-0.18574883,0.6779004,-10.083108,-0.014719522,-0.00643037,-0.046750225,60.67036,156.9064,0.0047884034,1442850,393,696,-1537,9267
34826420,4000,0,-0.6023817,-0.3135678,-9.691333,0.01575118,0.026352216,-0.042810656,60.65928,156.9064,0.0047884034,1442850,-825,-1412,-2122,9263
34930421,3964,0,-0.23751506,-0.6247442,-9.688786,0.023527723,0.0096929055,-0.04214866,60.65374,156.9064,0.0047884034,1442850,-1122,-1247,-2537,9261
35030420,3993,0,-0.13905525,-0.9745669,-10.080947,0.020418787,0.0072468156,-0.03740619,60.67867,156.9064,0.0047884034,1442850,-1099,-1449,-1122,9270
35130421,3965,0,1.1371511,0.55927163,-9.65661,-0.021243898,-0.00610529,-0.035912108,60.68698,156.9064,0.0047884034,1442850,1666,621,-2215,9273
35234426,4005,0,0.8887303,0.36508703,-9.971521,0.007208717,0.010401996,-0.04228227,60.67313,156.9064,0.0047884034,1442850,622,-352,-2498,9268
35334427,3962,0,-1.8442523,-0.028839068,-9.945046,0.029923454,-0.0042986535,-0.03923349,60.66205,156.9064,0.0047884034,1442850,-2277,-376,-1955,9264
35438430,4010,0,0.9665197,0.70642895,-10.693221,0.045958735,0.0053973855,-0.051159915,60.67313,156.9064,0.0047884034,1442850,-1018,419,-1621,9268
35539266,4045,0,3.374642,0.76412386,-11.33262,0.017664619,0.012238013,-0.029164318,60.65374,156.9064,0.0047884034,1442850,2630,-326,-504,9261
35639221,4000,0,-3.4303718,0.12836513,-8.804693,-0.0026975768,-0.010232537,-0.018561188,60.65651,156.9064,0.0047884034,1442850,-3226,-223,-2230,9262
35739221,3998,0,-2.7178202,0.2571928,-9.835536,-0.031428166,0.011335554,-0.043960292,60.68144,156.9064,0.0047884034,1442850,-1594,-716,-2325,9271
35843249,4022,0,-1.4528778,0.6744237,-9.787799,0.061488844,0.007843062,-0.048345566,60.68975,156.9064,0.0047884034,1442850,-3699,-81,-1979,9274
35943261,4040,0,0.7952829,0.27947187,-9.811578,0.0394612,0.0103873955,-0.0689163,60.69529,156.9064,0.0047884034,1442850,-1432,279,-3017,9276
36047261,4040,0,-0.25889158,0.03712089,-8.271912,-0.03683453,0.0032861948,-0.042449303,60.68698,156.9064,0.0047884034,1442850,483,236,-4870,9273
36147227,4006,0,0.19862553,0.6736374,-8.559852,0.051941622,-0.0060063833,-0.027841903,60.65651,156.9064,0.0047884034,1442850,-837,-83,-2948,9262
36247221,4000,0,-0.07606159,-0.10100714,-9.659274,-0.044196688,0.0070938575,-0.015759626,60.65928,156.9064,0.0047884034,1442850,965,-410,-2286,9263
36351220,3999,0,-0.232003,-0.64970815,-8.931072,-0.04009302,0.017676495,-0.062153496,60.68144,156.9064,0.0047884034,1442850,643,-1943,-3686,9271
36451221,3961,0,0.23045792,0.5734212,-10.523956,-0.028013384,0.0021668212,-0.045287877,60.67867,156.9064,0.0047884034,1442850,736,-515,-2970,9270
36551255,4034,0,0.036909264,0.4644032,-9.846135,-0.022186084,-0.0031292604,-0.019543312,60.67867,156.9064,0.0047884034,1442850,1494,541,-2745,9270
36655228,4008,0,0.53973216,-0.14899296,-10.738793,0.03882466,-0.0006361131,-0.04515618,60.70083,156.9064,0.0047884034,1442850,-458,1227,-1677,9278
36755221,4000,0,0.13973022,-0.5112284,-9.590485,0.0031554047,0.009629447,-0.087988816,60.69252,156.9064,0.0047884034,1442850,-490,-1344,-2029,9275
36859221,4001,0,-2.0270653,-0.5078372,-8.914072,0.025807582,-0.0039371974,-0.048930578,60.67867,156.9064,0.0047884034,1442850,-3335,63,-3572,9270
36959226,4005,0,0.8761511,-0.36316904,-10.01942,0.044126276,-0.005505,-0.03967441,60.67313,156.9064,0.0047884034,1442850,787,299,-1846,9268
37059221,3966,0,0.17545108,-0.6155106,-10.077904,-0.04820136,-0.005599169,-0.022620847,60.68975,156.9064,0.0047884034,1442850,1547,104,-1206,9274
37163221,3994,0,-0.07504648,-0.37796062,-8.746109,-0.030743359,0.0011892652,-0.05521178,60.68975,156.9064,0.0047884034,1442850,1414,-1335,-4892,9274
37263228,4007,0,0.062216956,0.180933,-10.42153,-0.022246957,0.005090924,-0.065154284,60.67313,156.9064,0.0047884034,1442850,2109,-847,-1691,9268
37363222,4001,0,0.15636948,-0.032925334,-10.4375925,-0.03229398,0.004109081,-0.038651034,60.69806,156.9064,0.0047884034,1442850,552,-590,-102,9277
37467235,4014,0,-0.11423483,0.9642689,-12.248895,0.030734062,-0.009092791,-0.063227095,60.66205,156.9064,0.0047884034,1442850,-743,445,232,9264
37567221,3998,0,0.65905815,0.16823225,-10.632806,0.004594449,-0.016859397,0.0011774402,60.69806,156.9064,0.0047884034,1442850,1956,878,-1877,9277
37671220,3999,0,-1.3146958,-0.6098885,-10.881001,-0.015555073,0.0014722181,-0.048326235,60.68698,156.9064,0.0047884034,1442850,-1027,113,-1458,9273
37775221,4001,0,0.1490118,-0.113325134,-10.049657,-0.033206247,0.008293718,-0.03914936,60.69806,156.9064,0.0047884034,1442850,1088,-675,-2737,9277
37875221,4001,0,-0.7022896,0.97642934,-10.599148,0.024862815,-0.00021837547,-0.045947775,60.68698,156.9064,0.0047884034,1442850,-1634,494,-1867,9273
37979255,4026,0,-0.4112371,0.22915491,-10.534047,0.03940238,-0.007002961,-0.02419459,60.68698,156.9064,0.0047884034,1442850,-1579,403,-2046,9273
38079221,4000,0,0.8684561,-0.6949894,-10.408195,0.008845976,-0.0070944927,-0.004077643,60.69529,156.9064,0.0047884034,1442850,2126,90,-1104,9276
38179221,4000,0,0.60359526,-0.8925205,-9.889612,-0.030063987,0.0028700214,-0.004338323,60.67867,156.9064,0.0047884034,1442850,1930,-339,-1373,9270
38283231,4011,0,0.5091972,0.24168402,-10.50114,0.029308742,-0.0073224776,-0.043989923,60.69529,156.9064,0.0047884034,1442850,597,297,-1397,9276
38383221,3993,0,0.283337,0.74082476,-10.611565,-0.029829446,0.0039382363,-0.037441354,60.69252,156.9064,0.0047884034,1442850,2385,-315,-937,9275
38483255,4028,0,-0.41848752,1.4001473,-10.156981,-0.009231894,-0.002029711,-0.04230476,60.720222,156.9064,0.0047884034,1442850,-854,751,-2183,9285
39095221,4001,0,1.4091021,0.63841945,-10.296738,0.018376142,-0.012530029,-0.0024853768,60.72576,156.9064,0.0047884034,1442850,1480,1118,901,9287
39195220,4000,0,0.98121667,-0.35387692,-10.278388,0.022156738,-0.0101331975,-0.0060089706,60.70637,156.9064,0.0047884034,1442850,1159,547,884,9280
39295221,4001,0,0.57064563,-1.1036065,-9.369127,0.043620635,0.00022210533,-0.047274493,60.68975,156.9064,0.0047884034,1442850,130,125,-2610,9274
39399234,4012,0,0.19874969,0.20082214,-9.740602,0.008177493,0.015132887,-0.045255136,60.69529,156.9064,0.0047884034,1442850,782,-444,-484,9276
39499221,4000,0,0.90617186,0.9651369,-9.111981,-0.022798944,0.013680024,-0.059896745,60.70637,156.9064,0.0047884034,1442850,2641,-285,-2355,9280
39603221,4001,0,-1.5644617,0.48065245,-10.22851,0.0059841857,-0.0026532381,-0.05655375,60.70637,156.9064,0.0047884034,1442850,-2796,16,-533,9280
39703221,3994,0,-0.98445415,-0.14812328,-10.262435,0.008071264,-0.002472126,-0.043746516,60.70914,156.9064,0.0047884034,1442850,-1918,983,-1138,9281
39803220,3953,0,-1.0355917,-1.1644325,-11.064203,0.015391169,-0.003119844,-0.03222382,60.73407,156.9064,0.0047884034,1442850,-2230,220,-272,9290
39907220,4000,0,0.22414364,-0.23952301,-9.571727,-0.017973369,0.019276872,-0.053475156,60.70083,156.9064,0.0047884034,1442850,2061,-1324,-2874,9278
40007247,4027,0,-1.0177361,0.8473892,-10.241914,-0.026773753,0.016172502,-0.03713771,60.67313,156.9064,0.0047884034,1442850,56,-483,-1264,9268
40107226,4006,0,-1.4073747,1.1721712,-9.480842,0.010247618,0.0010595596,-0.059904292,60.69529,156.9064,0.0047884034,1442850,-2732,-425,-3571,9276
40211232,4012,0,1.096446,-0.13448198,-10.257974,-0.016686855,-0.0052786735,-0.024258077,60.720222,156.9064,0.0047884034,1442850,2419,-414,-1209,9285
40311222,4002,0,0.9850081,-0.5946446,-10.704874,-0.026908927,8.696254e-05,-0.056751404,60.67036,156.9064,0.0047884034,1442850,2309,190,-1497,9267
40415265,4043,0,-1.1966531,-0.9419146,-9.905284,0.024834882,5.016986e-05,-0.06871782,60.67036,156.9064,0.0047884034,1442850,-1777,-93,-3565,9267
40519247,4027,0,0.561933,0.82276434,-8.754486,-0.011956569,0.0073660873,-0.038072757,60.65928,156.9064,0.0047884034,1442850,2153,-1295,-2887,9263
40619220,4000,0,0.100520745,1.3388649,-9.797855,-0.034991384,0.004645297,-0.055198744,60.63712,156.9064,0.0047884034,1442850,1588,84,-2561,9255
40723220,4000,0,1.1278818,0.4079104,-11.612761,0.025456954,-0.020414244,-0.046677947,60.66205,156.9064,0.0047884034,1442850,467,1012,-261,9264
40823220,4000,0,0.91286045,-1.1388372,-9.497034,-0.027917221,-0.0037664338,-0.03426133,60.65374,156.9064,0.0047884034,1442850,2301,-184,-3131,9261
40923220,3962,0,0.257311,-1.3700618,-9.924365,-0.04313574,-0.0016569523,-0.066979155,60.645428,156.9064,0.0047884034,1442850,2023,419,-4081,9258
41027220,3963,0,-2.0782433,0.09362544,-10.341282,0.024359658,0.005808155,-0.01703729,60.648197,156.9064,0.0047884034,1442850,-2737,-455,-1005,9259
41127220,4000,0,-1.0974921,0.7219449,-9.215482,0.015031004,0.008041646,-0.04433403,60.63435,156.9064,0.0047884034,1442850,-1839,-1209,-2872,9254
41231221,3995,0,0.8918052,0.73490095,-11.025336,0.008823014,0.0040206425,-0.033867843,60.65374,156.9064,0.0047884034,1442850,1354,389,24,9261
41335220,4000,0,1.7649937,-0.9615344,-10.179359,-0.008307371,-0.0024525344,-0.024701111,60.67036,156.9064,0.0047884034,1442850,2654,-310,-300,9267
41435220,4000,0,-0.17460518,-1.0815399,-9.451387,0.04007536,-0.011276016,-0.009259669,60.614956,156.9064,0.0047884034,1442850,-903,84,-1083,9247
41535267,4047,0,-1.7318815,0.047483522,-9.262311,0.028433133,0.0005936278,-0.03011836,60.609417,156.9064,0.0047884034,1442850,-2367,-479,-1191,9245
41639241,4014,0,0.7452037,1.0897945,-9.441916,0.018149145,-0.007852566,-0.05243182,60.631577,156.9064,0.0047884034,1442850,1439,532,-2789,9253
41739220,4000,0,0.29633522,1.0956644,-10.428513,0.042420857,-0.0030924273,-0.045105495,60.648197,156.9064,0.0047884034,1442850,-1222,494,-977,9259
41843261,4041,0,1.8034186,-0.6346266,-10.378906,0.0092164455,-0.0140037695,-0.009698971,60.63435,156.9064,0.0047884034,1442850,2222,1039,-952,9254
41943226,4000,0,-0.2837933,-0.9090827,-11.213559,0.034945115,-0.009642765,-0.021634279,60.631577,156.9064,0.0047884034,1442850,-927,457,615,9253
42043220,4000,0,-1.8513823,0.25255522,-10.997516,0.021624144,0.01004714,-0.037617996,60.631577,156.9064,0.0047884034,1442850,-3298,576,239,9253
42147223,4003,0,-0.56634176,1.7143663,-10.053146,0.04048398,-0.002461596,-0.008201569,60.64266,156.9064,0.0047884034,1442850,-1942,219,314,9257
42247220,4000,0,-1.322644,1.3326757,-10.971488,0.026286745,0.0035175267,-0.021624995,60.648197,156.9064,0.0047884034,1442850,-2442,818,-255,9259
42351222,3968,0,-1.6204008,-0.07604463,-10.108984,0.040709235,0.008285955,-0.030930063,60.65374,156.9064,0.0047884034,1442850,-3729,455,342,9261
42455220,3972,0,-0.5381013,-0.23372956,-6.42442,-0.025736194,0.00094378507,-0.027159084,60.62327,156.9064,0.0047884034,1442850,323,-1000,-3091,9250
42555220,3959,0,-0.42648813,0.73874384,-7.814903,0.047289908,-0.00343116,-0.02967174,60.65928,156.9064,0.0047884034,1442850,-1863,1299,-3161,9263
42655220,4000,0,0.5582864,-0.030718856,-7.5296364,-0.046881415,0.008969861,-0.05875548,60.63989,156.9064,0.0047884034,1442850,1885,-1705,-4201,9256
42759220,4000,0,-1.5668942,-0.40567636,-9.292462,-0.018277295,-0.003908136,-0.035651516,60.63712,156.9064,0.0047884034,1442850,-1405,-435,-1318,9255
42859220,3993,0,-1.2316207,-0.63124114,-9.922212,-0.028098851,0.00041314098,-0.05700846,60.63989,156.9064,0.0047884034,1442850,-548,-59,-2385,9256
42963220,4000,0,0.45873192,-0.347736,-10.396019,0.016944546,-0.003835837,-0.05289191,60.65651,156.9064,0.0047884034,1442850,281,-448,-625,9262
43063220,4000,0,0.67435676,0.4333125,-9.320599,-0.0057303347,0.0013236699,-0.061574787,60.648197,156.9064,0.0047884034,1442850,2140,-666,-3932,9259
43163252,4032,0,0.0187724,0.76058084,-8.623978,-0.019079126,0.009569814,-0.05754628,60.664818,156.9064,0.0047884034,1442850,911,-98,-6007,9265
43267220,3994,0,1.5405644,0.058578037,-11.206841,0.010996664,-0.011918082,-0.03865184,60.645428,156.9064,0.0047884034,1442850,1449,10,-169,9258
43367220,4000,0,0.34744814,-1.33503,-10.955115,-0.021847513,-0.00034494605,-0.012224132,60.65928,156.9064,0.0047884034,1442850,795,-805,-92,9263
43467220,3999,0,-0.997763,-1.9535412,-10.311696,0.017747108,-0.005164875,-0.053125236,60.67867,156.9064,0.0047884034,1442850,-1655,153,-3133,9270
43571249,4023,0,-1.3454435,0.22251886,-9.573284,-0.02131909,0.012079288,-0.032544285,60.67313,156.9064,0.0047884034,1442850,-514,86,-4023,9268
43671220,3998,0,-1.2683582,1.6410832,-10.616718,0.029417194,0.010334334,-0.06832294,60.67867,156.9064,0.0047884034,1442850,-1494,43,-1340,9270
43775242,4022,0,-0.4188601,2.0657618,-11.047399,0.018776594,0.005461624,-0.04311938,60.65928,156.9064,0.0047884034,1442850,-1556,418,-1865,9263
43875220,4000,0,0.6618538,0.86189044,-10.436793,0.022720776,-0.0073727937,-0.03408743,60.69529,156.9064,0.0047884034,1442850,119,105,-1892,9276
43975220,3998,0,1.3874742,-0.7193192,-9.989279,0.013587281,-0.021626355,-0.050021756,60.68144,156.9064,0.0047884034,1442850,1589,113,-4440,9271
44079224,4004,0,-0.9637158,-1.1802406,-10.198254,-0.021137984,0.009418208,-0.01578899,60.66759,156.9064,0.0047884034,1442850,-55,-662,-2381,9266
44179221,3995,0,-1.2132587,0.28973463,-11.052486,0.021517571,-0.00016345177,-0.05180538,60.66205,156.9064,0.0047884034,1442850,-2211,342,-1369,9264
44279258,4031,0,0.0624848,0.98496985,-9.278326,0.0095468825,0.0028479777,-0.04823092,60.65928,156.9064,0.0047884034,1442850,1189,-366,-4110,9263
44383236,4016,0,-0.48191974,1.0554931,-9.060247,-0.01965015,0.011025602,-0.028569167,60.66759,156.9064,0.0047884034,1442850,-594,-139,-3184,9266
44483227,4007,0,0.22069642,0.047029063,-10.411666,-0.03819819,0.00220425,-0.06995593,60.65928,156.9064,0.0047884034,1442850,1507,-417,-1653,9263
44587220,3973,0,-1.0726262,-1.5440319,-9.494383,-0.013321964,0.0026630946,-0.04042677,60.66205,156.9064,0.0047884034,1442850,-1316,-401,-3249,9264
44687220,4000,0,-0.9038012,-0.27190235,-10.781268,-0.033883728,0.010517867,-0.040215034,60.71191,156.9064,0.0047884034,1442850,1151,-476,749,9282
44787221,3963,0,0.5315135,0.2135573,-8.677173,-0.026755802,0.020425864,-0.057932362,60.65651,156.9064,0.0047884034,1442850,2439,-1821,-3252,9262
44891230,3983,0,0.7143475,0.54215187,-8.61587,-0.03734532,0.017042855,-0.06448512,60.67867,156.9064,0.0047884034,1442850,2179,-1130,-3789,9270
44991220,3998,0,1.0360097,1.662297,-10.498299,0.002655617,-0.011030672,-0.021897402,60.66759,156.9064,0.0047884034,1442850,2008,1235,-1847,9266
45091220,4000,0,-1.157794,0.45163676,-10.156991,0.0011944259,-0.0044992464,-0.025610369,60.67313,156.9064,0.0047884034,1442850,-1727,546,-2157,9268
45195234,4014,0,-1.3450384,-1.9133044,-10.907009,-0.0210708,0.00351925,-0.06296466,60.65374,156.9064,0.0047884034,1442850,-1419,-311,-1234,9261
45295220,4000,0,1.0102612,-1.9550718,-9.643221,-0.028856713,-0.011088414,-0.028699134,60.64266,156.9064,0.0047884034,1442850,3135,-864,-1655,9257
45399220,4000,0,-0.7653166,0.12510076,-8.940999,0.04997063,-0.0015197177,-0.04693564,60.648197,156.9064,0.0047884034,1442850,-2315,409,-2490,9259
45503220,4000,0,-0.7904042,1.0429914,-9.031622,-0.008097116,0.006912985,-0.021668859,60.65928,156.9064,0.0047884034,1442850,-1432,-352,-1066,9263
45603220,3960,0,-0.13971971,1.3550981,-9.439543,-0.021769222,-0.00404432,-0.06557403,60.6759,156.9064,0.0047884034,1442850,104,-304,-3276,9269
45703227,4007,0,-0.38213053,-0.2617159,-9.5701,-0.028820341,-0.006456931,-0.02792497,60.63435,156.9064,0.0047884034,1442850,2078,1178,-1592,9254
45808090,4069,0,0.54162145,-0.54452556,-9.932533,-0.028097086,0.00018449861,-0.044236276,60.664818,156.9064,0.0047884034,1442850,2742,203,260,9265
45908021,4000,0,-2.31861,0.12669878,-9.80574,0.017059414,0.0027583858,-0.030157167,60.6759,156.9064,0.0047884034,1442850,-2791,-118,-1459,9269
46012047,4026,0,-1.7572926,1.2317061,-9.2201805,-0.007574944,0.010618931,-0.060493864,60.66205,156.9064,0.0047884034,1442850,-1905,-97,-3184,9264
46112021,4000,0,0.8800513,0.103316456,-9.8594265,-0.015797205,-0.01664176,-0.012036193,60.68975,156.9064,0.0047884034,1442850,3048,330,-2094,9274
46216021,3971,0,1.7479246,-1.3872321,-10.460934,0.0005434938,-0.014827292,-0.019491011,60.68698,156.9064,0.0047884034,1442850,2715,3,-1595,9273
46320027,4006,0,0.74740976,-0.64006585,-10.352777,0.0086527765,-0.0009705934,-0.05378934,60.69806,156.9064,0.0047884034,1442850,1943,-632,-1877,9277
46424021,4000,0,1.3686473,1.7288179,-9.843544,0.028886551,-0.0050052074,-0.05026975,60.69806,156.9064,0.0047884034,1442850,1341,126,-2226,9277
46524021,4000,0,-0.71940327,1.4657193,-9.323963,0.020337773,0.00016789802,-0.037823483,60.68698,156.9064,0.0047884034,1442850,-2003,560,-4881,9273
46628047,4026,0,-1.1525263,-1.0257109,-9.923077,-0.008520841,-0.0100200325,-0.02434953,60.71745,156.9064,0.0047884034,1442850,-1991,-51,-2139,9284
46728021,4000,0,1.2111043,-1.4333285,-10.711746,-0.02283394,0.0007216402,-0.07619464,60.684208,156.9064,0.0047884034,1442850,3374,-611,-847,9272
46828021,3948,0,-1.0852641,-1.0433389,-9.688565,0.039899185,0.004573396,-0.0056647896,60.70637,156.9064,0.0047884034,1442850,-1885,84,-1151,9280
46932056,4035,0,-0.5710079,1.806941,-9.707301,0.03989821,-0.00074436923,-0.026474174,60.736843,156.9064,0.0047884034,1442850,-1957,318,8,9291
47032021,4000,0,-1.5757203,2.1889522,-10.514455,-0.012296572,0.022160737,-0.057490718,60.70083,156.9064,0.0047884034,1442850,-2161,-142,-675,9278
47132054,4033,0,0.9404676,0.45149428,-9.852864,-0.014334333,-0.0176976,-0.01942059,60.7313,156.9064,0.0047884034,1442850,2610,321,-2875,9289
47236089,4062,0,1.4379176,-1.4571964,-10.669618,-0.016085358,-0.005901589,-0.0720769,60.72576,156.9064,0.0047884034,1442850,2874,-843,-1812,9287
47336030,4009,0,0.7841922,-1.5442144,-11.081627,0.010460021,0.003931431,-0.08255621,60.72853,156.9064,0.0047884034,1442850,1249,-1093,-659,9288
47440053,4032,0,-0.730793,0.46948287,-9.433627,-0.028199716,0.0138434125,-0.01514766,60.71745,156.9064,0.0047884034,1442850,-101,-841,-1891,9284
47544044,4017,0,-0.4170732,1.0426137,-9.825318,0.035232447,0.002443349,-0.06421257,60.71745,156.9064,0.0047884034,1442850,-1464,-485,-3296,9284
48052021,4000,0,-1.217689,1.4329332,-10.139805,-0.0023377766,0.0089971395,-0.037560254,60.753464,156.9064,0.0047884034,1442850,-1873,300,-1807,9297
48560047,4026,0,1.2638242,0.9217515,-9.586801,-0.011190906,0.0069824667,-0.023738734,60.72853,156.9064,0.0047884034,1442850,2521,-137,-761,9288
48660021,4001,0,0.12525964,0.17399347,-10.309148,0.029533245,-0.02465223,-0.02925382,60.720222,156.9064,0.0047884034,1442850,-1099,-130,239,9285
48760027,3982,0,-0.29702705,0.026325101,-10.700815,-0.007912595,0.010601736,-0.06918801,60.756233,156.9064,0.0047884034,1442850,-502,-44,-1445,9298
48864037,4016,0,-0.7864402,-0.20178047,-11.264726,-0.021504983,-0.011830756,-0.08390436,60.753464,156.9064,0.0047884034,1442850,-374,692,-231,9297
48964034,4013,0,0.1377698,0.08235657,-8.390235,-0.027662024,0.019781346,-0.06715807,60.759003,156.9064,0.0047884034,1442850,1106,-851,-5448,9299
49064048,4027,0,0.708781,1.1235399,-11.050624,-0.023290709,0.00056965696,-0.054042418,60.742382,156.9064,0.0047884034,1442850,2055,-1171,154,9293
49168055,4034,0,-0.09846711,0.07962268,-9.289471,-0.02060157,-0.0031102777,-0.025812125,60.772854,156.9064,0.0047884034,1442850,404,-635,-1992,9304
49268021,4000,0,0.2870303,-0.5282088,-10.10174,0.037033524,-0.016305096,-0.021542463,60.753464,156.9064,0.0047884034,1442850,-400,197,-2144,9297
49372047,4026,0,0.49902356,-0.27333292,-8.920448,-0.003240107,-0.0027613991,-0.023691218,60.772854,156.9064,0.0047884034,1442850,1507,-286,-4769,9304
49472020,3999,0,-0.5192235,-0.072425365,-9.09271,0.0116908355,0.00829199,0.01511523,60.7867,156.9064,0.0047884034,1442850,143,-317,-1633,9309
49572020,3974,0,-0.9037918,0.082631454,-9.544282,0.00019160984,-0.012481126,-0.0015203028,60.811634,156.9064,0.0047884034,1442850,-580,-1198,223,9318
49676020,3965,0,0.18499918,0.1190944,-8.441082,0.005469218,0.0032121309,-0.05898741,60.775623,156.9064,0.0047884034,1442850,415,-1142,-5510,9305
49776056,4003,0,-0.28114572,-0.6728384,-9.684533,-0.0068282136,0.019648837,-0.0352753,60.775623,156.9064,0.0047884034,1442850,-130,-1288,-2741,9305
49876048,4021,0,0.47482178,-0.26411107,-10.97637,-0.013741545,-0.011201829,-0.038262926,60.792244,156.9064,0.0047884034,1442850,1621,220,-312,9311
49980026,4006,0,-0.5682266,-0.3040987,-8.041573,-0.0012980358,0.0087761255,-0.05384312,60.7867,156.9064,0.0047884034,1442850,-206,-945,-5741,9309
50080027,4006,0,-0.14097708,0.19654882,-9.549116,0.004566648,0.013178653,-0.032936055,60.78393,156.9064,0.0047884034,1442850,661,-1243,-2154,9308
50184047,4020,0,2.3189492,0.34982914,-9.163264,-0.03628948,-0.0025711562,-0.028462015,60.800552,156.9064,0.0047884034,1442850,4162,-686,-1071,9314
50284020,3961,0,1.5016302,0.65039086,-11.361251,-0.026528366,0.00876916,-0.03178418,60.808865,156.9064,0.0047884034,1442850,2301,75,549,9317
50384044,3997,0,0.22961065,-0.26977354,-10.952824,0.012950693,0.0025219829,-0.017501697,60.795013,156.9064,0.0047884034,1442850,-1773,-927,-250,9312
50488021,4000,0,0.77015936,-0.70523983,-11.582564,0.012271348,-0.002103412,-0.037799653,60.772854,156.9064,0.0047884034,1442850,1249,362,-715,9304
50592020,3999,0,-0.89233506,0.860185,-10.537932,0.0033739468,-0.0030909905,-0.028904805,60.76731,156.9064,0.0047884034,1442850,-563,724,-1396,9302
50692020,3973,0,-0.19027482,0.8518372,-9.364305,0.027006637,-0.004177646,-0.02822463,60.74515,156.9064,0.0047884034,1442850,-1346,427,-872,9294
50796021,4000,0,0.50633126,-0.13226952,-10.378947,-0.034400385,-0.0008383137,-0.024858518,60.75069,156.9064,0.0047884034,1442850,1665,620,-1003,9296
50896021,4000,0,-0.29922768,-1.4059666,-9.014217,-0.0150773935,-0.003084297,-0.040808797,60.7867,156.9064,0.0047884034,1442850,150,-306,-4291,9309
50996047,4020,0,-0.6230729,-0.67313504,-10.050096,-0.047692847,0.0018924724,-0.019617895,60.7867,156.9064,0.0047884034,1442850,1096,-449,-1909,9309
51100055,4035,0,-1.1073779,1.3312938,-9.370502,0.03380063,0.0008758663,-0.020689066,60.75069,156.9064,0.0047884034,1442850,-2490,498,-1600,9296
51200021,3994,0,-1.2821507,1.5874327,-9.233443,0.02013642,0.0018854353,-0.01791137,60.800552,156.9064,0.0047884034,1442850,-2532,168,-1325,9314
51304047,4020,0,-0.22001947,0.007509753,-9.18761,0.045966133,-0.008730624,-0.069084026,60.78393,156.9064,0.0047884034,1442850,-1695,241,-6141,9308
51408021,4000,0,0.6623951,-1.9799731,-10.412575,0.032427646,-0.010539241,-0.021097442,60.78393,156.9064,0.0047884034,1442850,477,88,-2479,9308
51508061,4041,0,-2.1791122,-1.1131371,-9.3434305,0.00029703416,0.00031954818,-0.0143261645,60.795013,156.9064,0.0047884034,1442850,-2257,200,-1960,9312
51608026,3984,0,-1.280672,-0.35424206,-10.2772875,-0.04785879,0.025089206,-0.053039946,60.778393,156.9064,0.0047884034,1442850,1054,-1377,-2425,9306
51712021,3959,0,-0.2052202,1.4197067,-8.905524,-0.043305904,0.015109253,-0.042340346,60.819942,156.9064,0.0047884034,1442850,1365,-806,-4624,9321
51812035,3988,0,1.5808575,1.8237021,-9.708925,-0.00017462578,-7.4569834e-06,-0.08087138,60.775623,156.9064,0.0047884034,1442850,2510,-199,-2771,9305
51916027,3997,0,1.8703334,-0.22909889,-9.900999,-0.0032692598,-0.020916801,-0.032505278,60.80332,156.9064,0.0047884034,1442850,2758,109,-1488,9315
52016021,4001,0,-1.8455554,-1.260383,-9.623697,0.027689813,-0.007848032,-0.049929194,60.789474,156.9064,0.0047884034,1442850,-2791,274,-3695,9310
52116050,4030,0,-0.30833134,-1.146675,-10.170133,-0.062019892,0.001343329,-0.060941085,60.775623,156.9064,0.0047884034,1442850,2251,352,-3246,9305
52220020,3999,0,-0.91572744,0.7494459,-9.112817,-0.033965714,0.0075938497,-0.02361032,60.797783,156.9064,0.0047884034,1442850,364,-245,-2370,9313
52320020,3965,0,1.9504926,0.89425147,-9.086534,0.0036992459,0.006242893,-0.044869475,60.77008,156.9064,0.0047884034,1442850,2738,-992,-1741,9303
52424047,4026,0,1.4252726,1.3607551,-10.317358,-0.027181923,0.003666206,-0.06584958,60.789474,156.9064,0.0047884034,1442850,3162,-597,-932,9310
52528059,3989,0,0.7740701,-0.729149,-11.084665,-0.04240694,-0.002248851,-0.00809735,60.77008,156.9064,0.0047884034,1442850,2452,457,-315,9303
52628021,3996,0,1.1650301,-1.613008,-10.751457,0.005022887,0.0013401338,-0.040040538,60.78393,156.9064,0.0047884034,1442850,2469,-430,-392,9308
52732060,4039,0,-0.20022514,-0.083717465,-8.961952,-0.03827972,0.01212945,-0.029610211,60.778393,156.9064,0.0047884034,1442850,2226,-917,-2162,9306
52832020,3993,0,0.004151059,0.5183201,-9.30222,-0.022092685,0.007996541,-0.027188148,60.778393,156.9064,0.0047884034,1442850,2056,-1146,-1796,9306
52932020,3956,0,0.28805417,0.842356,-9.619574,-0.032582182,0.010167641,-0.039828964,60.778393,156.9064,0.0047884034,1442850,1804,-895,-1631,9306
53036029,3970,0,-1.4806523,1.0915601,-10.366676,0.013800053,-0.000650313,-0.03636118,60.775623,156.9064,0.0047884034,1442850,-2573,492,-1575,9305
53136062,4042,0,-1.3269769,-0.11534725,-10.366593,-0.011225564,-0.00021960982,-0.073171385,60.808865,156.9064,0.0047884034,1442850,-1444,431,-2309,9317
53236053,4032,0,-1.1254317,-0.90607566,-9.253548,-0.023621093,-0.0029463745,-0.045736916,60.759003,156.9064,0.0047884034,1442850,-923,421,-3818,9299
53340020,4000,0,-0.057960458,0.19436027,-9.569423,0.024225611,-0.0064816326,-0.0016749052,60.753464,156.9064,0.0047884034,1442850,-290,676,-796,9297
53440020,4000,0,0.9952544,1.0122924,-9.274401,0.010804529,-0.013585725,-0.005107429,60.778393,156.9064,0.0047884034,1442850,1788,-125,-2326,9306
53544047,4013,0,-1.0590327,1.0121497,-9.104987,-0.012359894,0.011436179,-0.035333436,60.789474,156.9064,0.0047884034,1442850,-1554,-342,-3934,9310
53648063,4042,0,-0.07274835,-0.9641814,-9.814509,0.036144525,-0.014992279,-0.06778879,60.76454,156.9064,0.0047884034,1442850,-933,739,-4660,9301
53752027,4007,0,-0.0052026124,-0.49031606,-10.943674,-0.013474291,0.024208242,-0.024885474,60.77008,156.9064,0.0047884034,1442850,1486,-844,434,9303
53852048,4027,0,0.1326658,0.101425774,-10.067014,-0.025550712,0.02154395,-0.053075146,60.806095,156.9064,0.0047884034,1442850,2062,-1017,-1472,9316
53956055,4034,0,-0.58927256,2.041351,-10.257302,0.03192478,0.0021845438,-0.034833204,60.756233,156.9064,0.0047884034,1442850,-2174,1080,-210,9298
54056021,3965,0,1.4271512,0.7474781,-10.048833,0.020848023,-0.018716503,-0.061358333,60.778393,156.9064,0.0047884034,1442850,956,824,-3517,9306
54160054,4033,0,-1.1718872,-1.0693593,-10.255639,0.0069478787,0.012152263,-0.06291931,60.808865,156.9064,0.0047884034,1442850,-1853,-787,-2378,9317
54264020,3982,0,-0.050337594,-0.4165435,-8.975758,-0.022588914,0.013343787,-0.06150516,60.814404,156.9064,0.0047884034,1442850,1460,-1179,-3384,9319
54364021,4001,0,-0.7103128,0.9485193,-9.514313,0.00272648,0.0011540483,-0.045358293,60.795013,156.9064,0.0047884034,1442850,-1300,228,-1974,9312
54468047,4027,0,-0.24829619,1.0217983,-10.537147,-0.02288035,-0.0031648031,-0.018494807,60.77008,156.9064,0.0047884034,1442850,269,820,-936,9303
54568020,3964,0,-1.0114065,-0.4980981,-8.678476,-0.020775916,0.0011928156,-0.040728305,60.80332,156.9064,0.0047884034,1442850,-298,-543,-3782,9315
54668020,3980,0,-1.141042,-0.35604286,-10.430985,0.018302461,0.010171161,-0.07106016,60.808865,156.9064,0.0047884034,1442850,-2294,64,-2577,9317
54772043,4023,0,-0.90074354,0.2460885,-8.954613,0.006709449,0.016749512,-0.038060684,60.797783,156.9064,0.0047884034,1442850,-2073,-426,-3134,9313
54872027,4006,0,0.40322104,1.2214457,-10.317146,0.0037496435,-0.002475211,-0.04097926,60.7867,156.9064,0.0047884034,1442850,1517,102,-1926,9309
54972054,4034,0,-0.92587054,1.5118054,-9.4501295,-0.0050724456,0.010258112,-0.013357469,60.789474,156.9064,0.0047884034,1442850,-1251,-99,-2299,9310
55076021,4000,0,1.3874826,-0.62816375,-11.197139,-0.013750119,-0.004396365,-0.05414102,60.778393,156.9064,0.0047884034,1442850,2136,75,-432,9306
55176021,4000,0,0.05232244,-0.40995273,-10.114482,-0.035668794,-0.0029646123,-0.009750551,60.789474,156.9064,0.0047884034,1442850,1819,107,-207,9310
55280056,4026,0,-0.13341531,0.6874142,-9.420657,0.026134344,-0.007553871,-0.032684527,60.844875,156.9064,0.0047884034,1442850,-295,388,-2458,9330
55384069,4049,0,-0.05003349,1.4592535,-10.418298,-0.028626796,0.011517525,-0.0045556584,60.792244,156.9064,0.0047884034,1442850,1239,172,-18,9311
55484020,3999,0,0.89633304,1.0660899,-10.466334,-0.014754516,0.0048530567,-0.048026495,60.811634,156.9064,0.0047884034,1442850,1483,106,-1216,9318
55588060,4039,0,-0.2586298,-0.6112775,-10.11594,-0.022618972,-0.0073041744,-0.045131467,60.792244,156.9064,0.0047884034,1442850,323,605,-3316,9311
55688021,4001,0,-0.18126093,-0.75362843,-9.936204,-0.023135807,0.003328169,-0.02708324,60.808865,156.9064,0.0047884034,1442850,666,264,-1645,9317
55788045,3998,0,0.18484962,-0.021380905,-11.078153,0.008569613,0.0081632435,-0.010381221,60.77008,156.9064,0.0047884034,1442850,1263,170,1727,9303
55892020,3961,0,1.4921137,1.3757137,-8.017335,-0.004130898,5.9311802e-05,-0.019255094,60.80332,156.9064,0.0047884034,1442850,2383,-266,-4470,9315
55992060,4039,0,0.58274716,2.3503754,-10.093322,0.036755793,-0.006960675,-0.059471503,60.825485,156.9064,0.0047884034,1442850,-452,990,-2880,9323
56092047,4026,0,-0.8193182,1.2607368,-10.366173,0.030199954,-0.0036649466,-0.012345426,60.800552,156.9064,0.0047884034,1442850,-3050,728,-1059,9314
56196020,3993,0,-0.8427466,-1.1737671,-10.363959,0.045591388,-0.009526368,-0.056798015,60.833794,156.9064,0.0047884034,1442850,-2574,1098,-1854,9326
56296020,3993,0,-0.8412338,-1.4315504,-10.742585,-0.032064836,0.015529618,-0.044243008,60.797783,156.9064,0.0047884034,1442850,-121,-413,-1971,9313
56400079,4058,0,-2.2585242,1.1130122,-8.855228,-0.02148654,0.015806843,-0.0404051,60.842106,156.9064,0.0047884034,1442850,-1619,-513,-3706,9329
56504021,3994,0,-1.4759471,2.3637695,-10.414895,0.014634345,0.009513592,-0.038919054,60.842106,156.9064,0.0047884034,1442850,-2525,481,-957,9329
56608021,4001,0,-0.15257679,0.21149494,-9.718699,0.034018956,-0.015509803,-0.028427921,60.842106,156.9064,0.0047884034,1442850,-2176,1316,-1272,9329
56708054,4033,0,-0.7529827,-0.93110394,-10.378571,-0.02336042,-0.011099806,-0.016597182,60.822716,156.9064,0.0047884034,1442850,-511,381,-863,9322
56812076,4049,0,-1.4237002,-0.058178294,-8.335714,0.019132743,-0.0038479115,-0.020759925,60.822716,156.9064,0.0047884034,1442850,-2435,208,-2521,9322
56912025,4004,0,-2.050355,1.4263486,-9.251908,0.00812652,0.0090836985,-0.033305474,60.806095,156.9064,0.0047884034,1442850,-2538,-363,-1501,9316
57016055,4035,0,1.3000982,1.1862975,-9.083562,0.0048707854,-0.016880892,-0.059124388,60.844875,156.9064,0.0047884034,1442850,1809,44,-5053,9330
57116027,4007,0,0.61170906,0.6083672,-9.505336,0.02176294,-0.01566995,-0.038661364,60.839333,156.9064,0.0047884034,1442850,474,808,-2420,9328
57216021,3974,0,1.4460642,-0.138903,-10.941153,0.007355728,-0.016443271,-0.045895882,60.811634,156.9064,0.0047884034,1442850,1476,1091,-689,9318
57320020,3957,0,-0.7204533,-0.21481726,-10.366211,-0.020246735,0.0107324,-0.014035001,60.822716,156.9064,0.0047884034,1442850,-209,-142,-1321,9322
57424021,3965,0,0.22588105,1.7308735,-10.57762,0.01821335,-0.012753278,-0.01495961,60.847645,156.9064,0.0047884034,1442850,600,1072,-1672,9331
57524031,3984,0,1.3030579,1.148878,-9.54438,-0.011708207,0.0077224625,-0.060561225,60.828255,156.9064,0.0047884034,1442850,2658,-1849,-2283,9324
57628021,4000,0,-0.7732215,0.7676483,-9.767887,0.013756417,0.00032054103,-0.06703836,60.855953,156.9064,0.0047884034,1442850,-2266,72,-2758,9334
57728821,4000,0,0.2102583,-0.57802707,-9.566122,0.03430938,-0.020346247,-0.023257274,60.839333,156.9064,0.0047884034,1442850,-1094,914,-2837,9328
57828827,4006,0,0.50063556,-0.86674327,-10.404715,0.030941298,-0.0028703003,-0.05258451,60.847645,156.9064,0.0047884034,1442850,712,455,-2117,9331
57932821,3993,0,-0.6660651,0.6478957,-9.951398,-0.032224566,0.031421874,-0.046369657,60.847645,156.9064,0.0047884034,1442850,255,-1215,-1547,9331
58032821,3966,0,0.34777758,1.2762029,-8.663591,-0.03401093,0.018594228,-0.042193178,60.797783,156.9064,0.0047884034,1442850,970,-779,-4446,9313
58132821,4000,0,0.18764322,1.8478582,-9.792729,-0.0463503,0.0027897088,0.0015130285,60.842106,156.9064,0.0047884034,1442850,1141,677,-1364,9329
58236821,4000,0,-0.85513794,-0.282241,-9.60916,-0.004365538,-0.019245058,-0.028137302,60.831024,156.9064,0.0047884034,1442850,-1892,322,-1789,9325
58336828,4007,0,-0.592675,-0.82148343,-9.999751,0.007046437,-0.014123001,-0.019926067,60.847645,156.9064,0.0047884034,1442850,-1253,250,-1541,9331
58436821,3978,0,-0.69965965,-0.637202,-10.133874,-0.032981694,0.0021416734,-0.022185024,60.875347,156.9064,0.0047884034,1442850,445,302,-1310,9341
58540868,4047,0,-0.90822554,0.7165631,-9.98092,-0.024272079,0.019456333,-0.056271546,60.817173,156.9064,0.0047884034,1442850,-481,-1159,-459,9320
58640844,4013,0,-0.10755893,1.0903765,-9.062254,-0.017688647,0.012708916,-0.087734535,60.872574,156.9064,0.0047884034,1442850,60,-1552,-2835,9340
58744821,4000,0,-0.72472996,0.93590033,-11.623467,0.023664383,0.005255484,-0.04289479,60.867035,156.9064,0.0047884034,1442850,-2639,1066,270,9338
58848820,3978,0,1.0351523,-1.2065803,-10.483559,0.011773523,-0.014792254,-0.039375283,60.858727,156.9064,0.0047884034,1442850,1645,172,-1590,9335
58948860,4037,0,-0.5906906,-0.3314701,-10.843571,0.02325208,0.01121975,-0.064340904,60.844875,156.9064,0.0047884034,1442850,-901,-286,-35,9330
59052825,4004,0,-0.032421716,1.7553829,-10.317169,-0.013097601,0.011097659,-0.019942338,60.858727,156.9064,0.0047884034,1442850,1091,534,843,9335
59152848,4021,0,0.3976446,1.6101584,-10.289865,-0.023255067,0.0055106375,-0.051983897,60.853184,156.9064,0.0047884034,1442850,1321,94,-559,9333
60476821,4001,0,1.1298839,-0.50573725,-10.306566,-0.009813844,0.006349353,-0.002560562,60.875347,156.9064,0.0047884034,1442850,2326,-732,731,9341
60576820,3991,0,0.3831495,-0.1839779,-9.7265625,-0.010964729,0.022304144,-0.046255875,60.886425,156.9064,0.0047884034,1442850,2191,-1609,-1429,9345
60676827,4004,0,0.7288528,1.0777978,-9.159948,-0.024380181,0.008165482,-0.036007155,60.916897,156.9064,0.0047884034,1442850,1980,-222,-3046,9356
60780887,4028,0,-0.64118695,0.81722057,-9.086965,-0.03646534,0.0037775137,-0.09536436,60.914127,156.9064,0.0047884034,1442850,288,-433,-5568,9355
60880861,4033,0,-1.3466763,-0.106750906,-9.784329,-0.023442674,-0.0042965156,-0.050509322,60.864265,156.9064,0.0047884034,1442850,-1951,59,-2904,9337
60984827,4007,0,-0.7285355,-1.3793497,-9.439471,0.021685924,-0.005770625,-0.051515043,60.894737,156.9064,0.0047884034,1442850,-1201,-260,-2663,9348
61084821,4001,0,-0.99001026,0.26811785,-9.053337,0.013603482,-0.0014719646,-0.034677133,60.933517,156.9064,0.0047884034,1442850,-735,634,-2121,9362
61184865,4044,0,-0.8533436,1.4243168,-10.138869,0.0029863766,0.0072336295,-0.03178523,60.891968,156.9064,0.0047884034,1442850,-1665,601,-1561,9347
61288821,4000,0,1.1323259,1.0214208,-9.802949,0.01748804,-0.019147938,-0.0125836255,60.90859,156.9064,0.0047884034,1442850,1240,137,-1204,9353
61388820,3960,0,1.6083969,0.21612191,-10.626154,0.0051158285,-0.018426515,-0.031722307,60.883656,156.9064,0.0047884034,1442850,1913,54,-614,9344
61488845,4024,0,1.3188272,-0.8145879,-11.074521,-0.008154518,-0.014214755,-0.029039113,60.925205,156.9064,0.0047884034,1442850,2286,107,-822,9359
61592864,4024,0,-0.54493874,-0.5399187,-9.28948,-0.035564885,0.0112266205,-0.016690034,60.889194,156.9064,0.0047884034,1442850,659,-719,-1684,9346
61692820,3993,0,0.20443697,0.30497766,-8.990237,-0.033612087,0.0057190247,-0.014792712,60.894737,156.9064,0.0047884034,1442850,1616,-423,-1525,9348
61796820,3999,0,-0.9653821,1.2310789,-8.708818,-0.0012408001,0.006015963,-0.04632129,60.916897,156.9064,0.0047884034,1442850,-1906,-314,-3943,9356
61896820,3999,0,0.6541004,0.59650844,-9.923476,-0.021994568,-0.0047583813,-0.035053387,60.869804,156.9064,0.0047884034,1442850,1250,-53,-1462,9339
61996828,3997,0,0.68223244,-0.8151715,-10.50607,0.028326208,-0.013888276,-0.058238257,60.922436,156.9064,0.0047884034,1442850,-465,-40,-2979,9358
62100821,3994,0,0.41867742,-1.4950374,-11.362679,0.028556276,0.0025924076,-0.011401849,60.933517,156.9064,0.0047884034,1442850,473,55,1313,9362
62200828,4008,0,-1.4616951,0.0133174835,-11.018641,0.035384685,0.0059595713,-0.022906752,60.922436,156.9064,0.0047884034,1442850,-2858,606,585,9358
62300820,4000,0,-1.2841942,1.3845454,-10.035594,0.017335871,0.009009307,-0.022257404,60.905815,156.9064,0.0047884034,1442850,-2760,-271,-254,9352
62404834,4014,0,0.24213533,1.6750534,-9.314497,0.026800029,0.0032830595,-0.04945952,60.900276,156.9064,0.0047884034,1442850,-1140,-163,-3078,9350
62504821,4001,0,0.17797957,0.7124056,-9.074755,0.03416612,-0.008609569,-0.03523956,60.919666,156.9064,0.0047884034,1442850,-1442,518,-3605,9357
62608820,3965,0,1.2210333,-0.8991937,-10.246148,7.1181916e-05,0.00050019147,-0.07210342,60.900276,156.9064,0.0047884034,1442850,1599,-395,-3194,9350
62712833,3979,0,-0.23937476,0.12293155,-10.609859,-0.026398843,0.0017164648,-0.029195502,60.92798,156.9064,0.0047884034,1442850,803,481,-1369,9360
62812844,4023,0,-0.58900136,0.9114657,-10.208938,-0.0130437855,0.0016503053,-0.030632641,60.92798,156.9064,0.0047884034,1442850,-238,-18,-1743,9360
62916821,4001,0,1.104049,1.6820902,-9.470014,0.0013869223,0.0014717145,-0.06151776,60.911358,156.9064,0.0047884034,1442850,606,66,-3451,9354
63016820,4000,0,1.5443625,0.7183777,-9.598338,0.0035956162,-0.0062198997,-0.04890763,60.925205,156.9064,0.0047884034,1442850,1570,-5,-2563,9359
63116821,4001,0,1.4310607,-0.63440657,-10.083816,-0.021821842,-0.005774063,-0.02331628,60.925205,156.9064,0.0047884034,1442850,2122,77,-1424,9359
63220820,3971,0,-1.1001061,-1.1379337,-9.555443,0.01868283,0.001108327,-0.06841353,60.922436,156.9064,0.0047884034,1442850,-2108,-825,-3659,9358
63320821,3959,0,-0.54887104,-0.7696995,-8.965835,0.022133198,-0.0012424196,-0.03917847,60.897507,156.9064,0.0047884034,1442850,-1089,-388,-3118,9349
63420821,3994,0,1.1755235,0.67117184,-9.982416,-0.0020733476,0.00027437368,-0.019691862,60.90859,156.9064,0.0047884034,1442850,2094,-563,-872,9353
63524826,4006,0,-0.39833057,1.6213319,-9.367816,0.029368488,-0.0056214132,-0.022281978,60.936287,156.9064,0.0047884034,1442850,-2055,617,-1160,9363
63624827,3957,0,1.2550602,0.53212863,-10.798187,-0.0004784176,-0.02053054,-0.04160688,60.886425,156.9064,0.0047884034,1442850,1701,1429,-890,9345
63728848,4028,0,0.2326786,-0.92356026,-9.2715845,-0.0067680343,-0.0016508489,-0.01697825,60.897507,156.9064,0.0047884034,1442850,722,145,-3535,9349
63832827,4007,0,-0.790668,-0.34212643,-9.143109,-0.0039719692,-0.0011497189,-0.020166922,60.939056,156.9064,0.0047884034,1442850,-439,81,-2026,9364
63932826,4003,0,0.2616651,0.8367453,-8.643595,-0.005817765,-0.0021132447,-0.014827144,60.941826,156.9064,0.0047884034,1442850,434,183,-3474,9365
64036820,4000,0,0.2273559,1.0576777,-9.786551,0.011908613,0.000588723,-0.040427014,60.939056,156.9064,0.0047884034,1442850,-674,-283,-2264,9364
64136842,4019,0,0.94561046,-0.05375044,-9.76351,-0.014594581,-0.004006013,-0.013652474,60.950138,156.9064,0.0047884034,1442850,1756,189,-1012,9368
64236820,4000,0,0.017400213,-0.9357432,-9.535449,-0.027745174,-0.0058158273,-0.010298565,60.891968,156.9064,0.0047884034,1442850,461,-17,-1723,9347
64340840,4020,0,-0.6604501,-0.65019274,-10.112335,0.011909743,0.01322377,-0.065427125,60.905815,156.9064,0.0047884034,1442850,-443,-705,-2564,9352
64440820,3999,0,-0.009257166,0.70615315,-10.191492,0.023231667,0.012007803,-0.071589656,60.933517,156.9064,0.0047884034,1442850,-815,-19,-2349,9362
64540820,3993,0,-0.3239994,1.9429337,-10.598168,0.028060537,0.007621225,-0.051201414,60.958447,156.9064,0.0047884034,1442850,-1630,354,63,9371
64644859,4004,0,0.72926915,0.68362945,-9.492071,-0.011394305,-0.015687557,-0.027034352,60.916897,156.9064,0.0047884034,1442850,1259,618,-1973,9356
64744847,4026,0,1.5947543,-0.5401969,-10.660041,-0.0036097718,-0.009628434,-0.047078878,60.914127,156.9064,0.0047884034,1442850,1994,343,-1680,9355
64848821,3995,0,0.20069478,-1.1973392,-9.108884,-0.042047307,0.0033019586,-0.01352145,60.955677,156.9064,0.0047884034,1442850,1825,-668,-2702,9370
64952821,4000,0,-0.98908484,0.8303023,-9.83826,-0.020078063,0.021249972,-0.03719734,60.96399,156.9064,0.0047884034,1442850,-633,-1428,-1059,9373
65052826,4006,0,0.47165796,1.323239,-8.681083,-0.0430073,0.014015209,-0.055640925,60.952908,156.9064,0.0047884034,1442850,1935,-985,-4538,9369
65156820,3993,0,-0.70890546,0.4064659,-9.565785,-0.012343735,-0.012105276,-0.03340488,60.936287,156.9064,0.0047884034,1442850,-1242,641,-3036,9363
65256820,3994,0,0.6762101,-0.91397434,-10.909,-0.041658096,-0.0021984142,-0.053008437,60.955677,156.9064,0.0047884034,1442850,2233,227,-1663,9370
65356851,4030,0,1.4529966,-1.8280336,-10.831834,0.020734238,-0.0036891801,-0.036346868,60.930748,156.9064,0.0047884034,1442850,1477,-553,-751,9361
65460826,4006,0,0.19485688,-0.79260474,-10.332475,0.008779441,0.007323946,-0.073820576,60.936287,156.9064,0.0047884034,1442850,1569,-1350,-1756,9363
65560821,4001,0,-0.72504514,2.1573617,-9.8722925,0.046183452,-0.00054746633,-0.013324143,60.933517,156.9064,0.0047884034,1442850,-2792,966,-328,9362
65660820,4000,0,-1.2918415,2.3064575,-9.152176,-0.02829964,0.02421126,-0.07109414,60.939056,156.9064,0.0047884034,1442850,-500,-931,-4858,9364
65764820,3994,0,-1.0144652,0.8691176,-9.59751,-0.008829079,-0.0024367203,-0.048665944,60.94737,156.9064,0.0047884034,1442850,-1612,469,-4097,9367
65864820,4000,0,1.3283961,-0.891661,-11.336849,-0.03202972,-0.012217829,-0.029140726,60.98061,156.9064,0.0047884034,1442850,3005,158,257,9379
65968820,4000,0,0.5445874,-1.4938148,-10.706978,-0.04202939,0.01231347,-0.051864035,60.98338,156.9064,0.0047884034,1442850,3038,-430,-667,9380
66072820,3966,0,0.37652367,0.45848286,-8.973662,-0.041391276,0.020357542,-0.05617491,60.96122,156.9064,0.0047884034,1442850,1878,-1389,-4080,9372
66172860,4027,0,1.4475849,1.7163407,-9.7214575,-0.0019808607,0.0037075689,-0.06226299,60.96122,156.9064,0.0047884034,1442850,2513,-529,-2027,9372
66276820,3999,0,1.2796046,0.6748031,-9.625785,-0.023545962,-0.013987962,-0.030546036,60.958447,156.9064,0.0047884034,1442850,2437,-196,-1062,9371
66376820,3993,0,1.384336,-0.27590847,-9.509577,0.027048573,-0.016507234,-0.022799384,60.958447,156.9064,0.0047884034,1442850,852,462,-3440,9371
66476820,3994,0,-0.58264774,-0.9611932,-10.1381645,0.04232979,-0.009790551,-0.03960627,60.955677,156.9064,0.0047884034,1442850,-1587,492,-2405,9370
66580827,4006,0,0.870913,-0.93945867,-10.796996,-0.00076416973,0.013339749,-0.0361414,60.972298,156.9064,0.0047884034,1442850,2329,-1275,223,9376
66680827,3994,0,0.91955185,0.33570024,-10.085158,0.024923908,0.0015948274,-0.043587722,60.94737,156.9064,0.0047884034,1442850,828,-151,-1971,9367
66780827,3986,0,0.028831603,1.9790579,-9.995101,0.04044673,-0.0058802683,-0.019897498,60.955677,156.9064,0.0047884034,1442850,-1250,990,-1883,9370
66884842,4022,0,1.3198065,0.80636734,-9.788576,-0.00995944,-0.0022374128,-0.045872107,60.9446,156.9064,0.0047884034,1442850,2267,-628,-2356,9366
66984820,3998,0,1.4519029,-0.87973595,-9.910275,-0.012735387,-0.0071070194,-0.05263057,60.975067,156.9064,0.0047884034,1442850,2433,-570,-2886,9377
67088820,4000,0,-1.240427,-1.425331,-10.930189,-0.024188083,0.021540325,-0.036325816,60.94737,156.9064,0.0047884034,1442850,-200,-711,-1382,9367
67188820,4000,0,-0.9482736,-0.284787,-10.854589,-0.035128687,0.01794259,-0.031044979,60.96122,156.9064,0.0047884034,1442850,478,-893,-573,9372
67288820,3988,0,-0.12027125,0.55087465,-10.245941,-0.028817916,0.019153126,-0.019362744,60.98061,156.9064,0.0047884034,1442850,1280,-770,-957,9379
67392820,3999,0,-1.0368382,1.5756208,-9.025688,0.014854968,0.0036464513,-0.021611476,60.98615,156.9064,0.0047884034,1442850,-2473,296,-787,9381
67492820,3999,0,-1.517469,1.0631945,-10.142072,0.0021615075,-0.00057897845,-0.022031033,60.98338,156.9064,0.0047884034,1442850,-1957,490,-946,9380
67592821,4001,0,-0.6745078,-0.06365156,-10.668619,-0.014774984,-0.006602683,-0.023522945,60.958447,156.9064,0.0047884034,1442850,-452,783,-1412,9371
67696820,3993,0,-0.5218999,-0.827337,-9.030953,0.022649571,-0.0068577128,-0.049379308,60.96122,156.9064,0.0047884034,1442850,-693,262,-4145,9372
67796820,3970,0,-0.82730526,0.38457268,-8.800323,0.030808952,-0.0024029622,-0.031442806,60.950138,156.9064,0.0047884034,1442850,-1551,261,-2957,9368
67900866,4045,0,0.4451085,1.1566277,-9.2826395,-0.018121336,0.0033424818,-0.05430565,60.98061,156.9064,0.0047884034,1442850,2258,-725,-3260,9379
68000849,4029,0,0.8033313,0.5269414,-9.578172,-0.033160727,-0.0031557404,-0.051232427,60.994457,156.9064,0.0047884034,1442850,1914,-597,-3194,9384
68100820,3999,0,0.7907968,-0.55871737,-9.453087,-0.035325177,-0.006240248,-0.036575913,60.96676,156.9064,0.0047884034,1442850,1981,139,-3212,9374
68204821,4001,0,-1.1720445,-0.8212977,-9.440161,0.024616005,0.006299319,-0.065224215,60.952908,156.9064,0.0047884034,1442850,-2231,-318,-4163,9369
68304835,4004,0,-1.5185294,0.43765363,-8.880857,0.03025626,0.0066101346,-0.05064469,60.952908,156.9064,0.0047884034,1442850,-2698,-35,-3746,9369
68404820,4000,0,-0.28401512,1.7789745,-8.692567,0.03639742,-0.00014395127,-0.036349636,60.972298,156.9064,0.0047884034,1442850,-1578,927,-3527,9376
68508820,3966,0,0.8863699,1.3779966,-10.173321,-0.030615011,0.0023634324,-0.05750461,60.96676,156.9064,0.0047884034,1442850,2360,17,-1545,9374
68608844,4024,0,0.59333473,0.6673834,-10.662536,-0.030151647,0.000403638,-0.04111577,60.952908,156.9064,0.0047884034,1442850,1406,777,-1639,9369
68712821,3998,0,-1.4050922,-1.3224486,-9.386393,-0.0029091798,-0.0066826493,-0.02673043,60.941826,156.9064,0.0047884034,1442850,-1580,-270,-2608,9365
68812821,4001,0,-1.4854271,-1.0121632,-9.110369,0.013317965,-0.0065654954,-0.038114417,60.96676,156.9064,0.0047884034,1442850,-2457,183,-2354,9374
68912841,4021,0,-1.9308522,0.56211257,-8.906753,0.0068132915,0.004858587,-0.0589276,60.994457,156.9064,0.0047884034,1442850,-2538,38,-4062,9384
69016820,3993,0,-0.6397058,2.5470765,-9.970509,0.040712036,0.00024337089,-0.022371564,60.991688,156.9064,0.0047884034,1442850,-2395,926,-886,9383
69116820,3979,0,-1.1191971,2.1639075,-8.986328,0.0049015298,0.00011907099,-0.036942247,60.98615,156.9064,0.0047884034,1442850,-2176,381,-2754,9381
69216821,3987,0,0.44833282,1.1628015,-10.525945,-0.042773996,0.00077052764,-0.04740911,60.96953,156.9064,0.0047884034,1442850,1590,433,-2105,9375
69320841,4021,0,-0.29740897,-1.7303289,-9.906142,-0.04971286,0.0018162739,-0.045168415,60.98338,156.9064,0.0047884034,1442850,1468,-3,-4500,9380
69420820,3999,0,0.6887051,-1.930108,-10.976528,-0.015017425,-0.00050794263,-0.046381164,60.98892,156.9064,0.0047884034,1442850,2745,-626,454,9382
69524820,4000,0,0.69771695,0.68123806,-10.049825,-0.004550442,0.011265527,-0.06674502,60.98892,156.9064,0.0047884034,1442850,2460,-800,-1230,9382
69624820,3999,0,-1.8493965,2.0216722,-9.479632,0.03141228,0.007252867,-0.0043090233,60.991688,156.9064,0.0047884034,1442850,-2918,178,-220,9383
69724838,4018,0,0.7668626,1.234344,-9.036362,-0.04707457,0.0114322435,-0.05714806,60.98338,156.9064,0.0047884034,1442850,2040,-724,-4538,9380
69828820,3999,0,0.64896965,0.24049366,-9.713297,-0.0452414,-0.0069610146,-0.025780989,61.0,156.9064,0.0047884034,1442850,1977,564,-2583,9386
69928820,3994,0,1.6479194,-0.81304526,-9.769645,0.015788231,-0.0125235,-0.0631507,61.01662,156.9064,0.0047884034,1442850,1663,281,-5210,9392
70028821,3994,0,-1.8600316,-1.9522703,-10.621708,0.02165357,-0.014787529,-0.024873495,61.01385,156.9064,0.0047884034,1442850,-2521,415,-290,9391
70132820,3999,0,-1.913773,-0.29132146,-10.04137,0.035668783,-0.00057075475,-0.03012312,60.991688,156.9064,0.0047884034,1442850,-3042,738,-878,9383
70232827,4007,0,-1.3274692,1.0496337,-8.892255,-0.028331969,0.022829317,-0.021348424,60.99723,156.9064,0.0047884034,1442850,-296,-633,-3463,9385
70336827,4000,0,-0.9313706,2.3590932,-9.56092,-0.017386664,0.011117462,-0.024388982,61.00277,156.9064,0.0047884034,1442850,-893,-175,-2956,9387
70436854,4033,0,1.500213,1.4788681,-9.638356,-0.009312157,-0.008682612,-0.07133168,61.03601,156.9064,0.0047884034,1442850,2649,-583,-2820,9399
70536820,3999,0,-0.09277112,1.0158181,-11.238941,0.043847784,-0.020790655,-0.0074871373,60.98892,156.9064,0.0047884034,1442850,-2081,2259,922,9382
70640827,4007,0,-0.4154724,-1.5566771,-10.087021,0.039325006,-0.004137894,-0.05018615,61.01662,156.9064,0.0047884034,1442850,-1447,222,-2222,9392
70744820,3967,0,-0.97178936,0.26501292,-8.481393,0.0438222,-0.003366123,-0.020775609,61.02216,156.9064,0.0047884034,1442850,-1965,225,-2994,9394
70844820,4000,0,-1.359534,1.1032164,-8.295001,-0.005001979,0.017602498,-0.055493053,61.02216,156.9064,0.0047884034,1442850,-1365,-478,-5440,9394
70948820,3999,0,-0.8673841,1.4372888,-10.291452,-0.0055399286,0.014170178,-0.04814432,61.01939,156.9064,0.0047884034,1442850,-1633,136,-2005,9393
71048820,3965,0,0.51432836,0.79185265,-9.843982,-0.040655825,0.0009904358,-0.036527254,61.03324,156.9064,0.0047884034,1442850,2044,257,-2373,9398
71152821,4000,0,-1.676417,-0.87131685,-9.211588,-0.023389535,0.014820578,-0.055838548,61.02216,156.9064,0.0047884034,1442850,-409,-843,-5397,9394
71252849,4029,0,0.07920414,-1.1719228,-9.7519,-0.04874462,0.013358729,-0.056797795,60.994457,156.9064,0.0047884034,1442850,2498,-1507,-2821,9384
71352841,4021,0,0.76051676,-0.5034367,-9.068459,-0.010997492,0.008535871,-0.05777529,61.05263,156.9064,0.0047884034,1442850,2567,-736,-3911,9405
71456820,3994,0,-0.29890633,1.285294,-9.642469,-0.029875293,0.013653232,-0.05528181,60.98061,156.9064,0.0047884034,1442850,464,-128,-3487,9379
71556821,3994,0,-0.4823317,1.2689996,-9.496032,-0.02318017,0.010826744,-0.051215842,61.047092,156.9064,0.0047884034,1442850,127,-165,-3936,9403
71656821,3994,0,-0.7154233,0.040291212,-8.885713,-0.024650637,0.0052021593,-0.03956632,61.0554,156.9064,0.0047884034,1442850,-526,-1,-4405,9406
71760827,3959,0,-0.7407219,-0.62660587,-10.286859,0.031744346,-0.007187564,-0.06342944,61.01939,156.9064,0.0047884034,1442850,-1846,5,-2143,9393
71860827,4007,0,-0.27747774,-0.35443142,-9.546504,0.018348895,-0.015834928,-0.033686098,61.04432,156.9064,0.0047884034,1442850,-466,810,-1770,9402
71960820,4000,0,0.2725611,0.8164178,-10.335289,0.021283459,-0.009460264,-0.015934689,61.0,156.9064,0.0047884034,1442850,458,1121,-1580,9386
72064820,3999,0,-0.522133,1.6774008,-10.171982,-0.021561215,0.01374197,-0.03659924,61.03324,156.9064,0.0047884034,1442850,-112,167,-2586,9398
72164820,3989,0,-1.2673429,0.849086,-9.4097805,0.004811135,0.0102656,-0.059698243,61.03601,156.9064,0.0047884034,1442850,-1816,-531,-3687,9399
72268821,4001,0,1.089273,-0.97095597,-9.434761,-0.0039088987,-0.0138155995,-0.053207114,61.03324,156.9064,0.0047884034,1442850,2354,305,-4308,9398
72368893,4072,0,0.5782503,-0.98216754,-10.376227,-0.041189633,0.0031487574,-0.015576966,61.063713,156.9064,0.0047884034,1442850,1931,-1065,-13,9409
72468820,3999,0,-1.5702411,0.034096487,-9.382829,-0.028188309,0.019472566,-0.06117662,61.066483,156.9064,0.0047884034,1442850,-282,-1036,-3888,9410
72572821,4001,0,1.8887588,1.4370965,-9.514417,0.0060422923,-0.0042318767,-0.061055012,61.04432,156.9064,0.0047884034,1442850,2216,-292,-3653,9402
72672821,4001,0,0.26106298,1.0684756,-9.152783,-0.02647791,0.00035998708,-0.023804048,61.05817,156.9064,0.0047884034,1442850,1853,178,-2103,9407
72772825,4005,0,-0.7061429,0.565948,-10.714175,-0.01936738,-0.0055146487,-0.027569152,61.05263,156.9064,0.0047884034,1442850,-552,367,-1581,9405
72876820,3959,0,0.18816414,-0.5892207,-11.138341,0.00127109,0.00083934725,-0.033921022,61.03324,156.9064,0.0047884034,1442850,847,367,-237,9398
72976855,4035,0,0.57056516,-1.1634936,-9.003548,-0.0010793572,0.00038878853,-0.033390045,61.07756,156.9064,0.0047884034,1442850,1691,-1152,-2442,9414
73080827,4006,0,-1.1004575,1.14946,-8.913416,0.026115345,0.0120057985,-0.047214165,61.03047,156.9064,0.0047884034,1442850,-2294,-502,-3342,9397
73180827,3981,0,0.68701696,1.471464,-9.567443,0.012650743,-0.0020063305,-0.028095558,61.066483,156.9064,0.0047884034,1442850,852,-188,-1194,9410
73280831,4011,0,0.95071554,0.84296006,-11.201815,-0.0162431,0.0019062257,-0.033169612,61.0554,156.9064,0.0047884034,1442850,2326,186,850,9406
73384820,3999,0,-0.4564962,-0.51897234,-10.652311,0.028962765,-0.00805869,-0.04176584,61.02493,156.9064,0.0047884034,1442850,-1886,762,-461,9395
73484821,3965,0,-1.0003057,-1.750592,-9.4019575,0.023509752,0.00039406726,-0.064675726,61.09141,156.9064,0.0047884034,1442850,-1225,-857,-4786,9419
73584821,4000,0,0.17588632,-0.8151873,-9.635107,0.006588883,0.001653108,-0.03369063,61.06094,156.9064,0.0047884034,1442850,1452,-227,-1488,9408
73688820,3999,0,-0.77272254,0.9610736,-8.49207,-0.012923042,-0.001826751,-0.03400392,61.088642,156.9064,0.0047884034,1442850,-867,-130,-2777,9418
73788833,4006,0,-1.3277478,1.399701,-10.170904,0.0108416695,0.0015279509,-0.026280941,61.0554,156.9064,0.0047884034,1442850,-2219,314,-251,9406
73892821,4001,0,1.976032,-0.0096611725,-10.781108,-0.02384956,-0.00841803,-0.025135368,61.04432,156.9064,0.0047884034,1442850,2977,-29,261,9402
73992820,4000,0,0.42446962,-0.82245946,-10.341616,-0.022020798,0.0052526398,-0.039484467,61.05263,156.9064,0.0047884034,1442850,1354,30,-726,9405
74092827,4006,0,-0.3935487,-1.2244155,-9.160732,-0.03841795,0.0065036477,-0.06140164,61.063713,156.9064,0.0047884034,1442850,1375,-455,-5080,9409
74196820,3954,0,-0.668773,0.73245776,-9.185763,0.039558515,0.010431893,-0.065698475,61.04432,156.9064,0.0047884034,1442850,-1512,-461,-4218,9402
74296821,4001,0,-0.052838504,1.7630336,-9.101317,0.036445152,0.0028384263,-0.026918396,61.066483,156.9064,0.0047884034,1442850,-1414,193,-3008,9410
74396820,4000,0,0.6631951,1.5740094,-9.52327,0.034105014,-0.008774142,-0.029764883,61.05263,156.9064,0.0047884034,1442850,-102,614,-2910,9405
74500843,4015,0,1.040273,-0.4917857,-9.752251,-0.036236856,-0.010155731,-0.017863438,61.083103,156.9064,0.0047884034,1442850,2706,677,-2172,9416
74601621,4000,0,0.30461803,-0.90823877,-10.552897,-0.032072768,-0.0007800019,-0.009662247,61.105263,156.9064,0.0047884034,1442850,1308,-373,-915,9424
74701621,3964,0,-0.40591136,-0.7449176,-10.993853,-0.038429886,0.013075322,-0.033250324,61.069252,156.9064,0.0047884034,1442850,817,-745,347,9411
74805628,4007,0,-0.48420262,1.737129,-9.773593,0.03777005,0.007592266,-0.04703429,61.066483,156.9064,0.0047884034,1442850,-1868,726,-2613,9410
74905642,4021,0,-0.15327351,1.8464261,-9.329747,0.038763084,-0.0020269076,-0.08062858,61.0554,156.9064,0.0047884034,1442850,-797,45,-4420,9406
75009713,4086,0,0.5013448,-0.15529655,-10.831751,-0.027030911,0.013565943,-0.047290348,61.069252,156.9064,0.0047884034,1442850,1372,-27,-1371,9411
75113621,3958,0,-1.2182919,-1.115768,-10.253569,0.005565842,-0.0056110527,-0.030748958,61.088642,156.9064,0.0047884034,1442850,-1532,898,-1757,9418
75213627,3963,0,-1.4630287,-0.47039714,-9.5414,0.029433522,0.0004109654,-0.058827832,61.08033,156.9064,0.0047884034,1442850,-2269,318,-3004,9415
75317621,3994,0,1.5146354,1.2046694,-10.428829,0.018379271,0.011045576,-0.0638496,61.08033,156.9064,0.0047884034,1442850,1768,-422,-234,9415
75417668,4047,0,0.715433,1.393219,-9.548505,0.029286556,-0.005640283,-0.07607667,61.069252,156.9064,0.0047884034,1442850,638,-858,-3497,9411
75517621,3974,0,0.6860565,0.41043672,-9.403376,0.027518012,-0.015667224,-0.06657734,61.102493,156.9064,0.0047884034,1442850,71,-347,-4533,9423
75621621,4000,0,1.1624795,-0.9914338,-11.660527,-0.010954823,0.008733631,-0.05050043,61.07756,156.9064,0.0047884034,1442850,1998,-728,565,9414
75721621,4000,0,0.18298802,-0.9631156,-10.907673,0.014802345,0.0128631815,-0.069114596,61.09695,156.9064,0.0047884034,1442850,382,-841,-1794,9421
75821643,4022,0,-0.22849268,-0.3010856,-9.9321785,0.024723656,0.010722992,-0.08717385,61.07756,156.9064,0.0047884034,1442850,93,-1174,-2163,9414
75925629,3958,0,1.3724409,1.7950221,-10.602425,-0.02695312,0.011620185,-0.020897295,61.07756,156.9064,0.0047884034,1442850,2658,-578,379,9414
76025631,4010,0,1.2778327,1.813708,-10.609862,-0.013679763,-0.018541407,-0.03782205,61.07756,156.9064,0.0047884034,1442850,2470,-393,-1035,9414
76129663,4042,0,0.046114814,-0.80764943,-10.388027,-0.043735094,0.001957596,-0.060287066,61.069252,156.9064,0.0047884034,1442850,1620,-337,-3163,9411
76233621,3958,0,-1.2590317,-1.0997363,-10.056561,-0.019637248,-0.0037343858,-0.0145872235,61.07756,156.9064,0.0047884034,1442850,-1415,275,-866,9414
76333659,3996,0,-0.5441587,-0.25425908,-9.465068,-0.05159051,0.017507326,-0.011632577,61.08033,156.9064,0.0047884034,1442850,1503,-534,-1719,9415
76437660,4029,0,-1.0282466,1.2505723,-9.891207,-0.0444002,0.02802218,-0.05762609,61.09695,156.9064,0.0047884034,1442850,255,-1025,-2220,9421
76537620,3993,0,1.1380521,1.6250223,-10.441015,-0.035084963,0.002709613,-0.060371008,61.07479,156.9064,0.0047884034,1442850,2561,-756,193,9413
