timestamp,integral_dt,error_count,x,y,z,x_integral,y_integral,z_integral,temperature,range_m_s2,scaling,device_id,x_raw,y_raw,z_raw,temperature_raw
52651228,4006,0,0.2521754,-0.23354097,-9.620711,-0.0016219666,0.0006708694,-0.03901495,54.889194,156.9064,0.0047884034,1442850,83,-46,-2064,7180
52751221,3995,0,0.05141082,0.40206993,-10.117601,0.00059648504,0.004608924,-0.044432648,54.850414,156.9064,0.0047884034,1442850,91,-262,-1950,7166
52855227,3975,0,-0.1045965,0.4417608,-9.550402,-0.004648299,-0.00616114,-0.03887618,54.894737,156.9064,0.0047884034,1442850,402,73,-1745,7182
52955221,3952,0,0.39223284,-0.25140482,-10.073495,0.0035784584,0.0041077198,-0.031125672,54.858727,156.9064,0.0047884034,1442850,57,-545,-1365,7169
53055224,4003,0,-0.28695306,0.22496304,-10.572882,0.0028207449,0.0026341267,-0.041600797,54.872574,156.9064,0.0047884034,1442850,-236,-13,-1750,7174
53160022,3992,0,0.2504198,0.21996251,-10.3529,0.0029670612,0.0010451803,-0.03194184,54.878117,156.9064,0.0047884034,1442850,-33,165,-1968,7176
53264028,4007,0,0.1987412,0.264613,-9.879622,0.0023038264,0.001397598,-0.031154774,54.90859,156.9064,0.0047884034,1442850,-12,-124,-1465,7187
53364028,4004,0,-0.2013471,0.1678046,-9.374103,0.0026930568,0.0013333145,-0.040544033,54.914127,156.9064,0.0047884034,1442850,-105,63,-2382,7189
53468022,4001,0,-0.42959595,0.37877962,-9.822305,0.0041047544,0.005456683,-0.04790882,54.914127,156.9064,0.0047884034,1442850,-282,-119,-2375,7189
53568022,4001,0,0.29494807,0.8076728,-10.047875,0.008586172,0.0041891593,-0.03425337,54.867035,156.9064,0.0047884034,1442850,-328,-160,-1999,7172
53668053,4031,0,0.4745362,0.5763153,-9.940069,-0.009930932,-0.004432305,-0.03792368,54.883656,156.9064,0.0047884034,1442850,546,7,-1672,7178
53772021,4000,0,-0.78506607,-0.8624216,-9.679615,-0.00015046072,0.0039284322,-0.04065482,54.894737,156.9064,0.0047884034,1442850,105,-594,-2345,7182
53872022,4001,0,0.06889051,0.5082665,-10.019801,0.010106615,0.011550089,-0.040754505,54.933517,156.9064,0.0047884034,1442850,-362,-484,-1934,7196
53972022,3994,0,0.45443425,1.3551215,-9.535054,-0.009240001,-0.00039549498,-0.04265247,54.886425,156.9064,0.0047884034,1442850,543,286,-2573,7179
54076836,4014,0,-0.112045065,-0.56700045,-9.994541,0.002254738,-0.00031633588,-0.04262066,54.90859,156.9064,0.0047884034,1442850,402,-263,-2008,7187
54176822,3991,0,0.7016633,0.398818,-10.079413,0.0010394338,0.004624356,-0.039253026,54.916897,156.9064,0.0047884034,1442850,149,-82,-1683,7190
54276828,4007,0,-0.64577615,0.2672614,-9.711691,-0.0070538907,-0.001616692,-0.037870288,54.916897,156.9064,0.0047884034,1442850,-26,185,-1713,7190
54380821,4000,0,-0.37988463,0.18736531,-9.762694,0.0065842206,0.011539554,-0.04090135,54.916897,156.9064,0.0047884034,1442850,-358,-512,-2187,7190
54480821,3999,0,0.95421076,1.5496545,-10.003295,-0.0058576623,0.0006025124,-0.03899402,54.939056,156.9064,0.0047884034,1442850,500,219,-1497,7198
54584822,3989,0,-0.7967574,-0.89428616,-9.866623,-0.014240654,-0.002562969,-0.03664055,54.950138,156.9064,0.0047884034,1442850,632,-198,-1893,7202
54684869,4048,0,0.282782,-0.008273747,-9.891986,0.0053957617,0.010156033,-0.035179682,54.922436,156.9064,0.0047884034,1442850,185,-725,-2116,7192
54784822,3994,0,-0.599904,0.30180198,-9.820152,0.00016170763,-0.0042670434,-0.04803679,54.905815,156.9064,0.0047884034,1442850,-102,526,-1744,7186
54888821,4000,0,-0.29171696,0.59992343,-10.178474,-0.008775101,-0.010497969,-0.034374908,54.92521,156.9064,0.0047884034,1442850,138,536,-634,7193
54993622,4000,0,0.018860368,0.46931368,-9.871196,-0.015152054,-0.009278512,-0.05119783,54.905815,156.9064,0.0047884034,1442850,569,622,-2479,7186
55093622,4001,0,0.37450075,0.5973002,-9.789023,-0.017812137,-0.007105085,-0.030400474,54.936287,156.9064,0.0047884034,1442850,1357,395,-2524,7197
55193621,3991,0,-0.9697907,-0.51162076,-9.844982,0.013418379,-0.009729998,-0.041149326,54.941826,156.9064,0.0047884034,1442850,-1140,-86,-1492,7199
55297665,4043,0,-1.5769664,0.38426885,-10.055635,-0.015971096,-0.016914189,-0.046662543,54.936287,156.9064,0.0047884034,1442850,-10,935,-1081,7197
55397638,4017,0,-1.7877611,0.3222009,-8.766474,0.009577095,-0.0030403286,-0.038235504,54.930748,156.9064,0.0047884034,1442850,-1025,-18,-2971,7195
55501621,4000,0,-1.6731429,0.2560195,-9.224069,-0.041455083,-0.014470734,-0.024973316,54.941826,156.9064,0.0047884034,1442850,311,550,-1788,7199
55601621,4000,0,-0.53262675,0.7066561,-11.271545,-0.04571517,-0.016105067,-0.0040792488,54.96399,156.9064,0.0047884034,1442850,1072,938,514,7207
55701622,4001,0,1.0699621,0.83173615,-9.654282,0.030482598,-0.005208047,-0.026298799,54.96399,156.9064,0.0047884034,1442850,-14,1107,-1221,7207
55805621,3950,0,-1.0627933,0.5426233,-10.250236,0.0655282,0.0046599405,-0.048531868,54.950138,156.9064,0.0047884034,1442850,-2914,-180,-3019,7202
55906422,3994,0,0.4755277,0.63008714,-10.349133,0.012259948,0.013837269,-0.05496259,54.952908,156.9064,0.0047884034,1442850,854,48,-2455,7203
56006422,4000,0,0.11269417,0.043716114,-10.366343,-0.043906115,0.0038145506,-0.044656537,54.958447,156.9064,0.0047884034,1442850,1554,145,-1756,7205
56110422,4000,0,0.40261635,-0.6700022,-9.3790655,-0.025516395,-0.005134614,-0.026391955,54.936287,156.9064,0.0047884034,1442850,1766,-1243,-1145,7197
56210433,4011,0,0.20408922,0.72892904,-9.659641,0.020003002,0.013054518,-0.06472627,54.96122,156.9064,0.0047884034,1442850,365,-996,-2630,7206
56310421,3966,0,-0.23417279,1.1908629,-10.487737,-0.038137645,-0.003356775,-0.029447684,54.9446,156.9064,0.0047884034,1442850,1629,1016,-120,7200
56414422,4001,0,0.5849825,-0.114359386,-10.970084,-0.03582178,0.00899129,-0.03616639,54.991688,156.9064,0.0047884034,1442850,2426,-396,-241,7217
56514421,3999,0,0.96537787,0.2907831,-10.250133,-0.0022764392,0.001109717,-0.024692211,54.99446,156.9064,0.0047884034,1442850,2193,571,-1042,7218
56618422,3994,0,-0.94040376,0.84110844,-9.4959345,-0.015015631,0.0073537044,-0.02782915,54.941826,156.9064,0.0047884034,1442850,-938,-250,-2696,7199
56718422,3986,0,-0.3628463,0.17812854,-8.923146,-0.034959976,0.0025358177,-0.03079453,54.99446,156.9064,0.0047884034,1442850,280,-108,-3133,7218
56819221,3990,0,-0.5933257,-0.53094566,-9.83513,0.017980749,0.01146437,-0.05681235,54.99446,156.9064,0.0047884034,1442850,-1945,20,-3758,7218
56919243,4021,0,-0.4424804,-0.25796637,-8.974881,0.027311802,0.010440098,-0.05580008,55.00554,156.9064,0.0047884034,1442850,-518,-807,-4485,7222
57023221,3963,0,0.43602592,1.124119,-9.350376,-0.013709048,-0.014055666,-0.0047672056,54.98615,156.9064,0.0047884034,1442850,1928,1018,-260,7215
57123221,4000,0,0.23064238,0.44510415,-9.835324,-0.032191098,-0.00569408,-0.027899884,55.0277,156.9064,0.0047884034,1442850,1803,177,-1915,7230
57227221,4000,0,-0.9370762,-0.9519387,-10.28247,-0.0016735671,-0.0010558653,-0.044899665,55.0,156.9064,0.0047884034,1442850,-1004,-200,-2183,7220
57327221,4000,0,0.22068399,-0.17203183,-9.6906805,-0.0088822115,0.008602137,-0.060587343,54.98892,156.9064,0.0047884034,1442850,2212,-374,-3058,7216
57427228,3977,0,-0.31848076,1.4465864,-8.859564,-0.014643505,0.02257768,-0.036258303,55.00277,156.9064,0.0047884034,1442850,1093,-828,-3005,7221
57531260,4032,0,0.5054627,1.6055999,-10.059642,-0.027840475,0.00029405835,-0.020467525,54.99723,156.9064,0.0047884034,1442850,1414,383,-701,7219
57631221,4000,0,0.027086016,0.20106371,-9.981052,-0.030185837,-0.005518469,0.0052566696,54.991688,156.9064,0.0047884034,1442850,-561,-21,-1409,7217
57731221,4000,0,0.31689602,0.40185803,-8.94935,0.003308284,0.020081539,-0.068109185,55.01662,156.9064,0.0047884034,1442850,2548,-1266,-6925,7226
57836022,4000,0,-1.0708076,0.8521771,-11.531857,0.0017504757,0.013964417,-0.040440723,55.03601,156.9064,0.0047884034,1442850,1840,-959,-3656,7233
57936021,4000,0,-0.43527246,0.6193023,-11.252114,0.027468458,0.016725186,-0.042264484,55.00554,156.9064,0.0047884034,1442850,-1706,504,-3906,7222
58036040,4012,0,-0.57047987,0.015323709,-13.125993,-0.016560549,-0.0017829232,-0.049815986,55.00831,156.9064,0.0047884034,1442850,508,-67,616,7223
58140022,4001,0,-0.45197567,0.31652808,-11.499221,0.009197726,-0.008634767,-0.081652775,55.01385,156.9064,0.0047884034,1442850,-959,1062,-3761,7225
58240028,4006,0,-0.28020588,0.57578015,-12.264582,-0.013791788,-0.014462071,-0.025379213,55.011078,156.9064,0.0047884034,1442850,572,333,375,7224
58340027,4006,0,-0.861053,1.8092831,-10.75201,-0.0055610184,0.020142183,-0.034094855,54.98615,156.9064,0.0047884034,1442850,-1409,-886,-4502,7215
58444041,4019,0,-0.09865493,0.40639114,-10.809187,0.015755396,0.0016660546,-0.031786658,54.98892,156.9064,0.0047884034,1442850,-1080,-145,-3655,7216
58544026,4005,0,0.27656168,-0.0020564906,-10.597309,0.02098911,0.0007549687,-0.039428145,55.0277,156.9064,0.0047884034,1442850,-219,1112,-3441,7230
58648028,4006,0,0.00046650105,0.5094729,-10.000474,0.029333495,0.0020517744,-0.051865064,55.0,156.9064,0.0047884034,1442850,-323,-82,-1972,7220
58748843,4015,0,-1.5881087,1.2492355,-8.457682,0.013493314,0.00670645,-0.058504693,55.02216,156.9064,0.0047884034,1442850,-2527,544,-3253,7228
58848822,3994,0,0.23926018,0.991796,-10.753731,0.025717765,-0.0058509996,-0.036699098,55.02493,156.9064,0.0047884034,1442850,-632,1565,-81,7229
58952822,3992,0,-0.96467894,-1.1466649,-8.266816,-0.01716163,0.012987429,-0.043624688,55.00831,156.9064,0.0047884034,1442850,-739,-1342,-2645,7223
59052852,4031,0,-1.3731723,-0.02845381,-7.947509,-0.025781944,0.018026303,-0.053005498,55.00554,156.9064,0.0047884034,1442850,-617,-805,-3608,7222
59761622,4000,0,-0.37347108,-0.23836972,-8.381331,0.04097245,0.0017257491,-0.04575085,55.011078,156.9064,0.0047884034,1442850,-1314,207,-3153,7224
59865628,4007,0,-0.93472236,0.9053347,-8.029996,0.0038833492,0.0021468098,-0.032091577,54.97784,156.9064,0.0047884034,1442850,-1426,29,-1775,7212
59965628,4007,0,0.6309953,-0.103341855,-9.20924,-0.023957953,-0.0073192436,-0.05662333,55.00277,156.9064,0.0047884034,1442850,2240,-476,-1202,7221
60065621,3999,0,-1.5774846,-1.1044984,-8.788164,0.011943759,-0.0014885459,-0.041407,55.00277,156.9064,0.0047884034,1442850,-2006,-261,-2400,7221
60169636,4015,0,-0.7452236,-0.010667166,-8.4556055,0.017780267,0.009861389,-0.057577666,55.03047,156.9064,0.0047884034,1442850,-1724,-1054,-5034,7231
60269648,4027,0,-0.3895623,1.1806959,-8.876238,-0.040579263,0.0061773574,-0.04399451,54.97784,156.9064,0.0047884034,1442850,1205,-359,-3308,7212
60373621,4000,0,-0.007911153,0.50885934,-10.588638,-0.034423318,0.001933774,-0.034412187,54.991688,156.9064,0.0047884034,1442850,1220,428,515,7217
60473621,3999,0,2.2619863,-0.7161053,-10.867401,-0.008057556,-0.017971851,-0.03123882,54.96399,156.9064,0.0047884034,1442850,2584,388,-1989,7207
60573625,3998,0,0.5768554,-1.2677342,-10.395871,0.0075131226,-0.0017614077,-0.05584135,55.03324,156.9064,0.0047884034,1442850,1199,-342,-3378,7232
60674422,4000,0,-0.103690654,-0.9103891,-10.100102,0.022093631,0.0075237947,-0.023402013,55.00831,156.9064,0.0047884034,1442850,420,-645,-3092,7223
60778472,4047,0,0.84292585,1.7428973,-10.1529,-0.019233542,0.005134207,-0.027344532,54.991688,156.9064,0.0047884034,1442850,2251,-356,-368,7217
60878421,4000,0,1.1516633,1.495091,-10.546208,-0.012303704,0.007451961,-0.06938876,55.00277,156.9064,0.0047884034,1442850,2338,-561,-2815,7221
60982421,4000,0,-0.17527434,-0.34827104,-11.936307,0.031204954,-0.006930127,-0.062181756,55.02493,156.9064,0.0047884034,1442850,-1287,900,-1141,7229
61086432,4003,0,-0.7553849,-0.68906975,-11.413944,-0.033734284,0.00392162,-0.04363843,55.00831,156.9064,0.0047884034,1442850,266,-32,-1013,7223
61186431,4009,0,-1.4746504,0.090411685,-9.927886,-0.00189998,0.026295073,-0.05080636,55.02216,156.9064,0.0047884034,1442850,-1534,-1336,-4009,7228
61290422,3993,0,1.2870585,1.237179,-9.942279,0.00676774,-0.009646046,-0.027406247,55.00831,156.9064,0.0047884034,1442850,1463,-238,-801,7223
61390422,4001,0,1.1472754,0.50820345,-10.44943,0.026453603,-0.0054008383,-0.049936887,54.99723,156.9064,0.0047884034,1442850,828,563,-834,7219
61490422,4001,0,-1.4181012,-0.24225606,-10.377416,0.03283166,-0.00053542526,-0.05366315,55.011078,156.9064,0.0047884034,1442850,-2800,1091,-1341,7224
61595246,4018,0,0.50950646,0.42253545,-9.894113,0.018933708,-0.009044305,-0.024592763,54.97784,156.9064,0.0047884034,1442850,603,-414,-1771,7212
61695222,4001,0,0.056146897,1.2712604,-9.7138405,0.03182835,-0.0039261635,-0.042036287,55.011078,156.9064,0.0047884034,1442850,-578,-272,-2212,7224
61795221,3953,0,0.8656143,1.1147416,-9.720803,0.04011549,-0.0010928883,-0.056955546,54.99723,156.9064,0.0047884034,1442850,-504,493,-2648,7219
61899227,4005,0,0.9109501,-0.51567626,-9.751341,0.02471221,0.00024695246,-0.039306533,55.04432,156.9064,0.0047884034,1442850,428,31,-165,7236
61999233,4012,0,-1.1838412,0.025480378,-8.05475,-0.026932653,0.0065562334,-0.019286966,54.991688,156.9064,0.0047884034,1442850,-1216,116,-2634,7217
62099221,3994,0,1.0485656,0.76721406,-8.276603,0.023175502,0.0040654493,-0.049138576,55.01662,156.9064,0.0047884034,1442850,895,409,-3228,7226
62203221,4000,0,1.1045227,0.46012786,-8.6263,0.024186784,-0.0023228265,-0.04532933,55.01939,156.9064,0.0047884034,1442850,451,612,-2128,7227
62303228,4007,0,-1.2214252,-0.33334377,-9.127037,-0.02844469,0.0018459826,-0.025448874,55.01385,156.9064,0.0047884034,1442850,-694,267,-269,7225
62407221,3992,0,1.0088661,0.027347907,-7.7069664,-0.024369499,0.006133983,-0.03806806,55.00831,156.9064,0.0047884034,1442850,2742,-640,-4473,7223
62508022,3999,0,-1.0714225,1.2999449,-9.191619,0.027580172,-0.0023822936,-0.047242355,55.00554,156.9064,0.0047884034,1442850,-2144,-55,-44,7222
62608022,4000,0,1.4157865,-0.25416696,-8.110611,-0.021529408,-0.017031686,-0.050115652,55.01385,156.9064,0.0047884034,1442850,2689,-1038,-2089,7225
62712030,4009,0,1.1436803,-0.6539918,-9.056784,-0.01812894,0.0013255118,-0.0014772336,55.0,156.9064,0.0047884034,1442850,2571,-458,-1790,7220
62816031,4010,0,1.1066908,0.54698306,-8.884834,-0.019030098,0.009142221,-0.035384882,55.0,156.9064,0.0047884034,1442850,2672,-913,-1962,7220
62916021,4000,0,-0.7337317,1.3130765,-9.259968,0.029661067,-0.0042947773,-0.022883605,55.01385,156.9064,0.0047884034,1442850,-1951,-96,349,7225
63016021,4000,0,-0.6624959,0.64415073,-10.1974,-0.032915752,-0.00090504705,-0.03713502,55.02493,156.9064,0.0047884034,1442850,-84,333,-672,7229
63120050,4022,0,0.39065322,-0.6197841,-10.369506,-0.04007172,-0.0070316945,-0.016094573,55.03601,156.9064,0.0047884034,1442850,1798,427,83,7233
63220021,3981,0,0.54411125,-0.7602471,-10.550114,0.0011901148,0.0051948195,-0.02878556,55.02493,156.9064,0.0047884034,1442850,1831,-520,-1963,7229
63324028,3997,0,0.4159423,1.3925928,-9.333752,-0.029302508,0.012533816,-0.04502523,55.00831,156.9064,0.0047884034,1442850,2329,-587,-3295,7223
63424822,4000,0,0.59410346,1.9813731,-10.706292,-0.029364005,0.006802178,-0.03366839,55.02493,156.9064,0.0047884034,1442850,2687,208,-406,7229
63524822,4000,0,0.48372692,0.14409845,-9.987764,-0.030937275,-0.009948247,-0.06737687,55.02216,156.9064,0.0047884034,1442850,2113,-938,-2595,7228
63628838,4017,0,-1.2751212,-1.6814941,-9.543691,0.015177307,-0.0016801395,-0.041903462,55.049862,156.9064,0.0047884034,1442850,-1960,-12,-4537,7238
63728857,4035,0,-1.8324227,-0.54383725,-10.305193,0.0027475208,0.012576929,-0.04669705,55.06094,156.9064,0.0047884034,1442850,-1926,-205,-2444,7242
63828821,3999,0,-1.6497467,0.6880949,-10.327219,-0.017164886,0.014494112,-0.012864318,55.069252,156.9064,0.0047884034,1442850,-1300,-424,-1069,7245
63932822,3994,0,-0.14707775,2.4477484,-11.007925,0.022119094,-0.0005926988,-0.046160962,55.07756,156.9064,0.0047884034,1442850,-1030,559,109,7248
64032822,3994,0,1.4466131,1.3616121,-10.8997345,0.009206012,-0.013762879,-0.049669757,55.063713,156.9064,0.0047884034,1442850,1519,1185,-2211,7243
64132857,4036,0,0.91631246,-0.5704101,-10.676167,-0.030924905,-0.012075342,-0.026718816,55.069252,156.9064,0.0047884034,1442850,2278,-116,-3072,7245
64236828,4007,0,-0.49944556,-1.8183933,-11.154584,0.020365298,0.0043424927,-0.055781648,55.099724,156.9064,0.0047884034,1442850,-440,-310,-3547,7256
64336838,4017,0,0.5892819,-0.2716988,-10.868249,0.010337924,0.00077922863,-0.018208016,55.09695,156.9064,0.0047884034,1442850,1080,-511,-1456,7255
64437622,4000,0,0.643011,1.3781008,-9.713568,-0.01620599,0.007115307,-0.057342976,55.108032,156.9064,0.0047884034,1442850,1954,89,-4108,7259
64541621,4000,0,-0.693173,-0.12772267,-9.985923,-0.023845494,-0.005742838,-0.025692062,55.083103,156.9064,0.0047884034,1442850,-243,-7,-1978,7250
64641621,3986,0,1.349556,-1.063002,-10.814414,-0.021474421,0.00035505556,-0.06350919,55.121883,156.9064,0.0047884034,1442850,2310,-421,-1331,7264
64741628,3999,0,0.81077945,-1.4479185,-10.808688,-0.0066820635,-0.0009480531,-0.00898087,55.09418,156.9064,0.0047884034,1442850,2134,-371,-1338,7254
64845655,4027,0,0.44339377,0.61217856,-10.289858,-0.013800322,0.0069048554,-0.03460296,55.083103,156.9064,0.0047884034,1442850,2151,-776,-1357,7250
64945621,4000,0,0.29483324,2.173854,-9.539693,0.027532332,0.00421548,-0.025625728,55.11357,156.9064,0.0047884034,1442850,-373,462,-1399,7261
65049628,4007,0,1.4005015,0.5800532,-10.365754,0.0013040509,-0.019167846,-0.02465437,55.102493,156.9064,0.0047884034,1442850,1730,665,-2215,7257
65153621,3989,0,1.3653371,-1.4517078,-10.981604,-0.020244483,-0.007978089,-0.0162752,55.07202,156.9064,0.0047884034,1442850,2688,30,-1516,7246
65253621,3982,0,-0.6520356,-1.0418596,-10.227992,0.033096552,0.0064565204,-0.052653026,55.085873,156.9064,0.0047884034,1442850,-632,-277,-3386,7251
65357633,4012,0,0.6295861,1.312461,-9.686656,0.017220598,0.001359967,-0.030707387,55.099724,156.9064,0.0047884034,1442850,1101,-620,-1187,7256
65458455,4033,0,-0.9641789,0.35527533,-7.179938,-0.016396893,-0.0076855915,-0.041515183,55.09695,156.9064,0.0047884034,1442850,-258,-175,-4792,7255
65558421,3993,0,-1.566742,0.30389524,-8.402566,-0.008977985,-0.014219368,0.0037241299,55.085873,156.9064,0.0047884034,1442850,-1357,959,316,7251
65658422,3994,0,0.5153617,-0.59487,-7.864369,-0.049248558,-0.001490396,-0.033183165,55.105263,156.9064,0.0047884034,1442850,1998,-28,-1556,7258
65762456,4035,0,-0.50019133,0.5100326,-8.749344,-0.036243692,0.0033288382,-0.04831116,55.099724,156.9064,0.0047884034,1442850,320,-68,-1227,7256
65862428,4007,0,-0.4629575,0.41978228,-7.8442545,0.020456076,0.0073954733,-0.047418285,55.105263,156.9064,0.0047884034,1442850,-1593,-1013,-1883,7258
65966421,4000,0,-0.7223596,-0.3598506,-9.760172,-0.019060222,0.003535869,-0.03905089,55.121883,156.9064,0.0047884034,1442850,-14,107,-641,7264
66066421,4000,0,-0.31582963,-0.2674801,-9.290268,0.034174778,0.012210811,-0.048052683,55.124653,156.9064,0.0047884034,1442850,-1529,-791,-2275,7265
66166422,4000,0,-0.5288802,0.778009,-10.048615,-0.029218446,0.0155627355,-0.044080764,55.1108,156.9064,0.0047884034,1442850,438,-969,-196,7260
66270421,3992,0,-0.9159905,1.3587104,-9.320179,-0.018678663,0.011528969,-0.06800698,55.146812,156.9064,0.0047884034,1442850,-383,-907,-3730,7273
66371222,3994,0,1.1952752,0.27795005,-10.666821,-0.014409806,-0.0069296034,-0.011862343,55.1108,156.9064,0.0047884034,1442850,2237,1311,30,7260
66471221,3994,0,-0.6780457,-1.0202276,-11.244923,0.032009766,-0.00661368,-0.03604884,55.135735,156.9064,0.0047884034,1442850,-2004,214,-1725,7269
66575227,4006,0,-1.1536758,-0.20614445,-10.345616,0.039089568,0.011583306,-0.06884246,55.160664,156.9064,0.0047884034,1442850,-1912,-1100,-3103,7278
66675227,4006,0,-1.3346992,1.2485768,-10.050484,-0.010807842,0.0074812677,-0.03760917,55.124653,156.9064,0.0047884034,1442850,-1097,122,-1910,7265
66775221,4000,0,0.23752812,1.2706308,-9.891216,-0.03978821,0.010363881,-0.029770713,55.138504,156.9064,0.0047884034,1442850,1490,-532,-1119,7270
66879221,4000,0,-0.9717764,0.88579905,-10.791883,-0.009266242,0.0023553623,-0.041522715,55.180054,156.9064,0.0047884034,1442850,-1435,548,-720,7285
66979247,4026,0,0.24586348,-1.2429886,-10.631449,-0.033860598,-0.00084214937,-0.032170832,55.152355,156.9064,0.0047884034,1442850,515,-1391,12,7275
67083224,4003,0,-1.7902623,-0.5559902,-10.71888,-0.03282982,0.017603863,-0.033876076,55.196674,156.9064,0.0047884034,1442850,-261,35,-840,7291
67187221,4000,0,-0.7931588,2.1164935,-9.577458,0.022020256,0.018046316,-0.060216952,55.185596,156.9064,0.0047884034,1442850,-1919,-579,-3995,7287
67288022,4000,0,-1.1420844,2.467049,-9.740985,0.003350642,0.000358683,-0.025747027,55.171745,156.9064,0.0047884034,1442850,-2164,261,-1949,7282
67388028,4006,0,-1.1834913,0.9474224,-9.904321,-0.028798254,0.0039048265,-0.06729153,55.168976,156.9064,0.0047884034,1442850,-806,-366,-3177,7281
67492022,3994,0,-1.0461692,-1.5572662,-9.900613,0.0059587294,-0.003092506,-0.037355006,55.196674,156.9064,0.0047884034,1442850,-1349,348,-4158,7291
67592022,4001,0,-0.69016945,-1.4478848,-10.847195,-0.0359699,0.0127449725,-0.041071482,55.141273,156.9064,0.0047884034,1442850,618,-472,-379,7271
67692021,3999,0,0.4261048,-1.213351,-10.007844,-0.020082325,0.0052028326,-0.029401345,55.193905,156.9064,0.0047884034,1442850,2144,-1940,-1154,7290
67796021,3999,0,-0.057789274,1.994692,-10.54367,-0.031184439,0.016164409,-0.032125756,55.229916,156.9064,0.0047884034,1442850,849,-24,-304,7303
67896022,4001,0,0.8320414,1.708731,-9.521296,-0.021164797,-0.0013440973,-0.031131636,55.174515,156.9064,0.0047884034,1442850,2612,-898,-1878,7283
68000027,4006,0,-0.7088077,-0.17350985,-10.762091,-0.0276714,-0.00088191393,-0.053725548,55.207756,156.9064,0.0047884034,1442850,-206,464,-1525,7295
68100021,3979,0,0.23916064,-0.9804799,-9.95879,-0.052513614,-0.0059838765,-0.031764343,55.196674,156.9064,0.0047884034,1442850,2195,45,-3223,7291
68200021,4000,0,1.0019438,-1.1231523,-9.1905985,-0.02557249,0.00430712,-0.013301294,55.218838,156.9064,0.0047884034,1442850,2553,-599,-3283,7299
68304022,3994,0,-0.81955975,0.8390376,-8.99218,-0.035418388,0.0123220105,-0.06475543,55.191135,156.9064,0.0047884034,1442850,807,-811,-3220,7289
68404821,3999,0,-0.008738191,1.457996,-9.648452,-0.03480591,0.011470204,-0.054262344,55.193905,156.9064,0.0047884034,1442850,1139,-261,-1537,7290
68504821,3995,0,0.67026293,1.0030117,-9.930789,-0.029818675,0.0037334831,-0.045011155,55.216064,156.9064,0.0047884034,1442850,2541,-47,-2132,7298
68608830,4009,0,-0.48623055,-0.75652575,-10.274395,-0.030384133,0.004653771,-0.019777816,55.240997,156.9064,0.0047884034,1442850,234,286,-825,7307
68708832,4011,0,-0.605566,-1.1202122,-9.919075,-0.046965115,0.0012474386,-0.034445792,55.177284,156.9064,0.0047884034,1442850,1508,-480,-1618,7284
68808822,3994,0,0.2731238,-0.031201815,-9.810432,-0.02948313,0.004740366,-0.025429972,55.207756,156.9064,0.0047884034,1442850,2083,-297,-2111,7295
68912821,4000,0,-1.3172886,1.296293,-9.353266,0.008303823,0.000665967,-0.04236453,55.207756,156.9064,0.0047884034,1442850,-2229,13,-2271,7295
69012821,3997,0,-1.2309221,1.4764237,-10.065108,0.012846505,-0.009189589,-0.04986843,55.227146,156.9064,0.0047884034,1442850,-2396,540,-1559,7302
69116822,3971,0,0.9593081,-0.6888672,-10.177568,0.012609378,-0.012421865,-0.02536086,55.204987,156.9064,0.0047884034,1442850,1282,560,-830,7294
69217622,3955,0,0.8975999,-0.7782345,-10.096162,0.0030989083,-0.00572665,-0.0053657256,55.199444,156.9064,0.0047884034,1442850,1828,-256,-767,7292
69317631,4009,0,0.66422063,0.10319384,-9.918508,-0.0024749627,-0.004798565,-0.0050882576,55.188366,156.9064,0.0047884034,1442850,2471,705,-1606,7288
69417621,4000,0,0.6867093,1.5153928,-10.122943,-0.009853264,0.008345919,-0.0146140065,55.216064,156.9064,0.0047884034,1442850,2235,257,-61,7298
69521621,4000,0,-1.0172049,0.810381,-9.742879,-0.017927077,-0.0070761237,-0.050229713,55.193905,156.9064,0.0047884034,1442850,-1247,223,-2103,7290
69621625,3997,0,-1.2921671,-0.19615763,-10.333645,0.011689149,-0.009121515,-0.039277766,55.213295,156.9064,0.0047884034,1442850,-2298,1125,-1330,7297
69725622,4001,0,0.62177646,-0.9194684,-10.050681,0.0009871209,-0.0069446987,-0.013109474,55.210526,156.9064,0.0047884034,1442850,1774,-491,-56,7296
69829621,3954,0,-0.64565396,0.85753196,-8.60244,-0.030766131,0.01509379,-0.067115925,55.229916,156.9064,0.0047884034,1442850,241,-920,-3799,7303
69929621,3993,0,-0.87003696,1.4876273,-8.653997,-0.017112792,0.005150764,-0.045590483,55.213295,156.9064,0.0047884034,1442850,-968,475,-3668,7297
70033621,3988,0,0.22694764,-0.10156867,-10.806349,0.028271517,-0.011356623,-0.07041092,55.216064,156.9064,0.0047884034,1442850,-679,152,-1473,7298
70133627,4006,0,-0.02719255,-0.70266575,-10.411101,0.037502434,-0.010190464,-0.058506824,55.218838,156.9064,0.0047884034,1442850,-887,513,-2456,7299
70233628,3991,0,-0.3915774,-0.48330578,-9.796063,0.025411263,0.0035566469,-0.06531655,55.229916,156.9064,0.0047884034,1442850,-1232,470,-3482,7303
70338422,4000,0,0.44894522,1.3189024,-9.37999,-0.015786558,0.0013225221,0.004866193,55.246536,156.9064,0.0047884034,1442850,1922,-51,2,7309
70438432,4011,0,-0.37133864,1.2636431,-9.913612,-0.019936722,-0.012489004,-0.013786504,55.224377,156.9064,0.0047884034,1442850,1073,79,-799,7301
70538421,3999,0,0.9736193,0.07130639,-10.226743,-0.016456915,0.0014997608,-0.023064956,55.238228,156.9064,0.0047884034,1442850,1849,-197,97,7306
70642421,3993,0,-1.1711855,-1.3119236,-9.623274,-0.0010692338,0.0106586795,-0.051029883,55.224377,156.9064,0.0047884034,1442850,-1273,-784,-3187,7301
70742433,4005,0,-1.8178827,-0.21666355,-10.127297,-0.012913408,0.014937697,-0.055476155,55.202217,156.9064,0.0047884034,1442850,-1440,-379,-1422,7293
70842422,4001,0,-1.7222588,1.0082624,-10.19565,-0.013700648,0.00980866,-0.041567985,55.229916,156.9064,0.0047884034,1442850,-1567,-76,-789,7303
70946427,3987,0,-0.40355864,1.5025179,-9.485981,0.03012073,-0.0024720405,-0.061462883,55.229916,156.9064,0.0047884034,1442850,-1305,120,-2761,7303
71046428,4007,0,-1.1082379,0.66095996,-9.677348,0.03415777,0.00085306796,-0.06486764,55.240997,156.9064,0.0047884034,1442850,-3180,-351,-2976,7307
71147221,3994,0,-1.3020239,-0.34686363,-10.4606695,0.0041252095,-0.0034801136,-0.046833135,55.218838,156.9064,0.0047884034,1442850,-1678,1216,-2362,7299
71251222,4000,0,-0.77765054,-0.88139427,-9.548797,0.041634083,-0.0030215844,-0.04019677,55.221607,156.9064,0.0047884034,1442850,-1081,29,-3132,7300
71351221,3987,0,-1.6352357,0.42018232,-9.30383,0.030965155,0.013857009,-0.051157456,55.232685,156.9064,0.0047884034,1442850,-2422,-40,-4635,7304
71451227,3984,0,-1.2403779,1.2394185,-9.807362,-0.014001464,0.018236477,-0.054550774,55.224377,156.9064,0.0047884034,1442850,-1508,-682,-1740,7301
71555226,3998,0,-0.75005215,1.298914,-9.100203,0.03436871,-8.563651e-05,-0.04553504,55.260387,156.9064,0.0047884034,1442850,-2465,782,-4670,7314
71655221,4000,0,-1.3908442,0.62649155,-9.539432,-0.0104950555,0.003600475,-0.058308437,55.204987,156.9064,0.0047884034,1442850,-1611,-23,-3387,7294
71759228,4007,0,-1.5431715,-1.3153856,-10.470153,0.021632228,-0.005787435,-0.025378887,55.25485,156.9064,0.0047884034,1442850,-2424,401,-1821,7312
71863221,3993,0,-1.7492199,-0.26945472,-9.05746,0.024866926,0.0016348751,-0.057260457,55.277008,156.9064,0.0047884034,1442850,-2208,-927,-2981,7320
71963221,3959,0,-1.0955328,1.1341066,-9.646766,-0.02799636,0.017346535,-0.04245957,55.193905,156.9064,0.0047884034,1442850,-672,-246,-2343,7290
72067228,4007,0,-1.2697506,1.3846049,-9.4205065,-0.015248898,-0.0040071853,-0.018897198,55.246536,156.9064,0.0047884034,1442850,-1369,483,-2002,7309
72167248,4027,0,1.1633365,0.30924478,-9.516734,-0.017486887,-0.011288781,-0.047572955,55.238228,156.9064,0.0047884034,1442850,2344,41,-2758,7306
72268022,3994,0,1.6722186,-0.8900618,-10.479227,0.025831573,-0.0038907386,-0.05331146,55.243767,156.9064,0.0047884034,1442850,1128,611,-2797,7308
72368022,3995,0,-1.6873678,-1.5407989,-10.79127,0.02907439,-0.0030350396,-0.026652327,55.249306,156.9064,0.0047884034,1442850,-2648,-26,-46,7310
72472028,4007,0,0.12701535,0.2438675,-9.875716,0.037149232,0.013419462,-0.054483406,55.243767,156.9064,0.0047884034,1442850,-734,-471,-2068,7308
72572028,4007,0,-2.1002033,1.9027411,-9.971326,0.019902948,0.0109267365,-0.048229903,55.238228,156.9064,0.0047884034,1442850,-2391,-123,-2116,7306
72676022,3990,0,-0.086469464,1.3212352,-9.296563,0.029335994,-0.0032748599,-0.03777714,55.224377,156.9064,0.0047884034,1442850,-1793,410,-2394,7301
73588821,3990,0,-0.30188337,-0.13262661,-10.4529,-0.02139721,0.008400993,-0.033394534,55.2964,156.9064,0.0047884034,1442850,1005,264,413,7327
73688822,4001,0,0.6146702,0.8871713,-10.084784,-0.009067999,0.01058989,-0.062703505,55.240997,156.9064,0.0047884034,1442850,1997,-301,-1142,7307
73792822,4001,0,-0.29940072,1.5447204,-10.120994,-0.03762973,-0.00074451696,-0.020375717,55.27147,156.9064,0.0047884034,1442850,1194,1325,-1367,7318
73892822,4001,0,0.67421657,-0.4150765,-10.877269,-0.02677951,0.0028492142,-0.04560584,55.277008,156.9064,0.0047884034,1442850,1541,-91,595,7320
73992821,3993,0,1.2570312,-1.1346684,-10.404187,-0.021419132,-0.00962681,-0.07024698,55.263157,156.9064,0.0047884034,1442850,2470,-142,-1845,7315
74093622,4000,0,0.822043,-0.93660676,-10.471362,-0.01133211,0.010219678,-0.06105015,55.299168,156.9064,0.0047884034,1442850,2088,-769,144,7328
74197622,4000,0,-1.0342143,0.84720546,-9.877225,0.007840786,0.010056451,-0.038249813,55.301937,156.9064,0.0047884034,1442850,-1295,-1582,-1627,7329
74297621,3976,0,-0.08085059,1.3703833,-9.779823,0.02124476,0.008659156,-0.055960204,55.299168,156.9064,0.0047884034,1442850,-40,-665,-2356,7328
74401623,4002,0,-0.5454712,0.27844366,-10.391278,-0.0195892,-0.0026891215,-0.029110314,55.3241,156.9064,0.0047884034,1442850,-1121,31,-1137,7337
74501621,3999,0,-1.0349656,-0.99464124,-10.440113,-0.0029419125,-0.005659579,-0.028423786,55.3241,156.9064,0.0047884034,1442850,-1337,837,-3014,7337
74601622,4000,0,-1.0099206,-1.3299006,-10.404302,0.014125394,-0.0054192357,-0.045634054,55.33518,156.9064,0.0047884034,1442850,-2004,86,-1528,7341
74705621,4000,0,0.2949219,0.12767243,-9.661131,-0.021358151,0.0042503197,-0.05803243,55.31302,156.9064,0.0047884034,1442850,2273,-801,-3457,7333
74805650,4022,0,0.25572816,1.2370476,-9.337737,-0.028767774,0.009668153,-0.0493021,55.337948,156.9064,0.0047884034,1442850,2238,-783,-2406,7342
74905622,3994,0,-0.008040742,1.385155,-9.533661,-0.024490776,0.0035582492,-0.03639643,55.34072,156.9064,0.0047884034,1442850,1148,34,-2304,7343
75009636,4015,0,-0.8160959,-0.62210447,-10.5749035,0.025393859,-0.005619264,-0.050440583,55.34903,156.9064,0.0047884034,1442850,-2106,258,-1255,7346
75110429,4007,0,0.3358178,-0.9596013,-10.582525,0.028252035,-0.0052451007,-0.03734214,55.36288,156.9064,0.0047884034,1442850,139,853,-1068,7351
75210422,4000,0,0.34486088,-0.8262842,-10.523937,0.016653908,-0.001975263,-0.039824735,55.31025,156.9064,0.0047884034,1442850,963,265,-1363,7332
75314421,3994,0,-0.8829635,1.4124153,-9.655468,-0.00039918628,0.012703956,-0.024183504,55.3518,156.9064,0.0047884034,1442850,-1404,-140,-2644,7347
75418422,4001,0,1.670086,-0.06307591,-9.714972,-0.0113525875,-0.013489544,-0.03548543,55.36288,156.9064,0.0047884034,1442850,2401,-139,-2907,7351
75518453,4032,0,0.7171262,-0.70228463,-9.851626,-0.016237505,-0.008494641,-0.028594144,55.36842,156.9064,0.0047884034,1442850,1626,-162,-849,7353
75622421,4000,0,-0.8824733,-0.86204886,-9.333413,0.037818782,0.0018920184,-0.053760722,55.32964,156.9064,0.0047884034,1442850,-1987,-486,-2858,7339
75722422,3991,0,0.49827522,0.86308974,-9.790311,0.018365733,-0.0017380337,-0.024216495,55.373962,156.9064,0.0047884034,1442850,654,-102,-715,7355
75822428,4007,0,0.7680884,1.7022154,-10.275108,-0.02436938,-0.005180588,-0.02528501,55.36288,156.9064,0.0047884034,1442850,2973,-537,-556,7351
75926444,3971,0,-0.11757246,1.3221986,-10.066636,0.024908721,-0.0062640575,-0.03584681,55.35457,156.9064,0.0047884034,1442850,-1388,1393,-2506,7348
76026421,4000,0,0.21382347,-0.02472177,-11.2280855,0.021590495,-0.009579313,-0.025597071,55.34903,156.9064,0.0047884034,1442850,-48,261,622,7346
76127222,4000,0,1.1136589,-0.26079884,-10.515639,-0.004043592,0.013103442,-0.028212393,55.33518,156.9064,0.0047884034,1442850,2188,25,-516,7341
76231222,4001,0,-1.2427673,0.9967192,-10.185782,-0.00050947256,0.014858175,-0.07921518,55.33241,156.9064,0.0047884034,1442850,-2353,51,-594,7340
76331221,3993,0,-0.36301517,1.7060443,-9.740747,0.03566405,0.0032244325,-0.05846676,55.3518,156.9064,0.0047884034,1442850,-1499,852,-3945,7347
76435221,4000,0,0.27041146,-0.18015979,-9.678153,-0.03047099,-0.0030493666,-0.053360343,55.37673,156.9064,0.0047884034,1442850,1248,736,-2842,7356
76539221,3999,0,-0.025162088,-1.0193213,-10.91398,0.02075865,-0.010437591,-0.034828488,55.36842,156.9064,0.0047884034,1442850,-376,-200,675,7353
76639229,4001,0,0.4982478,0.47496217,-10.020677,0.0034634657,0.0015288321,-0.048175357,55.34903,156.9064,0.0047884034,1442850,1721,50,-1631,7346
76743246,4025,0,-0.5899064,0.6851139,-9.52163,-0.004617981,0.0019782218,-0.06188665,55.3795,156.9064,0.0047884034,1442850,-980,-456,-1833,7357
76843228,4007,0,-0.2900234,0.23320341,-9.6819,0.0018230318,0.007819893,-0.06947,55.36288,156.9064,0.0047884034,1442850,-586,-374,-2038,7351
76943228,4007,0,0.31021932,-0.6357624,-9.666023,0.0042040567,0.0009595479,-0.08381463,55.35457,156.9064,0.0047884034,1442850,441,-411,-3902,7348
77044022,4777,0,-0.1834181,-0.9579502,-10.213968,0.0055124057,0.0124036735,-0.07039973,55.37673,156.9064,0.0047884034,1442850,986,-1028,-3102,7356
77148027,4005,0,-0.9951956,1.511682,-10.03245,0.02847666,0.010267922,-0.026229938,55.36288,156.9064,0.0047884034,1442850,-2704,262,-1801,7351
77248038,4008,0,0.03042836,1.4548335,-10.254934,0.03566895,-0.0053747,-0.036718868,55.36565,156.9064,0.0047884034,1442850,-986,845,-2326,7352
77352021,3989,0,1.091571,0.09636017,-9.06321,-0.024580143,0.00043003916,-0.030282395,55.34072,156.9064,0.0047884034,1442850,2499,140,-4803,7343
77452022,3994,0,0.4242329,-1.1736625,-9.320423,-0.036456496,0.0044070124,-0.03927516,55.36565,156.9064,0.0047884034,1442850,2047,-672,-4491,7352
77552021,3993,0,0.24016553,-1.0880271,-8.818606,-0.03573844,0.008817231,-0.043570645,55.38227,156.9064,0.0047884034,1442850,2267,-461,-4938,7358
77656028,3963,0,-1.3946359,1.5029336,-9.635597,0.011379297,0.012178101,-0.040671747,55.36565,156.9064,0.0047884034,1442850,-2174,284,-2661,7352
77756028,4007,0,-0.7145361,1.7704663,-10.005794,-0.006294127,0.009604711,-0.022355739,55.393353,156.9064,0.0047884034,1442850,-1036,173,-1900,7362
77856021,3990,0,-0.86342925,1.3772582,-9.723345,-0.025425367,-0.0014606445,-0.019033944,55.36011,156.9064,0.0047884034,1442850,-693,102,-1385,7350
77960024,3996,0,-1.1057447,-0.5162638,-10.290385,0.029460754,-0.0034103415,-0.06657943,55.40166,156.9064,0.0047884034,1442850,-2280,-24,-2380,7365
78060022,3986,0,-0.7610706,-1.5673074,-10.657421,-0.0005820254,-0.0069992216,-0.054382913,55.36565,156.9064,0.0047884034,1442850,-1956,69,-1411,7352
78160822,3963,0,-1.3342464,-0.49045402,-10.018895,-0.0015976732,0.004392661,-0.024332464,55.38227,156.9064,0.0047884034,1442850,-1156,6,-2871,7358
78264822,3994,0,-0.06913213,1.926855,-9.617389,0.027092014,0.004370926,-0.058882818,55.36842,156.9064,0.0047884034,1442850,-409,167,-1572,7353
78364821,3994,0,-1.0026112,1.8080561,-9.958059,0.024560181,0.008134547,-0.034968723,55.34903,156.9064,0.0047884034,1442850,-2362,16,-531,7346
78468827,4006,0,0.21403302,-0.5346103,-9.417625,0.030390237,-0.002920188,-0.06125667,55.39889,156.9064,0.0047884034,1442850,-683,-16,-5040,7364
78572834,4007,0,0.91515297,-1.335301,-10.047594,-0.0047937147,0.0009778957,-0.0355142,55.37673,156.9064,0.0047884034,1442850,2091,-432,-1862,7356
78672821,3999,0,0.06550686,-1.2548364,-9.113539,0.018177234,0.0068258885,-0.03656835,55.38227,156.9064,0.0047884034,1442850,97,-322,-3202,7358
78776835,3967,0,0.7095427,1.3828659,-10.397411,-0.0151808895,0.0047805873,-0.042100877,55.36011,156.9064,0.0047884034,1442850,2373,-881,-429,7350
78876862,4040,0,1.2502407,1.6684575,-9.4774685,0.00489875,-0.013353359,-0.024733065,55.33241,156.9064,0.0047884034,1442850,1795,528,-2717,7340
78976821,3999,0,1.984214,0.6298516,-9.8065815,0.010616187,-0.014315093,-0.022859292,55.34626,156.9064,0.0047884034,1442850,1712,239,-829,7345
79080821,4000,0,0.22107992,-1.4939553,-10.430323,-0.031000119,-0.0044767465,-0.04161241,55.36288,156.9064,0.0047884034,1442850,1166,366,-1104,7351
79181622,4000,0,-0.29013568,-1.138047,-10.030249,-0.03598187,0.00023774477,-0.024009116,55.390583,156.9064,0.0047884034,1442850,703,-869,-812,7361
79281627,4005,0,0.35846016,-0.6703173,-9.613389,-0.032861367,0.011073974,-0.0118128285,55.34072,156.9064,0.0047884034,1442850,2291,-1082,-2345,7343
79385621,3978,0,-0.7330203,1.082954,-8.870004,-0.008403139,0.017038636,-0.062598914,55.34349,156.9064,0.0047884034,1442850,-1157,-1214,-2821,7344
79485622,3991,0,-0.33593908,0.39499775,-8.670044,-0.02493262,-0.0021112966,-0.0510911,55.34072,156.9064,0.0047884034,1442850,841,-524,-4714,7343
79585622,4001,0,1.4444116,-0.13224818,-9.388101,-0.016384242,-0.0020038825,-0.039943982,55.337948,156.9064,0.0047884034,1442850,2192,167,-3803,7342
79689622,4001,0,-0.33804017,-0.694478,-10.23307,-0.038659107,0.004931423,-0.023326762,55.373962,156.9064,0.0047884034,1442850,788,-291,-1163,7355
79789622,3992,0,-0.16843943,-0.47400078,-9.803239,-0.045383178,0.010807818,-0.023770673,55.35457,156.9064,0.0047884034,1442850,1623,-1512,-1539,7348
79889621,3993,0,0.6405872,0.22538762,-9.039526,-0.015368241,0.0020053012,-0.017202415,55.35734,156.9064,0.0047884034,1442850,2062,-549,-3028,7349
79993625,4003,0,0.043561857,1.5474882,-9.54663,-0.03757085,0.004831242,-0.06286274,55.37119,156.9064,0.0047884034,1442850,1239,-421,-1160,7354
80094448,4026,0,1.3574842,0.30553573,-8.765905,0.031511843,-0.009782858,-0.055719092,55.3795,156.9064,0.0047884034,1442850,733,191,-4186,7357
80194422,4000,0,-1.3787082,-0.9656167,-9.0217,-0.020487199,-0.00132282,-0.0241016,55.37673,156.9064,0.0047884034,1442850,-1571,1,-2484,7356
80298421,4000,0,-0.6206783,-0.9742275,-8.636494,-0.038662694,0.014068801,-0.046098687,55.415512,156.9064,0.0047884034,1442850,791,-1222,-2851,7370
80398422,4001,0,0.6373302,-0.26776907,-9.482929,0.018795058,0.0054466436,-0.042855613,55.412743,156.9064,0.0047884034,1442850,1052,-680,-1721,7369
80502422,3994,0,0.9608493,1.5064327,-10.253721,0.01663945,-0.010706028,-0.028888838,55.40443,156.9064,0.0047884034,1442850,988,1159,-378,7366
80606444,4023,0,1.5275103,-0.073736936,-9.970949,0.013025564,-0.010247884,-0.035955768,55.40166,156.9064,0.0047884034,1442850,957,-20,-994,7365
80706421,4000,0,-0.965914,-0.98266524,-9.9852,0.022364184,-0.0031801942,-0.07223653,55.396122,156.9064,0.0047884034,1442850,-2194,-479,-3570,7363
80806421,3999,0,-0.19706398,-1.0291389,-10.70755,-0.0405398,0.0015165851,-0.040471334,55.390583,156.9064,0.0047884034,1442850,1309,86,712,7361
80910445,4005,0,-0.20393404,0.019647079,-9.343641,-0.034887727,0.021237541,-0.032472443,55.434902,156.9064,0.0047884034,1442850,1072,-1071,-1201,7377
81010449,4021,0,0.78680664,1.5071237,-9.089258,0.011737999,-0.0025724145,-0.044112332,55.40443,156.9064,0.0047884034,1442850,1348,214,-4335,7366
81111251,4029,0,0.56899184,1.9882557,-10.420745,0.025337372,-0.0016552589,-0.05908911,55.43767,156.9064,0.0047884034,1442850,-631,1139,-553,7378
81215222,4000,0,0.6059631,-0.5286359,-9.975852,0.03384733,-0.008885383,-0.02463491,55.42105,156.9064,0.0047884034,1442850,93,777,-1593,7372
81315221,4000,0,-1.0597334,-1.4690799,-9.135136,0.014322955,-0.006717333,-0.031256553,55.459835,156.9064,0.0047884034,1442850,-1747,-443,-2340,7386
81419221,4000,0,-0.677552,0.666035,-9.528615,0.036667287,0.007845843,-0.061540812,55.44044,156.9064,0.0047884034,1442850,-1428,-445,-2323,7379
81519221,4000,0,-1.5039587,1.8206198,-9.551363,0.018503089,0.017868519,-0.051485598,55.454292,156.9064,0.0047884034,1442850,-2366,-181,-3276,7384
81619221,3962,0,-0.6585085,1.5776039,-9.761708,-0.0040378366,0.011641765,-0.0655889,55.462605,156.9064,0.0047884034,1442850,-1487,-254,-2685,7387
81723262,4034,0,0.5248414,0.39703918,-10.563811,0.030990716,-0.01538344,-0.027862675,55.462605,156.9064,0.0047884034,1442850,-284,1370,-818,7387
81823221,3993,0,-0.20641163,-0.64906895,-11.162983,0.03416822,-0.004145249,-0.036802046,55.432133,156.9064,0.0047884034,1442850,-1368,695,412,7376
81923221,3987,0,-0.39557067,-0.8534447,-10.336394,0.020219896,0.00025431623,-0.07229321,55.470913,156.9064,0.0047884034,1442850,-735,-60,-1493,7390
82027228,4007,0,0.69382656,0.8915815,-10.043891,-0.013610793,0.005476075,-0.030917794,55.47645,156.9064,0.0047884034,1442850,2218,-356,-1532,7392
82128022,4000,0,-0.054601025,1.649182,-10.33901,-0.031756632,0.0062283045,-0.037494037,55.45706,156.9064,0.0047884034,1442850,957,-470,865,7385
82228052,4030,0,-0.47576773,1.0752378,-10.483567,-0.034414373,0.0017360951,-0.04783077,55.448753,156.9064,0.0047884034,1442850,-656,-264,-240,7382
82332021,4000,0,0.17356393,-1.108129,-10.135818,0.013446806,-0.005777172,-0.031251043,55.459835,156.9064,0.0047884034,1442850,-374,117,-1511,7386
82432022,4000,0,0.120235465,-1.4036782,-10.120437,0.02522625,-0.003850949,-0.029932255,55.506924,156.9064,0.0047884034,1442850,-507,-352,-1251,7403
82532028,4007,0,0.46030602,0.010873729,-10.118408,0.003397665,-0.0021548495,-0.03968425,55.45706,156.9064,0.0047884034,1442850,1652,143,-1688,7385
82636022,3979,0,-0.7643473,1.3818399,-9.700765,-0.02689206,-0.0015552839,-0.025072765,55.448753,156.9064,0.0047884034,1442850,-398,-210,-1316,7382
82736027,4006,0,-0.77536154,1.0436774,-10.016861,0.0073967534,-0.011073401,-0.026997965,55.445984,156.9064,0.0047884034,1442850,-1083,243,-1016,7381
82840048,4027,0,0.59970194,-1.0028015,-10.297454,-0.00050322944,-0.0022465917,-0.037975352,55.468143,156.9064,0.0047884034,1442850,1492,-321,-809,7389
82944021,4000,0,-0.93126976,0.053486217,-9.297969,0.014696887,0.0066300677,-0.05107925,55.47645,156.9064,0.0047884034,1442850,-1842,-498,-3553,7392
83044022,3954,0,0.049222324,1.3309422,-9.270775,0.026027773,0.006096139,-0.043705814,55.481995,156.9064,0.0047884034,1442850,-680,131,-1712,7394
83144822,3992,0,0.8330898,1.9303826,-9.51556,-0.011203583,-0.0014203392,-0.033580996,55.545708,156.9064,0.0047884034,1442850,1540,75,-1960,7417
83248821,3999,0,-0.39446178,0.058769923,-9.706999,0.02889717,0.0011099866,-0.06718443,55.47645,156.9064,0.0047884034,1442850,-1833,-369,-2888,7392
83348822,3985,0,0.77010494,-0.85414284,-9.423879,0.012407616,-0.00912184,-0.031348564,55.506924,156.9064,0.0047884034,1442850,894,115,-2275,7403
83452856,4035,0,-1.4959064,-0.37672478,-9.343843,-0.003924081,0.013808551,-0.030752677,55.523544,156.9064,0.0047884034,1442850,-1433,-558,-2936,7409
83552828,4007,0,-0.67058456,0.96058565,-8.953905,0.018725589,0.01627,-0.038632624,55.504154,156.9064,0.0047884034,1442850,-1707,-587,-2561,7402
83652828,4006,0,0.22286187,1.3258324,-9.8287115,0.018717142,0.00027302187,-0.025239319,55.484764,156.9064,0.0047884034,1442850,306,490,-2298,7395
83756822,4001,0,-0.8702866,0.044882994,-9.402969,-0.013037127,-0.010620123,-0.020667367,55.506924,156.9064,0.0047884034,1442850,-1378,634,-2564,7403
83856854,4032,0,-0.44081503,-1.2556374,-10.477192,0.018334411,-0.009103779,-0.037852343,55.540165,156.9064,0.0047884034,1442850,-1541,759,-949,7415
83956822,4001,0,-0.13118549,-1.2430531,-10.397183,0.018390933,-0.0030001448,-0.044100974,55.518005,156.9064,0.0047884034,1442850,419,795,-993,7407
84060821,3999,0,-1.412656,0.8134209,-9.726793,-0.005112267,0.007134431,-0.023768822,55.545708,156.9064,0.0047884034,1442850,-1850,-467,-1301,7417
84161621,3993,0,-0.49492308,1.3368678,-10.023311,0.014855042,0.00043987884,-0.052091856,55.44044,156.9064,0.0047884034,1442850,-1233,188,-963,7379
84261621,3988,0,0.4009055,0.428537,-9.7126,0.03296154,-0.00012339279,-0.057616755,55.504154,156.9064,0.0047884034,1442850,-543,144,-2666,7402
84365628,4006,0,0.08659017,-1.0084969,-11.048589,-0.020260127,0.006696835,-0.05075192,55.47645,156.9064,0.0047884034,1442850,845,-443,275,7392
85177622,3989,0,-0.5507136,1.2314742,-8.71957,-0.0008669505,0.0002587813,-0.049773734,55.531857,156.9064,0.0047884034,1442850,-562,125,-4500,7412
85277662,4037,0,-1.4787053,0.6306509,-9.04785,0.010117201,-0.011506965,-0.03724484,55.545708,156.9064,0.0047884034,1442850,-2737,258,-2623,7417
85378447,4026,0,-0.28639483,-0.543464,-9.7162695,0.030759733,-0.009793015,-0.023443338,55.523544,156.9064,0.0047884034,1442850,-1924,-65,-521,7409
85482421,3979,0,0.47379616,-1.1534574,-9.594399,-0.012322515,0.0023236282,-0.034156524,55.545708,156.9064,0.0047884034,1442850,1788,-576,-1648,7417
85582422,4001,0,0.14090057,0.15981121,-9.772111,-0.033427402,0.0052820877,-0.024423845,55.567867,156.9064,0.0047884034,1442850,2344,-607,-1017,7425
85682422,4001,0,-0.784704,1.4060143,-10.415586,-0.019488094,0.009792495,-0.028491924,55.548477,156.9064,0.0047884034,1442850,-98,293,-1503,7418
85786421,3983,0,0.7418973,0.8524574,-10.601798,-0.0081545105,-0.010455088,-0.026076201,55.545708,156.9064,0.0047884034,1442850,1338,571,-1516,7417
85886421,3945,0,0.24376637,-0.62691855,-10.148923,-0.031706028,-0.0114863105,-0.018301148,55.537395,156.9064,0.0047884034,1442850,898,997,-2407,7414
85990428,4007,0,0.2926818,-2.0415165,-9.862254,0.006207718,0.0030900207,-0.048679776,55.548477,156.9064,0.0047884034,1442850,1353,-409,-4241,7418
86090467,4046,0,-0.08593763,-1.429921,-9.397482,-0.028145216,0.011639189,-0.04412569,55.545708,156.9064,0.0047884034,1442850,1804,-1284,-2941,7417
86190428,3997,0,-1.0579058,0.11760185,-8.931194,-0.01267047,0.011372991,-0.031505257,55.540165,156.9064,0.0047884034,1442850,-1203,-901,-2241,7415
86291222,4001,0,-0.32281977,1.5137602,-10.036612,0.02066286,0.00046350848,-0.044686195,55.548477,156.9064,0.0047884034,1442850,-1494,-268,-627,7418
86395221,4000,0,0.43588313,0.050928455,-10.096223,-0.032041967,-0.005358019,-0.016085068,55.540165,156.9064,0.0047884034,1442850,1751,435,170,7415
86495221,3987,0,-0.11121927,-0.97082156,-9.005895,-0.035042323,0.0029020647,-0.04244432,55.554016,156.9064,0.0047884034,1442850,872,51,-3048,7420
86599221,3991,0,-1.0319337,0.40981397,-8.768884,0.031622157,0.0011489502,-0.032130085,55.559555,156.9064,0.0047884034,1442850,-2348,258,-1127,7422
86699221,3994,0,-0.15907817,1.6199825,-10.067657,0.026348202,0.0027014685,-0.033446833,55.587257,156.9064,0.0047884034,1442850,-557,82,-505,7432
86799221,4000,0,1.1216184,1.2812432,-9.15215,0.0019576242,0.0023844382,-0.061614357,55.58172,156.9064,0.0047884034,1442850,1704,-90,-4596,7430
86903228,4007,0,-0.44973606,-0.24595833,-9.698072,0.021151125,-0.0054842765,-0.0573244,55.584488,156.9064,0.0047884034,1442850,-1433,-234,-2851,7431
87003221,3999,0,-0.33071485,-1.3231936,-9.166378,0.021800965,-0.009792493,-0.04966687,55.58172,156.9064,0.0047884034,1442850,-727,-88,-3323,7430
87103221,4000,0,0.38922563,-1.430625,-10.198291,0.0011017136,-0.006243584,-0.01847718,55.587257,156.9064,0.0047884034,1442850,1763,-81,-2662,7432
87207221,4000,0,-0.8424243,1.0330529,-9.361043,0.012194274,0.0104164705,-0.041738592,55.61496,156.9064,0.0047884034,1442850,-2050,-782,-2258,7442
87307229,4001,0,-0.38481513,1.3143744,-10.117945,0.029919244,-0.005947709,-0.02927041,55.559555,156.9064,0.0047884034,1442850,-878,838,-522,7422
87408040,4018,0,1.5456539,0.20535809,-10.419185,0.0048278016,-0.0016631007,-0.05853677,55.584488,156.9064,0.0047884034,1442850,2125,560,-1725,7431
87512032,4004,0,-0.7452538,-0.9996961,-10.334874,0.02154963,-0.0054342123,-0.057597995,55.576176,156.9064,0.0047884034,1442850,-1743,64,-1479,7428
87612022,4001,0,0.32906854,-1.0222216,-9.165991,0.019319588,0.003332558,-0.052234955,55.584488,156.9064,0.0047884034,1442850,564,-457,-3840,7431
87712021,3999,0,0.7865908,0.06773952,-10.017831,-0.017956654,0.005394153,-0.031476144,55.590027,156.9064,0.0047884034,1442850,2020,-1427,-847,7433
87816021,4000,0,-0.54847795,1.4216434,-9.321969,0.0040346216,-0.009128084,-0.03045438,55.584488,156.9064,0.0047884034,1442850,-901,934,-2523,7431
87916021,3992,0,-0.24267821,0.5520972,-10.29074,0.026706161,0.0004950387,-0.049578283,55.592796,156.9064,0.0047884034,1442850,-1117,436,-1818,7434
88020021,3951,0,-0.29518905,-1.1680187,-10.848995,-0.03396329,0.0025621804,-0.04548174,55.612186,156.9064,0.0047884034,1442850,536,60,-1105,7441
88124021,3999,0,0.49631265,1.2632658,-9.907354,0.016489187,0.013514944,-0.0430207,55.576176,156.9064,0.0047884034,1442850,570,-55,-1623,7428
88224042,4021,0,1.0509014,1.60617,-9.482706,-0.015450493,0.0061065503,-0.055846818,55.584488,156.9064,0.0047884034,1442850,2460,-740,-2387,7431
88324846,4024,0,-0.71432924,1.1600219,-9.104458,-0.019882958,-0.0058876965,-0.0183407,55.65374,156.9064,0.0047884034,1442850,-366,649,-2248,7456
88428837,4015,0,0.09435812,-0.83633685,-9.823761,0.016275793,-0.0077219093,-0.0381226,55.626038,156.9064,0.0047884034,1442850,133,-142,-2159,7446
88528828,4007,0,1.0934056,-1.1268573,-10.474313,-0.004721908,-0.0023995116,-0.024231628,55.64266,156.9064,0.0047884034,1442850,2405,-1104,-1073,7452
88632822,4000,0,-0.85109556,0.943774,-9.822754,0.015117889,0.012977954,-0.025760047,55.626038,156.9064,0.0047884034,1442850,-1673,-352,-2635,7446
88732821,3989,0,-0.14136496,1.5222301,-9.895304,0.027593037,0.00669816,-0.045733973,55.592796,156.9064,0.0047884034,1442850,-1579,241,-281,7434
88832821,3999,0,0.9020408,0.6264536,-9.36981,0.018678777,-0.0093329055,-0.0628352,55.64266,156.9064,0.0047884034,1442850,570,312,-4045,7452
88936895,4073,0,-0.5822317,-0.9539707,-9.471729,-0.0048164986,0.008234844,-0.051729023,55.65651,156.9064,0.0047884034,1442850,-1084,-833,-4134,7457
89036821,3998,0,-0.56411475,-0.7992318,-9.866276,0.009429345,-0.0049101477,-0.038449522,55.63712,156.9064,0.0047884034,1442850,-1064,69,-1506,7450
89136821,3993,0,-0.55372673,0.28043273,-10.755135,0.020180153,0.010403407,-0.040832248,55.65374,156.9064,0.0047884034,1442850,-609,-138,376,7456
89240822,4001,0,-0.9377149,1.6491662,-9.593333,-0.009901941,0.013213163,-0.048179504,55.648197,156.9064,0.0047884034,1442850,-1301,-101,-1642,7454
89340827,4006,0,-0.6225873,1.505996,-9.610747,0.031276405,0.001320948,-0.07503704,55.587257,156.9064,0.0047884034,1442850,-2249,223,-3663,7432
89441636,4015,0,0.3549191,-0.14540108,-10.030504,0.012110414,-0.016296849,-0.011376262,55.63989,156.9064,0.0047884034,1442850,648,479,-730,7451
89545621,3992,0,-1.2179602,-0.9759636,-9.199441,-0.0055030286,0.0022617402,-0.04764868,55.612186,156.9064,0.0047884034,1442850,-1676,176,-3783,7441
89645638,4017,0,-0.5293037,0.24797986,-10.131846,0.019160422,-0.0040276656,-0.043301173,55.65097,156.9064,0.0047884034,1442850,-1150,573,-2606,7455
89745621,4000,0,-0.55571014,0.9914962,-10.063532,0.02735449,0.0012446543,-0.062289402,55.626038,156.9064,0.0047884034,1442850,-995,-484,-1846,7446
89849621,3960,0,-0.31203237,0.86242837,-9.2927265,-0.020444479,0.0012303632,-0.06422517,55.67036,156.9064,0.0047884034,1442850,403,-495,-3827,7462
89949621,3993,0,-0.67898434,-0.2530873,-8.741849,-0.015538542,0.0010645475,-0.058500305,55.70083,156.9064,0.0047884034,1442850,-568,-333,-4071,7473
90053623,4002,0,0.5374302,-1.3567758,-10.246718,0.00783903,0.0033242917,-0.03957082,55.68975,156.9064,0.0047884034,1442850,932,-1527,-891,7469
90157621,3994,0,-0.7809635,0.5772788,-9.012451,-0.01901947,0.02704585,-0.06941855,55.67313,156.9064,0.0047884034,1442850,-205,-1378,-3388,7463
90257621,3992,0,-0.62762195,1.6139812,-9.236156,0.009674827,0.009637725,-0.058421258,55.70637,156.9064,0.0047884034,1442850,-2065,306,-3544,7475
90358422,4000,0,-0.1334663,0.48304772,-10.371756,0.03859837,-0.0052986345,-0.032184828,55.69252,156.9064,0.0047884034,1442850,-1377,352,-633,7470
90462422,3992,0,-0.2549556,-1.0079833,-8.9039345,-0.024235763,-0.0009327474,-0.028344087,55.67036,156.9064,0.0047884034,1442850,630,-583,-3481,7462
90562422,4000,0,-0.34602177,-0.33616698,-9.640483,-0.03242163,0.0090584885,-0.03455866,55.71468,156.9064,0.0047884034,1442850,1027,-234,-3307,7478
90662421,4000,0,-0.41056383,0.5840191,-9.850373,-0.016081188,0.023641117,-0.07367188,55.68975,156.9064,0.0047884034,1442850,139,-494,-2795,7469
90766449,4027,0,-0.058378942,1.5292253,-10.354552,-0.013856432,0.006951672,-0.039479896,55.71468,156.9064,0.0047884034,1442850,586,210,-699,7478
90866421,3995,0,-0.74060225,0.39158875,-9.234834,-0.020697575,0.0051853266,-0.029165458,55.71191,156.9064,0.0047884034,1442850,-863,390,-2405,7477
90970421,3993,0,1.0310432,-1.1333437,-9.73267,0.013049478,-0.012317018,-0.024995167,55.68975,156.9064,0.0047884034,1442850,1322,540,-1878,7469
91070455,4027,0,0.43962634,-0.82360446,-9.416441,-0.015173553,-0.002023276,-0.008844545,55.72853,156.9064,0.0047884034,1442850,2262,193,-2815,7483
91170422,4000,0,0.08939771,0.21721585,-9.600841,-0.03587154,0.001039194,-0.044718396,55.71745,156.9064,0.0047884034,1442850,1283,-745,-3134,7479
91274428,4007,0,0.09088166,0.9972304,-10.666144,0.033932347,-0.009541828,-0.023789568,55.70914,156.9064,0.0047884034,1442850,-413,447,535,7476
91374422,4001,0,1.350157,0.25619674,-9.558225,0.010358077,0.000934443,-0.032773096,55.72853,156.9064,0.0047884034,1442850,1680,19,-2745,7483
91475222,3994,0,0.24213195,-0.7795934,-9.39305,-0.031366367,-0.0072771627,-0.03184335,55.722992,156.9064,0.0047884034,1442850,1588,-290,-2427,7481
91579222,3961,0,-0.9203874,-0.0019125217,-10.201735,0.036336113,-0.0074592233,-0.033279136,55.720222,156.9064,0.0047884034,1442850,-1835,476,-1673,7480
91679221,3992,0,0.3223503,1.6991553,-10.237449,0.013060405,0.0043279724,-0.034031525,55.761772,156.9064,0.0047884034,1442850,1016,462,-155,7495
91779266,4045,0,1.0189602,1.3366084,-8.8555155,-0.015622006,-0.00958873,-0.03447008,55.742382,156.9064,0.0047884034,1442850,2490,-18,-4453,7488
91883221,3993,0,-0.7093652,0.86988807,-10.441608,0.022848072,-0.002981057,-0.07557556,55.759003,156.9064,0.0047884034,1442850,-2523,90,-2243,7494
91983221,3960,0,-0.00094072864,-0.6436324,-9.896476,0.026755027,-0.003063832,-0.051859684,55.770084,156.9064,0.0047884034,1442850,-737,-812,-2361,7498
92087228,4007,0,-0.5914129,-0.48217654,-9.196391,-0.012246758,0.016528524,-0.029656727,55.753464,156.9064,0.0047884034,1442850,361,-1231,-2573,7492
92191221,3986,0,0.14976074,1.3941602,-9.222263,0.01574492,0.015276931,-0.07536736,55.761772,156.9064,0.0047884034,1442850,-279,-805,-2848,7495
92291221,4000,0,0.8961027,0.9264887,-9.176672,0.0012237905,-0.0060116085,-0.060062755,55.756233,156.9064,0.0047884034,1442850,1689,77,-4609,7493
92395221,4000,0,-0.42243335,-0.9554351,-10.217373,-0.00835547,0.00016174722,-0.04954162,55.7867,156.9064,0.0047884034,1442850,-1473,663,-2068,7504
92499221,4000,0,0.49425566,-1.0452193,-10.729833,0.019329978,-0.011071081,-0.016560739,55.817173,156.9064,0.0047884034,1442850,835,-100,189,7515
92600022,4000,0,0.8870977,0.7036518,-9.704355,-0.004277508,-0.012381325,-0.008649645,55.7867,156.9064,0.0047884034,1442850,2394,293,-1369,7504
92700023,4001,0,0.31682128,1.6644429,-10.171601,-0.006171542,-0.0069921846,-0.0015782038,55.797783,156.9064,0.0047884034,1442850,1546,341,347,7508
92804030,3965,0,0.00916724,-0.18026829,-8.8897505,-0.014192868,-0.006159538,-0.020547792,55.811634,156.9064,0.0047884034,1442850,20,904,-2291,7513
92904022,3994,0,-0.009611645,-1.5153478,-9.919777,-0.034292705,0.009525871,-0.028629148,55.795013,156.9064,0.0047884034,1442850,1089,-1023,193,7507
93004022,4000,0,0.8340864,-1.4077705,-9.120308,-0.011176625,0.0053242873,-0.0012531441,55.811634,156.9064,0.0047884034,1442850,2437,-554,-1502,7513
93108027,4005,0,-0.3783466,0.9363824,-9.42364,-0.024064258,0.009262612,-0.05262713,55.808865,156.9064,0.0047884034,1442850,658,-562,-2291,7512
93208021,3951,0,0.4194379,1.3694102,-9.691262,-0.04199012,0.0028401022,-0.022273833,55.789474,156.9064,0.0047884034,1442850,2563,263,-3032,7505
93312022,4000,0,-0.9625512,-0.40921718,-9.42279,0.001959965,0.0070234477,-0.07750361,55.778393,156.9064,0.0047884034,1442850,-1130,-685,-3979,7501
93416022,3975,0,-0.54729074,-0.76516515,-10.5288515,0.011710082,0.00517305,-0.03682203,55.770084,156.9064,0.0047884034,1442850,-668,-734,324,7498
93516033,4001,0,-0.9203684,-0.12508251,-9.061313,0.027403617,0.007421226,-0.021951068,55.831024,156.9064,0.0047884034,1442850,-1722,-355,-2541,7520
93616822,3994,0,-0.18739201,1.6347761,-9.879067,0.029254317,0.006322576,-0.0738572,55.808865,156.9064,0.0047884034,1442850,-897,-421,-2218,7512
93720822,4000,0,0.9227866,1.5490842,-10.106361,-0.015838336,-0.016882425,-0.015787808,55.797783,156.9064,0.0047884034,1442850,2336,426,-2350,7508
93820827,4005,0,0.9718293,0.23484026,-9.801479,-0.0155709665,-0.004470517,-0.032824714,55.795013,156.9064,0.0047884034,1442850,2544,369,-4388,7507
94632821,4000,0,-0.63668025,-0.7918924,-9.771957,0.024126869,-0.003323377,-0.046136983,55.847645,156.9064,0.0047884034,1442850,-1034,-446,-1942,7526
94733627,4005,0,0.92227286,1.32637,-9.125019,0.005511622,-0.002179644,-0.037556406,55.842106,156.9064,0.0047884034,1442850,1752,56,-1990,7524
94837622,3993,0,-0.8584941,0.7156665,-8.976548,-0.03405839,0.010192117,-0.068869926,55.828255,156.9064,0.0047884034,1442850,69,-681,-3981,7519
94937631,4010,0,-1.1622434,-0.122613825,-9.255086,-0.018592061,-0.0025940286,-0.06498009,55.886425,156.9064,0.0047884034,1442850,-780,-317,-3094,7540
95037621,4000,0,-1.3392193,-0.8582105,-9.241541,-0.033577245,-0.0030035446,-0.041621633,55.844875,156.9064,0.0047884034,1442850,-496,775,-3292,7525
95141670,4049,0,-0.52662325,-0.10547188,-10.134017,0.031103836,0.003505337,-0.061792165,55.839336,156.9064,0.0047884034,1442850,-1361,-744,-2040,7523
95241622,4000,0,-0.5890102,1.2119653,-9.799031,0.038077712,0.008239672,-0.04778006,55.858727,156.9064,0.0047884034,1442850,-1258,121,-3438,7530
95345621,4000,0,1.4428098,1.2058989,-9.731804,-0.022591589,0.004886631,-0.037122298,55.844875,156.9064,0.0047884034,1442850,3331,465,-1872,7525
95449621,3999,0,-1.3390259,-0.61539894,-10.45527,-0.0052810423,0.003219364,-0.04582121,55.842106,156.9064,0.0047884034,1442850,-1641,470,-1195,7524
95549621,3945,0,-1.1074883,-0.886944,-10.1032505,-0.005762987,0.013603196,-0.060284086,55.842106,156.9064,0.0047884034,1442850,-1451,-804,-1399,7524
95653621,4000,0,-0.28152925,1.2475901,-10.450303,0.03436082,-0.0015209233,-0.037607633,55.869804,156.9064,0.0047884034,1442850,-838,697,-1159,7534
95754435,4013,0,0.11580563,1.7831246,-10.102578,0.041901533,0.0037417137,-0.037659723,55.831024,156.9064,0.0047884034,1442850,-388,1083,-852,7520
95854422,4000,0,-0.31443498,1.3128899,-10.527155,0.03116531,0.0033482239,-0.040941365,55.878117,156.9064,0.0047884034,1442850,-1514,981,-1675,7537
95958423,4001,0,1.1066707,-0.6337046,-10.791326,0.014132608,-0.009582639,-0.027640615,55.872574,156.9064,0.0047884034,1442850,1296,320,-388,7535
96058422,4001,0,-0.7507351,-0.9135106,-10.423008,0.029253153,-0.009578467,-0.036423944,55.872574,156.9064,0.0047884034,1442850,-1424,543,-2592,7535
96158422,4000,0,-1.7428645,1.0301863,-10.218545,0.016816508,0.007319974,-0.038753327,55.864265,156.9064,0.0047884034,1442850,-2569,384,-1388,7532
96262421,3976,0,0.3511506,1.6076765,-9.385172,0.029991474,-0.0033453803,-0.031111754,55.867035,156.9064,0.0047884034,1442850,-193,325,-1453,7533
96362468,4040,0,-0.44458842,1.2060816,-9.714012,0.047358125,-0.002854407,-0.043997463,55.853184,156.9064,0.0047884034,1442850,-2512,669,-3056,7528
96462421,3993,0,-1.0072492,0.25917053,-9.163455,0.036626905,-0.008639693,-0.05653057,55.872574,156.9064,0.0047884034,1442850,-2341,536,-5718,7535
96566428,4006,0,0.5917255,-0.8978532,-11.172179,0.009729657,-0.0035709667,-0.03020151,55.92798,156.9064,0.0047884034,1442850,1633,-52,1586,7555
96666428,3991,0,-0.17238112,-0.1826346,-10.891448,0.030456446,-0.004436647,-0.016473098,55.894737,156.9064,0.0047884034,1442850,-144,495,-984,7543
96766421,4000,0,0.088600315,1.4537903,-10.298585,0.012847338,-0.0031722663,-0.02525049,55.916897,156.9064,0.0047884034,1442850,-54,1001,-809,7551
96871222,4000,0,-0.6283981,1.1332518,-8.873468,-0.021979585,-0.0025495996,-0.042850863,55.891968,156.9064,0.0047884034,1442850,503,374,-4651,7542
96971222,3993,0,-0.918282,0.08908873,-9.174772,-0.013351345,-0.00021816778,-0.03774848,55.878117,156.9064,0.0047884034,1442850,-1694,183,-3066,7537
97071220,3982,0,-0.9328417,-1.164667,-9.685126,-0.016327934,-0.0051600304,-0.064292096,55.894737,156.9064,0.0047884034,1442850,-1335,76,-2924,7543
