timestamp,integral_dt,error_count,x,y,z,x_integral,y_integral,z_integral,temperature,range_m_s2,scaling,device_id,x_raw,y_raw,z_raw,temperature_raw
52648768,4200,0,0.45548406,-0.25256377,-9.724851,-0.0034815765,-0.0014479986,-0.040056042,42.0,78.0,0.0023928226,1114658,366,390,-3279,0
52752725,5212,0,0.085030526,0.5104375,-10.084644,0.00083284103,0.004813237,-0.05257677,41.875,78.0,0.0023928226,1114658,405,725,-2587,2049
52853517,4176,0,0.033615798,0.54441136,-9.627727,-0.0010773069,-0.0061734193,-0.04236193,41.875,78.0,0.0023928226,1114658,916,47,-3292,8192
52952218,4123,0,0.041889887,-0.3592639,-10.396391,0.0068915356,-0.0023682627,-0.04170951,41.875,78.0,0.0023928226,1114658,588,1401,-3235,9740
53055158,4240,0,-0.19493864,0.13462862,-10.625088,0.0029163798,0.0036949825,-0.044333875,41.75,78.0,0.0023928226,1114658,620,943,-2899,0
53161188,4207,0,0.45759562,0.09363138,-10.182161,0.0022599793,-0.0006255417,-0.0378415,41.875,78.0,0.0023928226,1114658,456,588,-3854,9747
53264205,4338,0,0.33950907,0.3104062,-9.662905,0.0025985313,0.0017957218,-0.036334187,41.875,78.0,0.0023928226,1114658,166,328,-2922,9746
53365919,4152,0,-0.039142422,-0.028773865,-9.539594,0.0006188176,-0.0014079227,-0.04540893,41.875,78.0,0.0023928226,1114658,513,-376,-2936,2049
53468870,4245,0,-0.07061947,0.49723437,-10.087601,0.004890748,0.003943054,-0.048651867,41.625,78.0,0.0023928226,1114658,485,823,-3022,7181
53567518,4152,0,0.36607197,0.7051947,-10.063696,0.009728848,0.0043976316,-0.034773342,41.75,78.0,0.0023928226,1114658,-134,1502,-3124,16935
53670515,4298,0,-0.048607387,0.14798301,-9.699126,-0.008604808,-0.0023673086,-0.042267367,41.875,78.0,0.0023928226,1114658,1005,-24,-4207,7186
53772268,5251,0,-0.6586267,-0.87638366,-9.725247,0.00075737224,0.003930466,-0.050572254,41.875,78.0,0.0023928226,1114658,-658,223,-3781,9758
53873068,4123,0,0.64695114,1.0450505,-9.908448,0.00888936,0.010493636,-0.039534383,41.875,78.0,0.0023928226,1114658,-376,697,-2539,7194
53973868,4122,0,0.042315517,0.9668703,-9.597889,-0.010011438,-0.006044099,-0.047486935,41.875,78.0,0.0023928226,1114658,895,271,-3534,9760
54074668,4120,0,-0.33343944,-0.40180054,-9.917691,0.009579514,-0.0025906302,-0.043136388,41.875,78.0,0.0023928226,1114658,613,902,-3932,9766
54176517,5226,0,0.70644957,0.26368287,-10.080195,0.0017510938,0.0065402132,-0.05217837,41.875,78.0,0.0023928226,1114658,345,555,-2801,1
54277318,4159,0,-0.8277629,0.078396365,-9.629684,-0.005899447,-0.002351766,-0.03972178,41.875,78.0,0.0023928226,1114658,1000,699,-3315,1
54382366,4207,0,0.1580166,0.58707935,-9.84687,0.01024547,0.009673946,-0.04329972,41.75,78.0,0.0023928226,1114658,-60,1811,-3603,1
54478917,4200,0,1.1132987,1.4007471,-9.7808695,0.0012557276,0.0061401357,-0.04334333,41.875,78.0,0.0023928226,1114658,352,-250,-3792,1
54585015,4248,0,-0.95334846,-1.0091758,-9.840458,-0.01284906,-0.0020365901,-0.038483474,42.0,78.0,0.0023928226,1114658,63,361,-3365,9750
54685801,4233,0,0.5054286,0.34269187,-9.853308,0.0011586301,0.012049886,-0.03717268,42.0,78.0,0.0023928226,1114658,-27,-494,-4091,9757
54786581,6313,0,-0.56906223,0.16547966,-9.835115,7.2863186e-05,-0.0041316967,-0.068447046,42.0,78.0,0.0023928226,1114658,8,646,-1779,7184
54890540,4210,0,-0.6653816,-0.03445227,-9.681196,-0.0025560765,-0.009721743,-0.029179541,41.875,78.0,0.0023928226,1114658,727,-109,-4785,9752
54995521,4132,0,-0.83412135,-0.53192115,-10.115777,-0.01083662,-0.010745847,-0.04524656,41.75,78.0,0.0023928226,1114658,1150,-301,-1766,2048
55092133,4177,0,0.6973332,0.71864635,-9.835075,-0.009930168,-0.00820466,-0.036883216,41.75,78.0,0.0023928226,1114658,829,-2183,-3106,9762
55197159,4216,0,0.45793176,-0.565985,-10.079135,0.011019142,0.017978216,-0.040683314,42.0,78.0,0.0023928226,1114658,-1171,-470,-4629,2049
55298983,5221,0,-1.9213067,-0.2802217,-9.871108,-0.009859445,-0.023440747,-0.053907137,41.875,78.0,0.0023928226,1114658,1968,2572,-1698,8193
55399804,4237,0,-0.5676416,0.005171492,-9.394282,0.024924781,0.0004892842,-0.05881744,42.0,78.0,0.0023928226,1114658,391,3973,-5955,0
55500616,4249,0,-1.017663,0.38935557,-9.2604065,-0.06375662,-0.0134417415,-0.023005959,41.875,78.0,0.0023928226,1114658,2246,-1633,-2338,7197
55601392,4225,0,-0.5053154,0.6276944,-11.108489,-0.054574512,-0.019932654,-0.0021356116,41.875,78.0,0.0023928226,1114658,2334,-1819,1112,0
55701159,4193,0,2.3236985,0.39970377,-9.348071,0.03758128,-0.0038231867,-0.035885494,42.0,78.0,0.0023928226,1114658,2834,-161,-2852,9770
55806159,4239,0,-0.50877106,0.5206661,-10.305662,0.07676307,0.006567059,-0.05572438,42.0,78.0,0.0023928226,1114658,525,4578,-5411,0
55907968,5250,0,-0.049325,0.99896795,-9.59253,-0.00799662,0.0049233004,-0.06471665,41.875,78.0,0.0023928226,1114658,2139,-3894,-3867,8193
56008767,4199,0,-1.8208759,0.08398246,-10.05831,-0.018605676,-0.0006232902,-0.032622118,42.0,78.0,0.0023928226,1114658,309,4907,-3581,2049
56107505,4190,0,0.715903,-0.058311816,-10.196297,0.009969142,-0.011683379,-0.026988234,41.875,78.0,0.0023928226,1114658,3641,-1181,-1730,16935
56210367,4199,0,0.30511323,0.7459198,-9.732216,0.027941179,0.013867768,-0.070028484,42.0,78.0,0.0023928226,1114658,-1372,-495,-5240,8192
56312223,5248,0,-1.3882607,0.22656216,-9.265501,-0.031331055,-0.013725204,-0.027031912,42.0,78.0,0.0023928226,1114658,1296,3372,-2120,9787
56413017,4149,0,0.9495058,-0.22749189,-11.045474,-0.01659489,0.0046035443,-0.059352595,42.0,78.0,0.0023928226,1114658,-774,-5077,523,9788
56516998,5280,0,-1.4402874,-0.017752465,-8.694554,-0.041274086,0.00991775,-0.019246738,41.875,78.0,0.0023928226,1114658,-2777,-2967,-385,9770
56617768,4201,0,-1.0874622,0.82096505,-9.197578,-0.025004243,0.0021958796,-0.02471704,42.0,78.0,0.0023928226,1114658,552,3532,-7709,2049
56716467,4199,0,0.92698675,0.26482022,-9.91084,-0.03985404,-0.0005191342,-0.009374913,42.125,78.0,0.0023928226,1114658,-206,-5109,-390,8193
56818318,5241,0,0.07142912,-0.57726073,-10.412284,-0.0044572614,0.013025866,-0.047883965,42.0,78.0,0.0023928226,1114658,-1188,3973,-7253,0
56919125,4208,0,-0.1546655,-0.0077432725,-9.2953,0.0248233,0.0117779905,-0.05885535,42.0,78.0,0.0023928226,1114658,-848,23,-6564,9780
57023084,5256,0,0.4415196,1.2319347,-9.705706,-0.003167985,-0.01290877,-0.01702212,42.0,78.0,0.0023928226,1114658,3024,-3498,540,2049
57123868,4201,0,-0.54047334,0.14407626,-9.564305,-0.03183798,-0.00411438,-0.031702742,41.875,78.0,0.0023928226,1114658,-22,-58,-6093,0
57226767,4172,0,-1.2722676,-0.9423998,-10.059903,-0.0022779973,0.000687794,-0.046006374,42.0,78.0,0.0023928226,1114658,-66,2998,-3349,9768
57325469,6302,0,-0.59697664,-0.7292807,-9.132577,0.019604445,0.0034210964,-0.064579286,41.875,78.0,0.0023928226,1114658,-192,-975,-5621,8193
57429417,4199,0,-0.9640773,2.2276874,-9.099302,-0.015437262,0.013398211,-0.052958433,41.875,78.0,0.0023928226,1114658,546,1766,-4254,2049
57530217,4199,0,0.5915892,1.5396432,-10.394349,-0.024832927,0.0032644633,-0.024383245,42.125,78.0,0.0023928226,1114658,697,-3859,-1141,8192
57632170,5352,0,-0.6417345,-0.11939805,-9.748274,-0.027397377,-0.0063843084,-0.024144012,42.0,78.0,0.0023928226,1114658,210,4178,-9958,9790
57732953,4280,0,-0.8946658,0.94430214,-11.090557,-0.036975134,0.015512217,-0.096209906,42.0,78.0,0.0023928226,1114658,2069,-3396,-4515,9798
57835767,4200,0,-1.2104808,0.81888425,-11.352108,0.002865359,0.008190847,-0.038059495,42.0,78.0,0.0023928226,1114658,-637,-3842,-7371,0
57934539,6329,0,-1.1147813,-0.6461858,-12.843803,-0.0059700375,0.014528189,-0.05220115,42.0,78.0,0.0023928226,1114658,-1621,4472,-3707,7225
58037395,6328,0,-0.45363733,-0.09845611,-13.190772,-0.019640405,-0.0072867707,-0.08088562,42.125,78.0,0.0023928226,1114658,1096,1883,-868,0
58139245,4228,0,-0.30793598,0.33228967,-11.015415,0.007819152,-0.00264196,-0.08270135,42.0,78.0,0.0023928226,1114658,3360,2171,-9191,7228
58240096,4279,0,-0.475657,0.34645143,-11.925682,-0.013737685,-0.011597268,-0.0324742,42.0,78.0,0.0023928226,1114658,-1311,791,237,7224
58341868,4114,0,-0.23826692,2.3115537,-11.165142,0.021367472,0.010352557,-0.07494657,41.875,78.0,0.0023928226,1114658,2989,3733,-8729,7230
58442668,4129,0,-0.021301994,0.58381754,-11.137003,0.0005652595,-0.0045024506,-0.014344989,42.125,78.0,0.0023928226,1114658,-358,3848,-3432,9797
58543468,4153,0,0.105749145,0.016574163,-10.764334,0.025605405,0.0041699344,-0.034595292,41.875,78.0,0.0023928226,1114658,2158,1947,-6734,9784
58645318,5157,0,-1.0525464,0.29623684,-8.872958,0.0022280025,0.0069548152,-0.06722191,42.125,78.0,0.0023928226,1114658,182,5163,-6483,2048
58748217,5249,0,-0.87055707,1.6533614,-9.2406845,-0.0146395825,0.011575701,-0.05166972,42.125,78.0,0.0023928226,1114658,929,4949,-6322,9808
58849055,4158,0,0.6797765,0.5561404,-10.632907,0.019449266,-0.012237239,-0.03541023,41.875,78.0,0.0023928226,1114658,2910,-330,2754,8193
58954064,4229,0,-1.1641704,-0.68855894,-8.328347,0.00255486,0.022428915,-0.05080496,42.125,78.0,0.0023928226,1114658,-1172,4251,-7419,9815
59051667,4163,0,-0.8758062,-0.30586055,-7.777268,-0.04234456,0.0174446,-0.033174954,42.0,78.0,0.0023928226,1114658,-1263,-564,-6067,9809
59774079,4171,0,0.43831584,0.9070414,-8.338463,0.04456176,-0.004630369,-0.0474487,42.0,78.0,0.0023928226,1114658,1982,483,-5221,8193
59875928,4210,0,-0.7457359,-0.07837789,-8.365763,-0.009236024,-0.0039219367,-0.029892163,42.0,78.0,0.0023928226,1114658,117,1807,-2404,2049
59977791,5272,0,1.0322976,-0.37149477,-9.496261,-0.024351858,0.0011307846,-0.06539066,42.125,78.0,0.0023928226,1114658,-520,-4421,-2537,7228
60078591,4223,0,-0.6322657,0.7951248,-8.672405,0.027657425,0.00901283,-0.05627434,42.0,78.0,0.0023928226,1114658,59,3654,-6248,9829
60179398,4230,0,-1.0009649,0.5284515,-8.415357,-0.008044884,-0.0005058012,-0.03494482,42.125,78.0,0.0023928226,1114658,-213,4957,-6453,9813
60280199,4231,0,1.0789379,0.0496309,-9.454348,-0.0460166,-0.010007569,-0.046547744,42.0,78.0,0.0023928226,1114658,2025,-4274,-5364,8193
60383080,4212,0,1.4484549,-1.4965602,-10.510757,-0.01661514,-0.0009207954,-0.07562726,42.125,78.0,0.0023928226,1114658,-1508,-5117,-1378,9829
60484941,5273,0,-0.29068014,-0.7984224,-10.327238,0.007605642,-0.0005314228,-0.040140163,42.0,78.0,0.0023928226,1114658,-2023,-2251,-3722,9830
60589931,4132,0,-0.42465365,1.3490514,-9.465574,-0.023022851,0.0033644177,-0.014984643,42.0,78.0,0.0023928226,1114658,109,3627,-4654,0
60691768,4200,0,-1.0868067,0.59369135,-10.256798,-0.020811658,-0.013549621,-0.03698493,42.25,78.0,0.0023928226,1114658,2781,2375,-4678,0
60790560,4293,0,0.5056395,-0.61660963,-10.249189,-0.029000903,-0.01022235,-0.028474903,42.125,78.0,0.0023928226,1114658,1932,-2097,-2377,9837
60895468,4153,0,-0.5461613,-0.9121388,-10.247936,0.029780477,-0.00048309535,-0.035097018,42.125,78.0,0.0023928226,1114658,13,3484,-6087,8193
60993159,4171,0,-0.5873175,0.51929694,-11.470272,0.027421026,0.00847167,-0.063985325,41.875,78.0,0.0023928226,1114658,1538,3084,-585,9845
61098163,4245,0,-1.8802091,1.2166338,-10.102319,-0.02260972,-0.0013583445,-0.037632685,42.0,78.0,0.0023928226,1114658,206,4503,-4929,8192
61198918,4190,0,-0.29695225,1.3548863,-10.892279,0.03495648,0.006976512,-0.07575485,42.125,78.0,0.0023928226,1114658,2753,4443,-6465,2048
61299719,4201,0,0.7044999,-0.20694453,-10.792377,0.033054724,-0.019229654,-0.044146214,42.125,78.0,0.0023928226,1114658,2448,-350,-3427,9857
61401566,4195,0,0.25809523,-0.31806037,-10.519525,0.029759998,0.007688413,-0.05279105,42.125,78.0,0.0023928226,1114658,-168,-221,-1732,9854
61503418,5251,0,-0.18896729,1.0124148,-10.3309145,0.045566004,-0.003098778,-0.06378908,42.125,78.0,0.0023928226,1114658,2158,3119,-2538,9853
61604219,4145,0,-0.18605067,1.37658,-9.975028,0.015979268,-0.006386623,-0.036213886,42.125,78.0,0.0023928226,1114658,3207,1852,-2672,9853
61705039,4171,0,-0.13717179,0.10037674,-10.075876,0.034948472,-0.012469025,-0.056985136,42.0,78.0,0.0023928226,1114658,1656,3705,-4685,9854
61808985,4218,0,0.9205089,-0.81000036,-10.563398,-0.0078143235,-0.0022231415,-0.03837642,42.125,78.0,0.0023928226,1114658,-582,-6020,930,7226
61909805,4220,0,0.19088712,0.49313512,-9.000607,0.04541486,0.00503893,-0.06813552,42.125,78.0,0.0023928226,1114658,958,2085,-2019,0
62008503,4219,0,0.0148574645,0.62379396,-8.426276,-0.040557273,0.0038191094,-0.010911069,42.0,78.0,0.0023928226,1114658,-166,-2748,-1503,0
62112418,5220,0,1.6290289,0.050389245,-9.315574,0.002106239,-0.0058931187,-0.05945695,42.0,78.0,0.0023928226,1114658,1188,-4917,-1324,0
62213218,4200,0,0.22723004,-0.2511426,-8.358526,0.04461709,-0.0011445513,-0.047897648,42.0,78.0,0.0023928226,1114658,-126,1685,-5654,8192
62311918,4200,0,1.196999,-0.0033092813,-8.767488,-0.034346685,0.0037322654,-0.04267089,42.125,78.0,0.0023928226,1114658,-986,-5255,-3681,0
62413790,5272,0,-0.824201,1.0960062,-8.920713,0.03728105,-0.0012041477,-0.04538657,42.125,78.0,0.0023928226,1114658,1135,4547,-2367,9856
62518768,4194,0,-1.2500061,-0.15614241,-8.697336,0.00959132,-0.0021023804,-0.050056316,42.0,78.0,0.0023928226,1114658,1522,4526,-2625,9873
62617501,4233,0,1.1393423,-0.37714475,-8.594064,0.018846296,-0.007038323,-0.020663671,42.125,78.0,0.0023928226,1114658,2230,-3403,-4511,16936
62721418,5203,0,1.2705352,0.29493797,-9.029101,0.038663488,-0.0008118421,-0.036155354,42.25,78.0,0.0023928226,1114658,307,-1442,1691,0
62822253,4235,0,-0.88879377,1.3164004,-9.15655,0.023639666,-0.004830763,-0.041732498,42.125,78.0,0.0023928226,1114658,921,4690,-2305,0
62923027,4210,0,-0.21040168,0.25371,-9.912529,-0.03132414,0.007059337,-0.041115098,42.25,78.0,0.0023928226,1114658,1661,464,-1970,8192
63025948,4170,0,0.9793336,-0.97228616,-10.290775,-0.03693523,0.0045901467,-0.06257185,42.125,78.0,0.0023928226,1114658,552,-3962,-1106,0
63127767,4199,0,0.3882644,0.12142734,-9.680619,0.02131132,0.011651423,-0.060200706,42.125,78.0,0.0023928226,1114658,-659,-1805,-3963,16936
63228568,4200,0,-0.07581141,1.4001721,-9.938596,0.025925163,0.008062972,-0.07185225,42.125,78.0,0.0023928226,1114658,890,2656,-2896,8192
63331468,4153,0,0.6110212,0.7500541,-10.216238,0.03132252,-0.011700512,-0.04972889,42.125,78.0,0.0023928226,1114658,1470,527,-819,9865
63435418,4174,0,1.1975644,-1.0662391,-11.311943,-0.025816731,-0.0033844502,-0.034376316,42.125,78.0,0.0023928226,1114658,283,-5038,120,9881
63536218,4150,0,-0.34244978,-1.1399364,-10.27117,-0.03952383,0.010785554,-0.06138146,42.125,78.0,0.0023928226,1114658,-2776,-2633,-4859,9882
63638071,5175,0,-1.2058535,0.010114089,-9.664558,-0.020981545,0.01616151,-0.024525985,42.125,78.0,0.0023928226,1114658,-1082,3831,-2021,0
63738868,4196,0,-1.7917598,1.8190534,-9.585437,-0.017692087,0.009735119,-0.05255705,42.25,78.0,0.0023928226,1114658,978,4662,-3288,0
63839673,4204,0,-1.3989804,1.4551588,-9.65378,-0.023233136,0.0055504804,-0.017517826,42.25,78.0,0.0023928226,1114658,1429,4670,-3551,0
63940492,4225,0,-0.9614039,0.26365706,-10.58719,-0.0018699643,0.008094227,-0.053238504,42.125,78.0,0.0023928226,1114658,2145,2998,-7701,8193
64042320,4155,0,0.20490019,-1.1233151,-11.119164,0.025269208,-0.0035875728,-0.06432599,42.125,78.0,0.0023928226,1114658,727,343,-4862,8192
64145218,6301,0,0.009377331,-1.1326827,-10.553285,-0.03316151,0.016556332,-0.05820545,42.0,78.0,0.0023928226,1114658,-1988,142,-8233,0
64244968,4184,0,-1.3340633,1.286705,-10.049168,0.009271841,0.013694696,-0.052184623,42.125,78.0,0.0023928226,1114658,-306,5621,-4211,9888
64348967,5286,0,0.65729475,0.92798436,-10.15457,0.0020040742,-0.012043074,-0.03630893,42.125,78.0,0.0023928226,1114658,500,-3654,-3016,9896
64449768,4246,0,0.5228645,-0.50088155,-11.2735195,-0.019225221,-0.004965554,-0.06298189,42.25,78.0,0.0023928226,1114658,995,-1680,-388,9890
64552617,4199,0,-1.1889979,-0.6103144,-10.046187,-0.027761964,0.0035657745,-0.027586827,42.125,78.0,0.0023928226,1114658,-534,2856,-3842,0
64654515,4248,0,-1.1076856,1.2758231,-9.939576,-0.024617026,0.015087306,-0.031968124,42.125,78.0,0.0023928226,1114658,1389,510,-1502,7247
64755339,4272,0,0.2528834,1.789155,-9.246682,-0.026241407,0.0009777696,-0.025176926,42.125,78.0,0.0023928226,1114658,-200,-2029,-4034,9903
64856175,4308,0,1.6110363,1.1981868,-10.86345,-0.009739869,-0.014461706,-0.036751837,42.25,78.0,0.0023928226,1114658,2110,-3876,-2116,9887
64957917,5248,0,1.2058207,-0.79807246,-10.370217,0.025277136,-0.012799704,-0.059046425,42.25,78.0,0.0023928226,1114658,1475,-1902,-3643,7256
65058746,4201,0,0.19231741,-1.3646832,-10.92837,0.03516848,-0.011618175,-0.040749557,42.25,78.0,0.0023928226,1114658,1547,331,-2547,0
65159564,4186,0,-1.4052798,-0.06635061,-9.611374,0.021063687,0.011498897,-0.059665784,42.25,78.0,0.0023928226,1114658,459,4671,-7133,0
65263517,4170,0,-0.33447307,2.0566263,-9.193053,0.03264482,0.0070008254,-0.05895797,42.375,78.0,0.0023928226,1114658,1604,2624,-6379,9896
65364268,4129,0,-0.85879034,1.263613,-9.743542,0.009050654,0.0057945335,-0.03744869,42.25,78.0,0.0023928226,1114658,1485,5446,-3080,9897
65465093,4171,0,1.2456563,-0.00236211,-9.091779,0.009737608,-0.00966308,-0.03886454,42.125,78.0,0.0023928226,1114658,775,-3181,-3147,9912
65566918,5202,0,1.1187671,0.48681313,-8.711998,-0.025221698,0.015609531,-0.07324751,42.25,78.0,0.0023928226,1114658,-778,-4176,-493,2048
65665644,4202,0,-0.028938742,0.6747478,-8.341171,0.048242882,-0.00054573076,-0.04351668,42.25,78.0,0.0023928226,1114658,359,4636,325,0
65771668,5178,0,1.1598923,-0.03428462,-8.681492,-0.023085248,-0.0019575283,-0.045429073,42.25,78.0,0.0023928226,1114658,417,-4657,-4093,0
65874643,5325,0,-1.2073727,-0.8178873,-8.315695,0.020033898,0.007211376,-0.06042733,42.125,78.0,0.0023928226,1114658,-2774,3617,-5185,0
65975394,4226,0,0.065379426,0.72114116,-9.321232,-0.006752893,0.0031881956,-0.040449303,42.25,78.0,0.0023928226,1114658,-1928,-2595,-5447,7279
66077217,4199,0,-0.36256996,1.4289271,-9.153991,0.034577623,-7.118506e-05,-0.05305223,42.25,78.0,0.0023928226,1114658,1358,5066,-3071,9909
66178017,4199,0,-1.142256,0.5692711,-9.853021,-0.033033438,-0.0023004801,-0.03442799,42.125,78.0,0.0023928226,1114658,564,2632,-3727,9899
66278818,4200,0,0.97759366,-1.2299503,-9.940801,-0.037529875,-0.010947688,-0.02560163,42.125,78.0,0.0023928226,1114658,590,-4141,-3371,0
66380669,5251,0,0.92887723,-0.9278055,-11.08747,0.028848782,0.009070282,-0.07434587,42.375,78.0,0.0023928226,1114658,-1164,-853,-276,9919
66481468,4176,0,-1.8864982,1.092886,-10.388652,0.0061593307,0.010280555,-0.055999417,42.25,78.0,0.0023928226,1114658,710,5616,-2755,8193
66586515,4248,0,-0.3236102,1.8866442,-10.120658,0.040637143,0.0019488339,-0.07937437,42.25,78.0,0.0023928226,1114658,427,4852,-3560,9927
66687361,4294,0,-0.7881071,0.42599806,-10.270092,0.0059122024,-0.008414964,-0.042028304,42.25,78.0,0.0023928226,1114658,176,4948,-4752,9906
66789161,4193,0,-1.3357956,-1.1230148,-10.180593,-0.003275111,-0.004571149,-0.051506083,42.25,78.0,0.0023928226,1114658,-382,5618,-5732,7285
66887818,4200,0,0.4950602,-1.6022018,-10.511896,-0.039136443,0.0077087125,-0.060037423,42.25,78.0,0.0023928226,1114658,-1446,-4290,-5092,16937
66990717,4188,0,-1.3642112,-0.8288132,-9.7623205,-0.034296658,0.019729642,-0.029779658,42.25,78.0,0.0023928226,1114658,-4416,898,-1062,9926
67092568,5207,0,0.4552948,1.5308689,-9.9712305,-0.027367191,0.01902205,-0.062584706,42.25,78.0,0.0023928226,1114658,-2083,-2919,-1922,7269
67195468,4107,0,-0.69915295,0.56640047,-9.555268,-0.0276982,0.006366803,-0.045910984,42.125,78.0,0.0023928226,1114658,97,399,-4609,2048
67301518,4200,0,-0.3220284,-1.3195186,-9.950532,0.029920535,-0.0022753272,-0.04954304,42.125,78.0,0.0023928226,1114658,870,1593,-5122,0
67398159,4213,0,0.027669445,-1.8994147,-10.563769,-0.037878666,0.003412551,-0.047348633,42.25,78.0,0.0023928226,1114658,-1258,-1825,-4914,8192
67503158,4240,0,-1.8667814,1.0649527,-8.997336,0.0127320215,0.02457784,-0.034430824,42.125,78.0,0.0023928226,1114658,235,4601,-8617,8192
67604973,5255,0,-0.47460765,1.9592384,-9.9967375,-0.01898497,0.015379704,-0.043307364,42.375,78.0,0.0023928226,1114658,1373,1176,-3829,9929
67701568,4192,0,0.6812067,2.292861,-10.198675,0.0024638881,-0.018460013,-0.023644771,42.25,78.0,0.0023928226,1114658,2408,-3144,-3094,9934
67807618,4200,0,-0.8765822,-0.21462132,-10.755791,-0.03290096,-0.007374961,-0.03100078,42.375,78.0,0.0023928226,1114658,3382,1027,-3422,8193
67908418,4189,0,0.6251626,-1.8825152,-9.793353,-0.03621267,0.005566254,-0.029378377,42.25,78.0,0.0023928226,1114658,-163,-3998,-6232,9952
68009218,4200,0,0.7354694,-0.83961594,-10.288194,-0.050966583,0.014320902,-0.046356626,42.25,78.0,0.0023928226,1114658,-749,-5221,-3561,9933
68113197,4181,0,-0.7319894,0.92331666,-9.227301,-0.022010935,0.017585907,-0.047451936,42.375,78.0,0.0023928226,1114658,-1062,4720,-4170,0
68213976,6309,0,-0.41054785,1.1797801,-8.276654,-0.03493898,0.01195268,-0.06147187,42.125,78.0,0.0023928226,1114658,-629,1696,-7698,8193
68311618,4198,0,1.5105193,1.1754423,-9.5924425,-0.00077642937,-0.0060847066,-0.02580048,42.25,78.0,0.0023928226,1114658,668,-4591,-2357,9942
68417739,5322,0,-0.8159173,-0.88664246,-10.469166,-0.03103593,-0.0044412795,-0.05218525,42.25,78.0,0.0023928226,1114658,2396,1661,-1189,9957
68518539,4251,0,-1.8682821,-0.46288306,-9.973992,-0.026569478,0.008447201,-0.023728812,42.375,78.0,0.0023928226,1114658,-97,3687,-1711,9952
68619339,4235,0,-0.7358677,0.35322732,-10.077329,-0.03476939,0.01881407,-0.02611861,42.25,78.0,0.0023928226,1114658,-1098,9,-157,9936
68719018,5229,0,0.5790506,0.8746238,-9.653591,-0.038743287,0.0062032985,-0.038921397,42.25,78.0,0.0023928226,1114658,453,-4769,-3239,0
68818768,4130,0,0.7661218,1.1846185,-9.877587,-0.03373347,0.001242115,-0.027643511,42.375,78.0,0.0023928226,1114658,1616,-4432,-1839,8192
68920617,4200,0,-0.1175689,0.0040556225,-10.017695,-0.038402326,-0.004386747,-0.03146851,42.125,78.0,0.0023928226,1114658,482,-717,-1930,0
69021418,4200,0,-0.08764716,-1.2893032,-9.868094,-0.030280877,0.0022550172,-0.042072576,42.375,78.0,0.0023928226,1114658,1583,-300,-4093,9945
69127501,4186,0,1.1961898,-0.17109098,-9.77507,0.019532943,0.0005569027,-0.030968634,42.25,78.0,0.0023928226,1114658,664,-3698,-770,16937
69228268,4153,0,0.5867462,1.107924,-9.845818,0.006848813,-0.011162508,-0.011203737,42.375,78.0,0.0023928226,1114658,557,-3308,-2144,8192
69330146,4228,0,0.25806746,0.49887502,-9.717731,-0.033529997,-0.011225074,-0.015597579,42.25,78.0,0.0023928226,1114658,424,-2806,-4104,0
69430934,4216,0,0.20348017,-0.6888866,-9.926153,-0.043447353,-0.00782619,-0.024837244,42.25,78.0,0.0023928226,1114658,1799,-3300,-5683,0
69530668,4153,0,-0.20597462,-0.83478475,-9.747827,-0.030544331,0.00090277987,-0.029049616,42.25,78.0,0.0023928226,1114658,1236,-2020,-6250,7290
69631470,4125,0,-1.4120891,0.2110134,-9.807587,-0.012788011,0.017039942,-0.04412647,42.375,78.0,0.0023928226,1114658,719,4855,-1806,2049
69735418,4139,0,1.2314391,1.3015411,-9.64322,0.026477018,-0.0104308985,-0.027978174,42.375,78.0,0.0023928226,1114658,665,-3293,-692,9976
69836218,4126,0,1.2172524,1.3018073,-10.111004,0.01468277,-0.01686093,-0.018590886,42.375,78.0,0.0023928226,1114658,737,-3090,806,9964
69942268,5250,0,-1.24434,-1.0301555,-9.437857,-0.006245473,-0.0053485907,-0.07959632,42.375,78.0,0.0023928226,1114658,1456,3894,-9980,0
70043068,4200,0,-0.63526386,-0.69763005,-9.780087,0.019931378,0.00051522703,-0.07059104,42.25,78.0,0.0023928226,1114658,1231,1683,-8807,0
70145980,4199,0,0.7639787,0.7256244,-10.372014,0.0220297,-0.0032263803,-0.04647875,42.25,78.0,0.0023928226,1114658,-1305,-1888,1399,8193
70246775,4182,0,0.63508654,1.5113547,-10.21963,0.0102856215,-0.013269103,-0.052259803,42.25,78.0,0.0023928226,1114658,525,-2226,599,2048
70346561,5294,0,0.36787447,1.1439269,-10.689302,0.02910243,-0.006709359,-0.071122825,42.25,78.0,0.0023928226,1114658,3489,1094,-2160,9975
70447346,4187,0,1.4194285,-0.7410151,-11.113519,-0.0023052413,-0.0063167186,-0.040558264,42.25,78.0,0.0023928226,1114658,1832,-3586,-633,9982
70551347,5329,0,-0.6097651,-0.27172095,-9.375684,-0.032800607,0.013998175,-0.028671095,42.25,78.0,0.0023928226,1114658,1599,-1284,-4968,9977
70654168,4187,0,-1.1425328,1.4751476,-9.030768,0.017407263,0.014447699,-0.055598103,42.5,78.0,0.0023928226,1114658,-158,4910,-6050,9968
70756068,5300,0,-0.060784202,1.7700398,-10.39421,0.03562435,-0.004316426,-0.06756764,42.5,78.0,0.0023928226,1114658,2596,4803,-2808,7304
70856868,4251,0,0.7309393,0.053977687,-10.044116,0.038012754,-0.01626877,-0.046964742,42.25,78.0,0.0023928226,1114658,2001,650,-4966,7300
70957644,4227,0,0.64569277,-0.7745349,-10.274952,0.03044946,-0.011277572,-0.07037124,42.375,78.0,0.0023928226,1114658,668,919,-4060,16937
71061594,4226,0,1.4774823,-0.3453357,-11.471363,0.016179787,0.001149776,-0.025735915,42.25,78.0,0.0023928226,1114658,-166,-2908,1233,2048
71166573,4206,0,0.6643568,1.1151901,-9.019188,-0.03513319,0.0050882986,-0.043810762,42.375,78.0,0.0023928226,1114658,-1706,-1398,-3985,7301
71268419,5252,0,-0.13030244,0.9357679,-9.9446125,-0.05685351,-0.0005266655,-0.040750947,42.375,78.0,0.0023928226,1114658,-119,-1966,-1301,9989
71369224,4183,0,-0.13530448,-1.0585624,-9.73107,-0.03917654,-0.013569662,-0.022874696,42.5,78.0,0.0023928226,1114658,185,-1231,-4563,9988
71470018,4157,0,0.9240612,-1.6216199,-9.817312,-0.026914509,-0.006741317,-0.03740953,42.375,78.0,0.0023928226,1114658,-323,-4622,-5222,0
71573968,4143,0,-2.0542507,-0.06613169,-9.795497,-0.042002693,0.013172285,-0.019162362,42.375,78.0,0.0023928226,1114658,-1396,2030,-2100,0
71672668,4200,0,0.9614751,0.12947863,-9.68593,-0.0027065026,-0.0047485568,-0.014025017,42.375,78.0,0.0023928226,1114658,315,-3787,-1434,9996
71774523,5256,0,0.7534311,1.6625414,-9.277641,0.027411029,0.00033815307,-0.045322865,42.375,78.0,0.0023928226,1114658,584,-1678,-2989,9997
71875360,4202,0,0.615713,1.311835,-9.705713,0.028303064,-2.6271417e-05,-0.06464512,42.375,78.0,0.0023928226,1114658,429,2614,-2355,9993
71980318,4200,0,0.86319876,-1.2131337,-9.71708,0.036199316,-0.0096346345,-0.04466496,42.375,78.0,0.0023928226,1114658,1840,-382,-4726,7312
72080151,4283,0,-1.2135494,-1.3325357,-9.1270075,0.006477274,-0.0037203373,-0.040241737,42.375,78.0,0.0023928226,1114658,-214,5282,-6725,7308
72183006,4239,0,-2.393227,0.82597375,-9.69145,-0.008288863,0.014254854,-0.03959262,42.5,78.0,0.0023928226,1114658,133,4895,-3722,0
72284868,4239,0,-1.082899,1.5944262,-9.006684,-0.028631622,0.011462127,-0.028206376,42.375,78.0,0.0023928226,1114658,-150,3500,-4400,7296
72385705,4287,0,0.40420017,1.8639325,-9.367256,-0.03822859,0.005958507,-0.049049653,42.375,78.0,0.0023928226,1114658,832,-4814,-5125,7301
72486468,4251,0,1.2835989,1.1562845,-10.624524,-0.012690488,-0.010351491,-0.03177884,42.375,78.0,0.0023928226,1114658,1338,-4778,-1649,7297
72588271,5254,0,1.8027897,-1.2152731,-10.057817,0.014642984,-0.009291461,-0.041397113,42.375,78.0,0.0023928226,1114658,735,-3520,-3109,10013
72689068,4091,0,0.39494443,-1.6046296,-9.861348,0.025760807,-0.0057550436,-0.05368322,42.5,78.0,0.0023928226,1114658,5,-542,-5557,10022
73603618,4201,0,-1.1213304,0.5566087,-8.961633,0.0041798204,-0.0138588855,-0.024569912,42.375,78.0,0.0023928226,1114658,208,4543,-6304,10022
73707569,4168,0,-0.12722656,-1.3031571,-9.266299,0.023783553,-0.0028930265,-0.053569544,42.375,78.0,0.0023928226,1114658,-1578,2199,-4832,16937
73808367,4170,0,-1.7236282,-0.74191964,-8.956596,0.022896132,-0.0005396246,-0.03900109,42.375,78.0,0.0023928226,1114658,508,5271,-6196,8192
73909168,4153,0,-0.88367057,1.0978746,-8.832254,0.033262424,0.0046238136,-0.041184474,42.375,78.0,0.0023928226,1114658,1316,3983,-4523,0
74011018,5205,0,0.42052457,1.6876925,-9.047011,0.034782965,-0.0005701855,-0.049100313,42.375,78.0,0.0023928226,1114658,929,2586,-3574,10042
74116045,4206,0,1.2330544,-0.23308732,-11.041163,-0.011785316,-0.0060689454,-0.055907987,42.375,78.0,0.0023928226,1114658,845,-3107,763,2049
74219988,4221,0,-1.3488462,-1.590863,-9.992164,0.0005387979,-0.0004575873,-0.03609334,42.5,78.0,0.0023928226,1114658,-545,2233,-4720,0
74320807,4231,0,0.24480538,-0.37454495,-10.517962,0.010363798,0.009333347,-0.050971292,42.25,78.0,0.0023928226,1114658,-1667,-3051,-3455,0
74421572,4193,0,-0.23255129,1.1407872,-10.349869,-0.03688492,0.018436665,-0.028690632,42.5,78.0,0.0023928226,1114658,-20,-2261,-2442,10035
74523418,5231,0,-1.3974766,1.8312579,-9.610203,-0.00680988,0.009143594,-0.042712804,42.375,78.0,0.0023928226,1114658,1031,5183,-4575,10030
74624218,4150,0,0.3331041,0.6779663,-10.414744,0.025908723,-0.012249184,-0.048519496,42.5,78.0,0.0023928226,1114658,1876,1609,-2274,8192
74729217,4199,0,-0.22656894,-1.3205295,-10.614785,-0.04429566,0.0056700287,-0.056777142,42.375,78.0,0.0023928226,1114658,-1548,-526,347,0
74831067,4199,0,-1.5895926,0.6075507,-9.9500475,-0.006246761,0.006502181,-0.038601153,42.5,78.0,0.0023928226,1114658,909,3176,-3067,0
74932929,5262,0,-0.5006825,1.259353,-9.539381,0.030534502,0.0045893393,-0.049204472,42.5,78.0,0.0023928226,1114658,-495,4288,-889,0
75033799,4282,0,0.5521734,0.7526436,-10.354483,0.023641817,-0.009302477,-0.045274846,42.375,78.0,0.0023928226,1114658,2251,-291,-630,10044
75134599,4282,0,1.2041034,-0.37218803,-10.721874,-0.0072819944,-0.02051805,-0.029952688,42.5,78.0,0.0023928226,1114658,611,-4993,-1701,0
75234282,5244,0,0.9523086,-1.1882205,-11.262642,-0.010720345,-0.011644463,-0.042009167,42.375,78.0,0.0023928226,1114658,72,-4223,644,8192
75338236,4219,0,-1.0595211,0.6613991,-9.628655,0.03826176,0.014374456,-0.038334705,42.5,78.0,0.0023928226,1114658,1258,4904,-4343,8192
75437968,4195,0,0.9474717,1.5073138,-9.684535,0.029285138,0.0024109795,-0.031856276,42.5,78.0,0.0023928226,1114658,1734,-2215,-2856,8193
75542968,4186,0,-0.708909,0.87864685,-8.879335,0.007264905,-0.0014773257,-0.052391645,42.5,78.0,0.0023928226,1114658,97,3828,-8750,8193
75642718,4132,0,-2.2988482,-0.49261102,-9.173012,0.0054647936,-0.014802398,-0.045879222,42.5,78.0,0.0023928226,1114658,598,5969,-4415,2048
75743519,4137,0,0.86400336,-0.976522,-10.572498,0.0370104,-0.019983124,-0.034650438,42.375,78.0,0.0023928226,1114658,1615,-1384,-2192,2048
75844318,4172,0,-0.14206183,-1.2304926,-10.530941,-0.01757804,-0.0046636267,-0.033001084,42.5,78.0,0.0023928226,1114658,49,-4254,-1126,8193
75946167,4199,0,-1.0847868,0.8070568,-9.830057,0.0016385859,0.013186895,-0.04640657,42.5,78.0,0.0023928226,1114658,596,3954,-1850,0
76049067,4120,0,1.4057516,1.094557,-10.498491,-0.0053005316,-0.020104444,-0.021335261,42.375,78.0,0.0023928226,1114658,1941,-4202,1239,10055
76150917,5226,0,0.44523507,-0.0133275455,-9.912161,-0.033944663,0.0045057707,-0.041287698,42.5,78.0,0.0023928226,1114658,2691,-2828,-3749,0
76251733,4215,0,-0.7744299,-0.6406533,-9.737419,-0.013065006,0.01745203,-0.057495236,42.5,78.0,0.0023928226,1114658,776,3370,-7031,0
76352518,4200,0,-0.978656,0.26421887,-9.859262,0.02763997,0.0014107481,-0.060507774,42.5,78.0,0.0023928226,1114658,-175,4271,-5449,2048
76453318,4155,0,0.54012495,0.7512526,-9.779403,0.019430239,0.00015987192,-0.030826971,42.5,78.0,0.0023928226,1114658,115,-2375,-208,0
76557268,4171,0,-1.0205623,1.0813124,-9.083189,-0.007906558,0.0017384728,-0.066933826,42.5,78.0,0.0023928226,1114658,-38,5238,-6496,7352
76658074,4175,0,-0.4378613,-0.1798483,-9.751432,0.033403028,-0.01159788,-0.052665938,42.625,78.0,0.0023928226,1114658,2600,4018,-3181,0
76764138,4220,0,-0.70763916,0.36734077,-9.462981,-0.017010238,0.015103211,-0.053326093,42.625,78.0,0.0023928226,1114658,-694,1933,-4884,7342
76862832,4199,0,-0.515694,0.5780803,-8.4069605,-0.0030697647,0.012166866,-0.02240414,42.5,78.0,0.0023928226,1114658,-559,1621,-7902,8192
76968939,4271,0,0.017504029,-0.11407507,-10.562043,-0.03267656,-0.009752234,-0.03619292,42.5,78.0,0.0023928226,1114658,1312,-1317,-933,10074
77069741,4267,0,-0.38701054,-0.92981344,-10.328829,-0.010747274,-0.004529418,-0.01864869,42.5,78.0,0.0023928226,1114658,1460,2403,-1998,10076
77170524,4244,0,-1.272666,-1.1475397,-10.421358,0.028143495,-0.0026620415,-0.03161881,42.5,78.0,0.0023928226,1114658,894,6437,-2076,10073
77270239,4222,0,0.25576353,0.18339008,-10.094484,0.036991056,0.0011467134,-0.03159148,42.5,78.0,0.0023928226,1114658,1142,-491,-3826,0
77371032,4215,0,0.74220127,1.0533147,-10.0748,0.035582386,-0.00091942464,-0.025789263,42.5,78.0,0.0023928226,1114658,-170,-1963,829,7341
77471847,4230,0,1.5394683,1.128733,-9.447117,-0.00979218,-0.010688154,-0.01965892,42.5,78.0,0.0023928226,1114658,707,-5019,-1864,10084
77573739,5321,0,1.2585164,-0.06593155,-9.219539,-0.03130464,-0.004449753,-0.03209545,42.5,78.0,0.0023928226,1114658,-345,-4470,-4468,10080
77674539,4272,0,0.46636832,-1.433721,-10.098881,-0.032580413,0.000702103,-0.04475586,42.5,78.0,0.0023928226,1114658,36,-3389,-4415,10073
77779468,4153,0,-1.1190212,-0.34988782,-9.620636,0.016083125,0.0048233652,-0.02733622,42.5,78.0,0.0023928226,1114658,-768,3751,-4002,8193
77881320,5152,0,-1.0294138,1.1610581,-8.781788,0.032772023,0.014889033,-0.058326688,42.375,78.0,0.0023928226,1114658,-805,5256,-5824,10084
77978969,6301,0,0.34250146,1.2475117,-9.101151,-0.03179713,0.012626984,-0.0467313,42.5,78.0,0.0023928226,1114658,723,854,-4891,8193
78080890,4272,0,-0.63291156,1.3651959,-9.563687,-0.031438462,0.0006805622,-0.05773179,42.375,78.0,0.0023928226,1114658,2232,1509,-5278,7348
78185818,4150,0,0.37305582,-1.0721059,-10.1065855,0.021779435,-0.012411683,-0.049726523,42.625,78.0,0.0023928226,1114658,379,1488,-2157,10074
78283468,4120,0,-1.3185549,-1.6330233,-9.491121,-0.01484742,0.0009909557,-0.03050002,42.375,78.0,0.0023928226,1114658,-268,5155,-5357,10098
78386380,4212,0,-1.7613338,0.341709,-9.852242,-0.0032973343,0.011089563,-0.034891326,42.625,78.0,0.0023928226,1114658,-152,5249,-1600,0
78487216,4244,0,-0.93673384,1.1029059,-8.880081,-0.014711346,0.0046925885,-0.013855257,42.375,78.0,0.0023928226,1114658,-1271,3184,-4499,2049
78587979,4212,0,-0.63192236,1.5267202,-9.112408,-0.025797967,0.0037756865,-0.03487291,42.625,78.0,0.0023928226,1114658,1482,654,-5110,0
78694018,4153,0,0.56860983,-0.8824557,-9.741173,0.03484813,-0.011760358,-0.04891744,42.5,78.0,0.0023928226,1114658,1680,1085,-7311,10106
78797968,5251,0,-0.14169303,-1.2362151,-10.49379,0.0075757694,-0.0022330226,-0.06429265,42.5,78.0,0.0023928226,1114658,420,-2894,-1626,8193
78898768,4171,0,0.8915504,-0.27615458,-9.428093,0.014072287,-0.0042111413,-0.023354065,42.5,78.0,0.0023928226,1114658,-719,-3532,-2626,7353
78999591,4201,0,1.2512261,1.4909097,-9.052111,0.003182339,0.0016056764,-0.026926814,42.625,78.0,0.0023928226,1114658,-536,-4402,-4380,10109
79099340,5272,0,0.83991164,1.4478163,-9.594148,0.019073112,0.0019780432,-0.06631472,42.5,78.0,0.0023928226,1114658,151,-2506,-3653,10105
79200187,4232,0,1.6494851,0.876628,-10.760537,0.009342534,-0.0075949407,-0.052732185,42.625,78.0,0.0023928226,1114658,1664,-4671,147,10104
79305127,4175,0,0.0564126,-1.4074476,-9.407436,-0.047576502,0.00035464077,-0.019910352,42.5,78.0,0.0023928226,1114658,89,-2998,-4248,0
79406968,5196,0,-1.0909382,-0.10050913,-9.41109,-0.037099987,0.0141090425,-0.045650657,42.625,78.0,0.0023928226,1114658,-2092,223,-6176,8193
79507800,4232,0,-0.4390039,0.36766303,-8.939891,-0.028669277,0.00845282,-0.04053043,42.625,78.0,0.0023928226,1114658,-2707,-1303,-7135,16938
79608579,4211,0,0.6252262,1.2137647,-9.183536,-0.027845467,0.009828385,-0.034198333,42.5,78.0,0.0023928226,1114658,-234,-3484,-3925,8192
79711468,4109,0,-1.5365663,0.4239852,-9.6173115,-0.036067057,0.0017589612,-0.018272018,42.625,78.0,0.0023928226,1114658,771,1091,-3557,2048
79811268,4217,0,1.2607908,-1.0923238,-10.425041,-0.05173973,-0.015220358,-0.014456898,42.5,78.0,0.0023928226,1114658,-4,-5640,-3012,7357
79912067,4251,0,0.4064121,-1.4285556,-9.460772,-0.026453614,-0.0067254747,-0.019631138,42.5,78.0,0.0023928226,1114658,-493,-4491,-3809,7347
80010718,4153,0,-0.23549068,-1.2447144,-9.5694,0.038041025,-0.0034377568,-0.034033,42.5,78.0,0.0023928226,1114658,-78,2785,-2201,10110
80116781,4214,0,0.6085874,1.2931879,-8.448419,0.046497796,0.0053236852,-0.05285385,42.625,78.0,0.0023928226,1114658,146,346,-6611,8193
80215468,4153,0,0.4262457,0.59010845,-8.828309,-0.047502693,0.0027572294,-0.0176214,42.5,78.0,0.0023928226,1114658,-911,-4067,-2930,10114
80317318,5172,0,1.3427343,0.5274729,-9.890577,0.027277939,-0.01682202,-0.02996539,42.5,78.0,0.0023928226,1114658,2588,-2456,-1873,8192
80418160,4242,0,-0.9446587,-0.9194643,-9.2499075,0.03476434,-0.008505875,-0.03675884,42.75,78.0,0.0023928226,1114658,1912,5094,-7301,8192
80523159,4241,0,-1.2866868,-0.13150279,-10.238916,0.040461533,0.00035023232,-0.061583478,42.5,78.0,0.0023928226,1114658,1509,4946,-1253,0
80624999,5281,0,-1.5183007,1.4464011,-9.404309,0.00449397,0.0122072315,-0.03982977,42.625,78.0,0.0023928226,1114658,119,5074,-4220,0
80725806,4233,0,0.029848333,1.2181172,-8.862039,-0.024773361,0.009002825,-0.036317658,42.5,78.0,0.0023928226,1114658,238,1434,-5610,0
80827617,4199,0,0.76780844,0.67991626,-10.58737,-0.02413921,-0.0042461865,-0.044990174,42.625,78.0,0.0023928226,1114658,1443,-5314,-1484,16938
80928417,4199,0,0.9140415,-0.57512826,-10.516574,0.037170146,-0.015509278,-0.03224992,42.5,78.0,0.0023928226,1114658,2512,117,-2860,10124
81031339,4176,0,-0.4928588,-1.4642937,-9.610081,0.024658859,-0.0021287182,-0.053310703,42.625,78.0,0.0023928226,1114658,26,1126,-4114,10124
81128968,4186,0,-1.778517,-0.5653399,-8.529053,-0.026898138,0.012298995,-0.03742585,42.625,78.0,0.0023928226,1114658,-470,3198,-5171,7373
81231868,4164,0,-1.108133,1.3702939,-9.634664,-0.029558614,0.01719848,-0.03766185,42.625,78.0,0.0023928226,1114658,1240,1399,-2078,2048
81335818,5244,0,-1.3130264,1.0089617,-8.927724,-0.028942283,-0.009388098,-0.019581305,42.625,78.0,0.0023928226,1114658,1782,3006,-1247,2048
81440884,4266,0,-0.69393784,-1.5238148,-9.779176,0.03440365,-0.009108796,-0.05988614,42.625,78.0,0.0023928226,1114658,158,4000,-6344,7381
81540568,5169,0,-1.5637952,-1.4006842,-9.571335,-0.029259402,0.010411423,-0.06277182,42.625,78.0,0.0023928226,1114658,-567,2983,-6082,7388
81641368,4191,0,-1.3581046,0.5346615,-9.66163,-0.009682881,0.023266787,-0.058686353,42.625,78.0,0.0023928226,1114658,-6,4232,-4975,8192
81740115,4247,0,-1.114392,0.100283585,-8.869123,-0.036010418,0.018953577,-0.05197218,42.625,78.0,0.0023928226,1114658,-1324,146,-7539,7396
81842967,4199,0,-0.7980813,1.4179846,-9.225103,0.0077473414,0.005018116,-0.08208539,42.625,78.0,0.0023928226,1114658,-582,5255,-6521,8193
81944921,4304,0,0.11667223,0.25523707,-9.774053,0.044313006,-0.0060197497,-0.08184478,42.625,78.0,0.0023928226,1114658,1840,3493,-7751,0
82045674,4248,0,0.50675637,-1.3203026,-10.412896,0.035277236,-0.006851895,-0.07000897,42.625,78.0,0.0023928226,1114658,1041,-605,-4282,7391
82147472,4134,0,0.60954875,-1.180277,-10.519734,-0.0026462465,0.0031129408,-0.056704205,42.75,78.0,0.0023928226,1114658,-1022,-2951,-3542,16939
82252468,4199,0,-0.79872125,1.2821628,-9.649359,0.011483292,0.008211786,-0.022301873,42.625,78.0,0.0023928226,1114658,-915,4663,-2203,0
82350159,4232,0,-0.40784678,1.2700455,-9.435456,-0.0013872908,0.00043823948,-0.043098245,42.625,78.0,0.0023928226,1114658,665,2739,-3375,0
82455158,4240,0,1.563636,-0.4302663,-10.522404,0.022184817,-0.00914436,-0.041498575,42.625,78.0,0.0023928226,1114658,115,-3736,-1138,0
82556978,4210,0,-0.18353564,-0.9959216,-10.66167,-0.03403542,0.002069655,-0.024293877,42.625,78.0,0.0023928226,1114658,-595,-1076,-677,0
82657806,4238,0,-0.6933513,-0.080922395,-9.664051,-0.036145493,0.0028385792,-0.017722107,42.625,78.0,0.0023928226,1114658,-601,674,-2310,0
82759619,4201,0,-0.26880798,0.8417135,-9.180229,0.026932785,-1.3200794e-05,-0.027196107,42.75,78.0,0.0023928226,1114658,-1419,3319,-2429,10147
82858317,4158,0,-0.06721103,1.3954701,-9.777436,0.02112637,-0.0017275064,-0.052127697,42.75,78.0,0.0023928226,1114658,773,1447,-3548,2049
82960209,4241,0,0.9825161,0.08607287,-10.639274,-0.005657155,-0.007915611,-0.044729847,42.75,78.0,0.0023928226,1114658,201,-3346,-61,0
83063068,4195,0,-0.6859926,-1.5281987,-10.018885,0.012212894,-0.005312328,-0.027479015,42.75,78.0,0.0023928226,1114658,177,4117,-4216,10143
83163868,4178,0,-0.16541876,-0.9872552,-10.443011,0.016912822,-0.0023150356,-0.033542465,42.75,78.0,0.0023928226,1114658,-443,-14,-2379,10146
83265753,4235,0,0.19256611,0.68446153,-9.38917,-0.032500718,0.0053595873,-0.0065138503,42.75,78.0,0.0023928226,1114658,-572,-2276,-655,10152
83366539,5223,0,-1.303831,1.4162755,-9.930016,-0.006321845,0.014470167,-0.051979482,42.75,78.0,0.0023928226,1114658,645,4882,-2605,10150
83472568,4200,0,-0.19947906,-1.2958794,-10.233641,-0.030549634,-0.01270899,-0.024772184,42.75,78.0,0.0023928226,1114658,12,757,-1265,10139
83573368,4200,0,-0.8902646,-1.5151998,-10.177886,-0.00071912847,-0.0082861725,-0.02159102,42.625,78.0,0.0023928226,1114658,-359,3912,-3753,8193
83674168,4200,0,0.39251408,-0.1280242,-10.5470495,0.019854158,0.0050826026,-0.031522155,42.625,78.0,0.0023928226,1114658,-14,-806,-2082,8193
83776049,4232,0,0.13148059,1.0812076,-10.274846,-0.032105755,0.00825986,-0.020015003,42.625,78.0,0.0023928226,1114658,230,-1871,1268,10159
83876910,4293,0,-0.73714364,1.5044917,-9.743922,-0.009822965,0.0037303832,-0.052132763,42.75,78.0,0.0023928226,1114658,299,4441,-3515,7410
83978668,4129,0,0.871307,0.27363983,-10.720695,0.021742694,-0.01074923,-0.057864554,42.625,78.0,0.0023928226,1114658,2667,-2136,-1951,7400
84079469,4123,0,0.904333,-0.61548585,-10.537837,-0.034371115,-0.0030548691,-0.046637293,42.75,78.0,0.0023928226,1114658,-171,-4758,-2355,10158
84181318,4197,0,-0.9734043,-0.1693005,-9.408711,-0.0039309785,0.006805357,-0.049565695,42.625,78.0,0.0023928226,1114658,-656,4380,-5009,2048
84282159,4226,0,-0.588821,0.7412584,-8.6234865,0.032934614,-0.0006221247,-0.056981143,42.75,78.0,0.0023928226,1114658,-681,4641,-6207,10149
84383970,5222,0,0.5805174,1.1786894,-8.974074,0.02251986,-0.0032054412,-0.05454603,42.75,78.0,0.0023928226,1114658,588,-1744,-5458,2049
85196707,5289,0,-0.22994621,-0.163355,-9.762408,-0.03668357,0.011941251,-0.024805889,42.625,78.0,0.0023928226,1114658,126,-1973,-2431,10170
85297488,4221,0,-0.7535067,1.1322068,-9.207739,-0.03748207,0.011474604,-0.00942743,42.625,78.0,0.0023928226,1114658,1148,739,-3802,0
85401465,5290,0,0.052329063,1.4218223,-9.359742,0.03640112,-0.0075106057,-0.035966825,42.75,78.0,0.0023928226,1114658,1144,3227,-1945,8192
85502217,4200,0,1.0733199,-0.2568057,-10.388694,0.011551308,-0.017458875,-0.040638387,42.75,78.0,0.0023928226,1114658,795,-2629,-3169,0
85600946,4193,0,0.2687729,-0.25124228,-9.794505,0.031506628,-0.0021097132,-0.062336426,42.625,78.0,0.0023928226,1114658,2168,-208,-4735,10175
85706968,4200,0,-0.2799566,0.3884344,-10.253399,0.017580118,0.0110585755,-0.028049288,42.75,78.0,0.0023928226,1114658,-380,2380,-2205,8193
85804617,5219,0,-0.48560095,0.6589665,-10.285838,0.029005064,0.021150082,-0.07496533,42.625,78.0,0.0023928226,1114658,296,2791,-3444,0
85909645,4228,0,-0.6994142,1.7026764,-9.606398,-0.010931243,-0.0027917493,-0.037608106,42.625,78.0,0.0023928226,1114658,397,4115,-7347,0
86010496,4279,0,0.21394579,1.3728184,-9.803106,0.03811688,-0.00606378,-0.04207744,42.875,78.0,0.0023928226,1114658,2618,1434,-4433,7416
86110167,4195,0,2.2089844,-0.5556638,-10.299802,0.0031085245,-0.018537588,-0.030496536,42.75,78.0,0.0023928226,1114658,995,-4099,-2836,8192
86210968,4200,0,-0.21166274,-0.7805964,-10.362892,-0.043102734,-0.0067802337,-0.013077318,42.75,78.0,0.0023928226,1114658,1860,1380,-4117,8193
86317018,5250,0,-0.51233464,-0.41459513,-9.12545,-0.010493559,0.0037745724,-0.030056689,42.75,78.0,0.0023928226,1114658,-1466,-2001,-1072,10188
86417818,4144,0,-0.5336297,1.3589276,-9.310381,-0.024019478,-0.0012392584,-0.018844841,42.75,78.0,0.0023928226,1114658,1270,355,29,10187
86521814,5296,0,0.93812805,0.13652176,-10.289296,0.02859337,-0.0063681197,-0.07243851,42.75,78.0,0.0023928226,1114658,795,4373,-3161,10188
86622609,4242,0,0.86909306,-1.137873,-9.352086,0.025062807,-0.010643958,-0.038889833,42.75,78.0,0.0023928226,1114658,1430,-1561,-5043,10183
86724418,4191,0,0.5135249,-0.4928605,-9.70426,-0.016847685,0.0022834875,-0.020249728,42.75,78.0,0.0023928226,1114658,-796,-4463,-2400,10191
86825218,4200,0,-1.2719108,0.7790319,-9.573282,-0.020351952,0.0056923977,-0.045685645,42.75,78.0,0.0023928226,1114658,-84,3056,-2760,8192
86926018,4200,0,-0.15822719,0.9825126,-9.352536,0.03106796,-0.00044158055,-0.06834892,42.625,78.0,0.0023928226,1114658,-787,3208,-5552,10192
87029981,4203,0,0.33547154,-0.5422249,-10.298961,-0.027435087,0.0105532,-0.048906747,42.625,78.0,0.0023928226,1114658,867,231,-1742,0
87130794,4213,0,-1.1335773,-1.1356212,-9.505307,0.01434977,0.0032538506,-0.04774311,42.875,78.0,0.0023928226,1114658,-117,4363,-7158,0
87234723,4202,0,0.5350706,-0.08588752,-10.055017,-0.0069610937,0.008340964,-0.053364713,42.875,78.0,0.0023928226,1114658,-1195,-2531,-3401,10191
87334515,5297,0,-0.20986111,0.6693002,-8.720301,-0.038022995,0.0050772736,-0.036412574,42.75,78.0,0.0023928226,1114658,-346,-1722,-5391,10197
87439468,4153,0,1.1873213,-0.07058221,-9.801323,0.031173553,-0.0071471273,-0.05457727,42.75,78.0,0.0023928226,1114658,498,-883,-6131,10191
87540268,4093,0,-0.19784045,-0.65578127,-9.905762,-0.03417917,-0.0056894505,-0.025454102,42.75,78.0,0.0023928226,1114658,1946,-2088,-3350,10201
87642162,5247,0,0.17530568,-0.93964744,-9.41376,0.015190039,-0.0022976173,-0.030135227,42.75,78.0,0.0023928226,1114658,1195,4346,-3419,8192
87740868,4250,0,-0.2550882,0.3450567,-9.491173,0.022380156,0.0045373123,-0.065766536,42.75,78.0,0.0023928226,1114658,-857,3062,-2788,7431
87843718,4201,0,0.15561035,1.0841014,-9.717678,-0.022713976,0.00723684,-0.04928972,42.875,78.0,0.0023928226,1114658,-2155,-2173,-3533,0
87944533,4216,0,-0.7273684,0.98142475,-9.281696,-0.008015571,0.00024343043,-0.021890389,42.75,78.0,0.0023928226,1114658,-87,3008,-1094,2048
88048468,4200,0,0.07059622,-0.93485814,-10.255315,0.01512068,-0.004504619,-0.034856573,42.75,78.0,0.0023928226,1114658,1856,-1739,-4182,8193
88149267,4199,0,0.54524755,-0.6160806,-10.495984,-0.044342883,0.0019908994,-0.013532733,42.75,78.0,0.0023928226,1114658,558,-4583,-894,0
88251196,5328,0,-1.2550393,0.5004897,-9.708265,0.012302621,0.011814553,-0.06013302,42.625,78.0,0.0023928226,1114658,-312,4766,-2611,0
88351917,4199,0,1.0064529,1.1100503,-10.00837,0.02298967,0.010838856,-0.064767696,42.875,78.0,0.0023928226,1114658,1216,-2418,-3252,10205
88452717,4190,0,0.35266513,0.34448314,-9.714795,-0.01664825,0.0033091935,-0.041919563,42.75,78.0,0.0023928226,1114658,-1219,-4075,-4477,10193
88553518,4175,0,-0.04472362,-0.6707481,-9.807251,-0.025272645,-0.00046954403,-0.005385042,42.875,78.0,0.0023928226,1114658,1295,-644,-2896,0
88655418,4251,0,-0.73226136,-1.2526581,-10.408599,0.023393525,-0.005396302,-0.03230336,42.75,78.0,0.0023928226,1114658,361,4708,-1970,10212
88757218,5250,0,0.24171863,-0.6616541,-10.615228,0.010661882,0.00084186846,-0.052130453,42.875,78.0,0.0023928226,1114658,286,-3320,-1464,10200
88858018,4200,0,-0.12307903,1.1930391,-10.276987,-0.02502022,0.0065724566,-0.054809127,42.75,78.0,0.0023928226,1114658,-664,-540,512,7451
88958818,4196,0,-1.0969356,0.71312755,-8.947163,0.006827617,0.0021130762,-0.04536369,42.75,78.0,0.0023928226,1114658,-470,5195,-7060,10212
89059618,4200,0,0.3402245,-0.06443312,-10.027621,0.033941027,-0.0050716456,-0.031078408,42.75,78.0,0.0023928226,1114658,2454,231,-4079,10206
89165763,4295,0,-0.94376034,-0.12647521,-8.545651,0.01914615,0.006691697,-0.033462137,42.75,78.0,0.0023928226,1114658,-1017,5427,-6958,10208
89265419,4201,0,0.23376414,1.3308963,-9.894687,0.038005922,0.0054557137,-0.045789637,42.75,78.0,0.0023928226,1114658,2344,1144,-4091,10218
89366218,4194,0,0.7993309,1.1502674,-10.032322,-0.014602498,-0.0033972836,-0.044470903,42.75,78.0,0.0023928226,1114658,-233,-3907,-2366,10216
89465989,4200,0,-0.76414096,0.7802217,-8.763543,-0.032241482,0.0050318297,-0.038395457,42.75,78.0,0.0023928226,1114658,-748,223,-8022,0
89568941,4274,0,-0.40903127,-0.433976,-9.604879,0.034914862,-0.012183702,-0.05891768,42.625,78.0,0.0023928226,1114658,-16,4342,-4920,10224
89670718,4178,0,0.95617664,-1.2597519,-10.109157,-0.0016663525,-0.013719341,-0.024487063,42.75,78.0,0.0023928226,1114658,-2325,-4369,498,2048
89773690,4273,0,-1.1772946,0.35920325,-9.14581,-0.027819673,0.018746128,-0.02462063,43.0,78.0,0.0023928226,1114658,-644,2402,-5100,7462
89875468,4150,0,-0.2614911,1.4949157,-9.941073,0.025663132,0.005515836,-0.039328337,42.875,78.0,0.0023928226,1114658,2250,2953,-3608,8193
89980468,4200,0,0.013237173,-0.37845597,-9.538099,-0.039733358,-0.0003847856,-0.005508714,42.875,78.0,0.0023928226,1114658,-210,-1528,-2816,2048
90082318,5250,0,-0.6890064,-0.7793597,-10.439051,0.014092976,-0.007169389,-0.046902105,42.875,78.0,0.0023928226,1114658,1320,5444,-1126,0
90183136,4219,0,0.40786198,-0.1948401,-10.850658,0.024243126,-0.0022543236,-0.044389583,42.875,78.0,0.0023928226,1114658,2584,-1470,949,0
90281831,4140,0,0.23278505,0.4990233,-9.932045,0.035833955,0.0015656163,-0.06320949,42.75,78.0,0.0023928226,1114658,328,466,-5124,0
90383668,4200,0,0.3593451,1.3135816,-9.112024,-0.019635022,0.0116249565,-0.014883237,42.75,78.0,0.0023928226,1114658,-467,-2209,-3963,10227
90486603,4236,0,-1.0342747,0.6667269,-8.784512,0.008611098,0.0012694881,-0.057016216,42.75,78.0,0.0023928226,1114658,-396,4885,-6424,10238
90588418,4175,0,0.10653547,-0.43288594,-10.059059,0.025199696,-0.020284299,-0.04756653,42.875,78.0,0.0023928226,1114658,3817,3047,-4118,10220
90690267,5208,0,0.043471046,-0.4543833,-10.314084,-0.015022894,-0.0070753684,-0.014196167,42.875,78.0,0.0023928226,1114658,-1094,-2235,-427,0
90791068,4200,0,-1.2921891,0.8510112,-9.507871,0.0025557133,0.0045540426,-0.034467343,42.75,78.0,0.0023928226,1114658,825,3790,-3877,10235
90889832,4265,0,-1.3241442,1.0348115,-8.544265,0.008483694,0.013955138,-0.04628974,42.875,78.0,0.0023928226,1114658,-320,4898,-5858,0
90993767,4250,0,1.0970615,-0.55518943,-9.505742,-0.012227752,-0.014298734,-0.02662864,42.875,78.0,0.0023928226,1114658,-1226,-3181,-4144,10235
91094568,4251,0,-0.58942616,-1.0288533,-9.154032,-0.029903669,-0.00080196856,-0.041324157,42.875,78.0,0.0023928226,1114658,259,-136,-7436,10240
91196372,4202,0,-0.64659435,-0.39553738,-10.543429,0.029797766,0.0015808536,-0.04236566,42.75,78.0,0.0023928226,1114658,1349,4556,-3558,8192
91302490,4273,0,-1.1513125,0.5986983,-8.661029,-0.018009422,0.008531602,-0.053773448,42.875,78.0,0.0023928226,1114658,-266,3321,-7991,7478
91403279,4252,0,-0.6585295,0.99486184,-10.384233,0.016307969,-0.015300526,-0.061455768,42.75,78.0,0.0023928226,1114658,972,4930,-1833,7487
91502975,5208,0,-0.079117715,0.16447031,-9.970383,0.041492075,-0.006388317,-0.09145918,43.0,78.0,0.0023928226,1114658,591,3356,-6467,0
91607968,4172,0,-1.1400249,-0.35478792,-9.138769,-0.038831722,0.022755023,-0.052390013,42.75,78.0,0.0023928226,1114658,71,567,-8763,8193
91707718,4200,0,-2.1894984,0.4799132,-9.370236,0.010886981,0.016242363,-0.038270056,42.75,78.0,0.0023928226,1114658,-1069,5756,-4385,0
91809578,5260,0,0.6558166,1.4657217,-10.319847,0.036290266,-0.0005002613,-0.0380398,42.875,78.0,0.0023928226,1114658,1488,-349,481,2049
91912468,4200,0,-0.07257656,0.87020314,-8.536382,-0.028029738,-0.0031826284,-0.036417536,42.875,78.0,0.0023928226,1114658,1466,-927,-7803,8193
92014317,5249,0,-0.31053883,-0.78327507,-10.037566,0.0010127269,-0.005610431,-0.05343034,43.0,78.0,0.0023928226,1114658,1067,4123,-5681,0
92117240,4222,0,0.4964427,-0.76590896,-10.153507,0.0059767356,-0.0067140516,-0.020484995,42.75,78.0,0.0023928226,1114658,-1613,-1428,-1017,8192
92216968,4201,0,-0.100662306,0.8032484,-10.062551,-0.013388683,-0.0004430015,-0.027950296,42.75,78.0,0.0023928226,1114658,1850,-3335,-2512,7504
92321968,4178,0,0.31624252,1.4771466,-9.847537,0.030200236,-0.00475255,-0.036321085,42.875,78.0,0.0023928226,1114658,35,2858,-173,8193
92423818,5250,0,1.3897038,-0.9724289,-10.318924,-0.011365953,-0.013293553,-0.03627561,42.875,78.0,0.0023928226,1114658,-1611,-3365,-557,10248
92524630,4212,0,0.04542976,-1.2189595,-9.3262415,-0.031257562,0.0010881305,-0.028309625,42.875,78.0,0.0023928226,1114658,-1584,-1974,-6817,8193
92626522,4255,0,-1.3189555,0.07594334,-9.342802,-0.018393468,0.014475616,-0.061111767,42.875,78.0,0.0023928226,1114658,-2087,3431,-6842,10232
92725168,4171,0,-0.4560843,0.57026774,-8.350912,-0.0107804295,0.00499988,-0.015960718,42.875,78.0,0.0023928226,1114658,2182,425,-5548,10250
92829163,4224,0,0.4899316,0.6615835,-8.607324,0.030193431,-0.0014077562,-0.055002972,42.75,78.0,0.0023928226,1114658,1350,2373,-7822,8192
92927818,4200,0,-1.070836,-0.11983248,-9.361845,-0.019839004,0.0049541364,-0.044757593,42.875,78.0,0.0023928226,1114658,600,2061,-6960,16939
93033868,4121,0,-0.70156115,-1.126144,-11.070935,0.028591529,0.0061951987,-0.027925298,42.875,78.0,0.0023928226,1114658,1813,2814,-2568,0
93130542,4274,0,-1.0382171,-0.68434876,-10.249696,-0.028790498,0.0063494523,-0.03808289,43.0,78.0,0.0023928226,1114658,1214,552,-2740,7517
93234468,4251,0,-1.4352199,1.6431277,-9.478942,0.008492154,0.0128623815,-0.05475855,42.75,78.0,0.0023928226,1114658,1818,6549,-5461,7512
93335244,4227,0,-0.10095128,1.4480661,-9.500556,0.018963667,0.02078326,-0.07749117,42.75,78.0,0.0023928226,1114658,1466,2923,-6598,2048
93436090,4273,0,-0.50922483,0.4567195,-9.576785,0.020830514,-0.0094349515,-0.035479613,42.875,78.0,0.0023928226,1114658,1928,3310,-7548,7515
93537898,4164,0,-0.7348856,-1.0161933,-9.809772,0.0217628,-0.0061070253,-0.038137272,43.0,78.0,0.0023928226,1114658,-12,4658,-1806,8193
93639717,5138,0,1.1231375,-0.99849236,-10.556606,0.031222228,0.0060299463,-0.08156815,42.875,78.0,0.0023928226,1114658,464,148,-4083,0
93746848,4230,0,-1.9320272,1.3740422,-8.829364,-0.017942082,0.013656865,-0.059531383,42.875,78.0,0.0023928226,1114658,109,4603,-7384,0
94559518,4164,0,1.0071491,-0.8178219,-10.743063,-0.009879233,-0.0036377292,-0.036393818,42.875,78.0,0.0023928226,1114658,1971,-3800,-1129,8192
94662478,4260,0,-1.9748518,-0.5719193,-9.726943,-0.010634614,-0.00023238946,-0.03402428,42.875,78.0,0.0023928226,1114658,-233,5731,-3709,7526
94764267,4152,0,-0.45476103,1.435237,-9.949222,0.025541792,0.0057230946,-0.028557017,42.875,78.0,0.0023928226,1114658,427,2476,-899,-1
94865067,4144,0,0.47315875,1.2856419,-10.153922,0.024249028,-0.010537849,-0.026544401,42.875,78.0,0.0023928226,1114658,1057,-2072,-427,-1
94965868,4125,0,0.83545965,0.52274126,-10.766688,0.008385345,-0.0139123695,-0.026169337,42.75,78.0,0.0023928226,1114658,1742,-3676,2611,-1
95065690,4272,0,1.1862843,-0.42011696,-10.860954,0.025308268,-0.015047873,-0.043858524,43.0,78.0,0.0023928226,1114658,2718,-2746,-763,7530
95170618,4149,0,-1.1416107,-0.49924055,-9.33346,-0.035485104,0.004900731,-0.04503772,42.875,78.0,0.0023928226,1114658,-1479,2357,-3115,10281
95270368,4200,0,-0.51172185,1.0757169,-7.692786,-0.025566826,0.010566289,-0.021069393,43.0,78.0,0.0023928226,1114658,654,-156,-8314,0
95371178,4210,0,-1.3973229,1.5737629,-9.245489,-0.035274226,0.0046706465,-0.04277163,42.875,78.0,0.0023928226,1114658,-476,3190,-859,-1
95473018,4173,0,-1.1257076,1.1112323,-10.037316,0.02170556,0.0066832476,-0.042470317,42.875,78.0,0.0023928226,1114658,2745,4796,-3718,10278
95573818,4128,0,-0.60962045,0.020217357,-10.5877075,0.04637636,-0.00011471825,-0.052764848,43.0,78.0,0.0023928226,1114658,706,6359,-1454,10265
95675670,5202,0,1.2078843,-1.3671244,-10.287163,0.040781453,-0.004387859,-0.07157255,43.0,78.0,0.0023928226,1114658,1181,1997,-3124,10278
95776468,4195,0,-0.42665282,0.1898952,-10.401361,0.030305574,0.0037030354,-0.044126175,42.75,78.0,0.0023928226,1114658,1935,1180,149,8193
95880444,5247,0,0.88220274,1.3706473,-9.920847,0.0076202005,-0.008333936,-0.014943417,43.0,78.0,0.0023928226,1114658,1525,-2899,938,10279
95983365,5297,0,1.3158852,0.21151824,-9.455436,-0.01776458,-0.014931963,-0.024496637,43.0,78.0,0.0023928226,1114658,-56,-3982,-214,7532
96084185,4267,0,1.1457522,-1.479602,-9.691564,-0.0049579167,-0.006263634,-0.019627552,43.0,78.0,0.0023928226,1114658,-790,-4504,-2201,10284
96185971,4198,0,0.3906606,-1.1529408,-9.554975,-0.004303934,0.001507451,-0.034198094,43.0,78.0,0.0023928226,1114658,-719,-2928,-5606,8193
96284668,4200,0,-0.6405923,0.009099347,-9.524797,0.033672385,-0.002296222,-0.037351243,43.0,78.0,0.0023928226,1114658,-276,3011,-830,0
96386586,5318,0,0.5368766,1.6014118,-9.721642,0.038576897,0.0061832652,-0.06799605,42.875,78.0,0.0023928226,1114658,407,118,-4930,10290
96487386,4227,0,1.1736006,1.6241013,-10.558704,0.025162164,-0.0002882685,-0.06259931,42.875,78.0,0.0023928226,1114658,1379,-3755,1487,10288
96588189,4271,0,0.8910577,0.40261465,-10.949644,0.030617168,-0.018074473,-0.053457733,43.0,78.0,0.0023928226,1114658,904,-2560,1063,10294
96693197,4232,0,-0.9749649,-0.23601921,-10.80439,-0.02438897,0.006249794,-0.035280336,43.0,78.0,0.0023928226,1114658,-1752,-1065,-10141,0
96792915,4247,0,-0.2978912,-0.65794164,-9.171184,-0.023079623,0.006422905,-0.02839525,43.0,78.0,0.0023928226,1114658,-1761,620,-2619,7541
96895779,4211,0,-0.72650945,1.131476,-9.419329,0.006845795,0.0074247476,-0.072526544,43.0,78.0,0.0023928226,1114658,-1579,4157,-1986,10302
96996568,4195,0,-0.17131619,1.4393399,-9.518404,0.041443933,0.0030658704,-0.07516561,43.0,78.0,0.0023928226,1114658,746,3822,-6357,10296
97100518,4187,0,1.1180532,-0.94719577,-10.580236,-0.016867217,-0.016597463,-0.006744396,43.125,78.0,0.0023928226,1114658,-34,-3708,-152,8192
97201318,4159,0,0.6926246,-1.3148139,-10.663796,-0.037469674,0.0056965332,-0.023633411,43.0,78.0,0.0023928226,1114658,-1122,-880,-5675,10295
97303167,4200,0,-1.1624174,0.3671316,-9.464957,0.0029623467,0.0070197755,-0.05882952,43.0,78.0,0.0023928226,1114658,1818,3165,-5739,10295
97405018,5223,0,-0.25765863,1.305134,-9.759239,0.03125065,-0.001835529,-0.059214197,42.875,78.0,0.0023928226,1114658,894,995,-3992,10298
97510018,4200,0,-0.06417021,-0.26886532,-10.334043,0.009323435,-0.0019897323,-0.055188987,43.0,78.0,0.0023928226,1114658,-276,2358,-2762,0
97609830,5312,0,1.7413225,-0.6413653,-11.218041,0.008811132,-0.0057007223,-0.06779389,42.875,78.0,0.0023928226,1114658,-271,-3854,1036,0
97710598,4231,0,-0.9275855,-0.46994984,-10.3647995,-0.027148841,0.019828627,-0.048781782,43.0,78.0,0.0023928226,1114658,-955,2221,-2117,0
97811411,4233,0,-0.3795062,0.8143098,-10.29044,0.03904077,0.010512254,-0.061174247,42.875,78.0,0.0023928226,1114658,1082,1914,-4154,10306
97912210,4216,0,0.3974237,1.2415462,-9.822429,-0.0017731277,0.008350742,-0.035668038,43.0,78.0,0.0023928226,1114658,-1515,-2624,-2912,10300
98016168,4250,0,0.08628914,0.9679623,-10.171823,0.009097431,0.0082031675,-0.08681289,43.0,78.0,0.0023928226,1114658,3179,2105,-6203,8192
98116939,4221,0,-0.07564043,-0.7512491,-9.940287,0.023207795,-0.0050612665,-0.047317423,43.125,78.0,0.0023928226,1114658,-1115,2152,-3634,10302
98218768,5250,0,-0.9318081,-0.68917674,-9.3576975,-0.021045657,0.0031002723,-0.0110322265,43.125,78.0,0.0023928226,1114658,-1798,-1229,-2407,10306
98319614,4240,0,-0.09515041,1.1881969,-10.012229,-0.012200054,0.019426223,-0.055128228,43.0,78.0,0.0023928226,1114658,2238,735,-2064,10300
98420368,4201,0,-0.12453285,1.2115649,-9.326929,0.016773827,-0.012043054,-0.04813859,43.0,78.0,0.0023928226,1114658,-117,1801,-5278,8192
98521178,4210,0,-0.53801274,0.2422969,-8.9911995,-0.028961925,-0.007484828,-0.010809076,43.0,78.0,0.0023928226,1114658,-548,1309,-4317,7559
98625143,4168,0,0.2129359,-0.53402877,-10.271044,-0.021594344,-0.012158496,-0.012700269,43.125,78.0,0.0023928226,1114658,-226,-344,742,8192
98725951,4213,0,0.07102609,-0.19516431,-9.519737,0.02496592,0.004198783,-0.08110021,43.125,78.0,0.0023928226,1114658,975,1697,-8783,-1
98829886,4143,0,-1.047877,1.3396008,-8.520917,0.006875808,0.020131182,-0.036947276,43.0,78.0,0.0023928226,1114658,1330,5336,-6141,0
98930669,4129,0,0.8963542,1.2590481,-10.656767,0.00018047944,-0.017891422,-0.011718321,43.0,78.0,0.0023928226,1114658,2640,-2713,635,10311
99033567,4199,0,-0.03730123,-0.22412828,-10.869379,0.014860527,-0.009045121,-0.08131758,43.0,78.0,0.0023928226,1114658,1340,2797,-2244,8192
99135418,5251,0,-0.8003437,-0.69668657,-8.739257,-0.014165686,0.005218501,-0.03939857,43.0,78.0,0.0023928226,1114658,-1710,2120,-6186,-1
99236218,4174,0,-0.29891,1.4489462,-10.687889,0.014764639,0.009334038,-0.039149385,43.0,78.0,0.0023928226,1114658,3257,1366,893,8192
99337020,4124,0,-0.53270864,0.9504765,-8.35892,-0.020354917,0.0053131743,-0.02226441,43.125,78.0,0.0023928226,1114658,-1340,1659,-5026,10318
