timestamp,integral_dt,error_count,x,y,z,x_integral,y_integral,z_integral,temperature,range_m_s2,scaling,device_id,x_raw,y_raw,z_raw,temperature_raw
52648905,3986,0,0.5786908,-0.10743598,-9.598557,-0.0006835384,-0.0015783536,-0.03769002,62.01385,156.9064,0.0047884034,1442826,72,97,2043,9752
52752966,4061,0,0.2767308,0.44227114,-9.94651,0.0020008585,0.0014759728,-0.038694642,62.011078,156.9064,0.0047884034,1442826,-66,51,2232,9751
52856900,4007,0,-0.20486699,0.15331554,-9.528528,-0.0032468217,-0.0032435062,-0.039292507,62.01662,156.9064,0.0047884034,1442826,308,145,2079,9753
52956900,4007,0,0.57709795,0.10832582,-9.686961,0.0010683913,0.004669429,-0.03693796,62.00277,156.9064,0.0047884034,1442826,-248,255,2328,9748
53056921,4027,0,0.20147794,0.11358998,-10.387926,0.003750822,-0.00041180264,-0.038139477,61.99723,156.9064,0.0047884034,1442826,-37,-132,1711,9746
53160893,3966,0,0.48712328,0.10928598,-10.150089,0.0031591172,-0.0007116155,-0.035321377,62.0,156.9064,0.0047884034,1442826,-186,102,2077,9747
53264904,3995,0,0.31693837,0.2891858,-9.595366,-0.00010301493,0.0017641574,-0.035612337,61.98338,156.9064,0.0047884034,1442826,37,173,1813,9741
53364936,4043,0,-0.021551257,0.034860842,-9.448322,-0.00106442,-0.001405999,-0.03915616,62.03324,156.9064,0.0047884034,1442826,-92,185,2130,9759
53465693,4800,0,-0.35839626,0.15301742,-9.67854,0.003007282,0.0038766973,-0.048905402,62.00554,156.9064,0.0047884034,1442826,-69,-138,2206,9749
53566500,3988,0,0.2597219,0.61716396,-9.988271,0.00610303,0.005827472,-0.036406256,61.99723,156.9064,0.0047884034,1442826,187,-280,1795,9746
53670581,4063,0,0.084890075,0.10453921,-9.851404,-0.005071009,-0.005012307,-0.041111413,62.049862,156.9064,0.0047884034,1442826,183,79,1710,9765
53770495,4003,0,-0.5740404,-0.6017321,-9.944757,-0.00019170204,0.00044149382,-0.04004716,62.0277,156.9064,0.0047884034,1442826,-130,-89,1948,9757
53874493,3980,0,0.6645257,1.0783807,-9.578608,0.001597995,0.0055748643,-0.033884563,62.0277,156.9064,0.0047884034,1442826,223,256,2085,9757
53974493,4001,0,0.042715114,0.7230021,-9.619243,-0.0055098273,-0.0043739006,-0.042857863,62.049862,156.9064,0.0047884034,1442826,503,167,2133,9765
54074493,3999,0,-0.18911602,-0.34231308,-9.9450035,0.003412469,-0.0027398597,-0.041743677,62.05263,156.9064,0.0047884034,1442826,-37,9,2129,9766
54178533,4002,0,0.5627121,0.4547778,-9.726495,-0.0035173916,0.002967453,-0.036997452,62.011078,156.9064,0.0047884034,1442826,-107,190,1978,9751
54278505,3993,0,-0.6377287,-0.028924458,-9.611909,-0.005246614,-0.0026530195,-0.038314883,62.0277,156.9064,0.0047884034,1442826,32,40,2077,9757
54382503,4010,0,0.45569876,0.6592516,-9.803926,0.00844922,0.007344319,-0.03928417,62.03601,156.9064,0.0047884034,1442826,-199,-246,2090,9760
54483318,4026,0,0.67108864,1.0383521,-9.551917,-0.0036102468,-0.0026705617,-0.039865166,62.03601,156.9064,0.0047884034,1442826,503,347,2009,9760
54584104,4029,0,-0.5365388,-0.558195,-9.985752,-0.0044599622,-0.004343935,-0.04231636,62.01662,156.9064,0.0047884034,1442826,147,51,1998,9753
54684095,4026,0,0.20836996,0.055962965,-9.917338,0.0048039802,0.006849551,-0.034475215,62.03878,156.9064,0.0047884034,1442826,8,79,2060,9761
54784069,4000,0,-0.30513555,0.15994892,-9.6721115,-0.0008798582,-0.004436009,-0.04087035,62.03878,156.9064,0.0047884034,1442826,-107,-26,2042,9761
54888082,4013,0,0.12549312,0.40496027,-9.755437,-0.005562312,-0.00390032,-0.036252823,62.00831,156.9064,0.0047884034,1442826,205,473,2433,9750
54992069,3998,0,0.6187336,0.62060714,-9.613706,-0.008369546,-0.007686477,-0.04639022,62.03324,156.9064,0.0047884034,1442826,575,637,2164,9759
55096069,3994,0,-0.4416439,-0.31361523,-10.089659,-0.005425119,-0.007970998,-0.04419868,62.02493,156.9064,0.0047884034,1442826,-121,162,1774,9756
55196134,4029,0,0.15126282,-0.17112029,-9.970088,0.005306073,0.0053564804,-0.039408635,62.066483,156.9064,0.0047884034,1442826,-110,-452,2066,9771
55296099,3999,0,-0.6948442,0.28224078,-9.703617,-0.015072116,-0.009388014,-0.048257686,62.04432,156.9064,0.0047884034,1442826,676,-243,1910,9763
55400115,4016,0,0.029331746,0.17499761,-9.793813,0.018023128,-0.00017062773,-0.049459204,62.049862,156.9064,0.0047884034,1442826,-227,-686,2984,9765
55501752,4038,0,-1.2451794,-0.034494955,-9.379819,-0.005905136,0.0031490547,-0.041203808,62.066483,156.9064,0.0047884034,1442826,-204,-757,2271,9771
55601714,4000,0,-0.74445826,0.17493612,-10.484529,-0.007900548,-0.00011532247,-0.020063328,62.05817,156.9064,0.0047884034,1442826,430,-752,444,9768
55701714,4000,0,0.91869247,0.27390635,-9.247243,0.001541331,-0.008913466,-0.028125469,62.08033,156.9064,0.0047884034,1442826,-533,1198,3300,9776
55805714,3944,0,0.637402,0.4147211,-10.181969,0.0073401364,-0.0026372808,-0.040310405,62.07756,156.9064,0.0047884034,1442826,784,1014,1644,9775
55905693,3994,0,0.10326601,0.42617372,-9.727364,0.0019952802,0.0011106506,-0.049887687,62.03601,156.9064,0.0047884034,1442826,367,850,3827,9760
56005730,4038,0,-0.45542237,0.048847653,-10.245794,-0.0060476996,0.0007725529,-0.054827023,62.0277,156.9064,0.0047884034,1442826,-513,-338,2376,9757
56109691,4022,0,0.11630525,-0.18924803,-9.465693,-0.0052344683,0.011679046,-0.035521723,62.07479,156.9064,0.0047884034,1442826,134,-20,2235,9774
56209669,3994,0,0.05494283,0.84207666,-9.616133,-0.0014961736,0.005952845,-0.041299585,62.085873,156.9064,0.0047884034,1442826,367,275,2021,9778
56313669,4000,0,0.0794476,0.39462742,-9.762265,0.011881424,0.0005440442,-0.03506724,62.088642,156.9064,0.0047884034,1442826,626,-291,1170,9779
56413702,4033,0,-0.39577812,-0.045367952,-10.254323,-0.008995632,0.0025108159,-0.04507178,62.099724,156.9064,0.0047884034,1442826,236,-219,2574,9783
56515340,4048,0,-0.4125485,0.27286777,-9.756233,-0.010705597,0.014671127,-0.046450827,62.07479,156.9064,0.0047884034,1442826,-1084,-481,596,9774
56619300,3965,0,0.18031473,0.5169209,-10.202231,0.011127606,-0.014295962,-0.05083704,62.085873,156.9064,0.0047884034,1442826,-418,-533,1675,9778
56719293,4000,0,0.19159822,0.05679801,-9.718261,0.013031561,-0.008385087,-0.048343547,62.09695,156.9064,0.0047884034,1442826,564,-279,1852,9782
56819314,3985,0,0.6016032,-0.61517334,-10.487546,0.003502833,-0.00789543,-0.044663683,62.102493,156.9064,0.0047884034,1442826,-233,353,2294,9784
56919343,4029,0,-0.055918068,0.00898042,-9.595843,-0.0037994515,0.0044328705,-0.047511823,62.083103,156.9064,0.0047884034,1442826,504,115,930,9777
57023314,3964,0,-0.6236035,0.5770463,-8.690904,-0.0050920593,0.0033849084,-0.024586096,62.099724,156.9064,0.0047884034,1442826,-235,106,2858,9783
57123314,4000,0,-0.4361518,0.36327162,-9.95827,-0.0012915297,-0.00082588557,-0.044015747,62.069252,156.9064,0.0047884034,1442826,203,-292,3684,9772
57227321,4007,0,0.0050055445,-0.85946125,-10.49014,0.0014028219,-0.004951226,-0.040652163,62.08033,156.9064,0.0047884034,1442826,-6,28,1513,9776
57327314,4000,0,-0.8412422,-0.111159086,-9.601903,-0.018145895,0.0058989585,-0.04596452,62.127422,156.9064,0.0047884034,1442826,140,-137,1083,9793
57427320,3970,0,-0.57201266,1.7596521,-9.266925,-0.0025805698,0.011337044,-0.042445526,62.085873,156.9064,0.0047884034,1442826,26,170,2044,9778
57532893,4001,0,0.40456358,1.138892,-9.819255,0.018318426,-0.007828313,-0.046062782,62.121883,156.9064,0.0047884034,1442826,901,-189,3132,9791
57632900,3976,0,1.2770858,0.13939841,-9.952369,0.019721946,-0.0070960103,-0.032875706,62.127422,156.9064,0.0047884034,1442826,1121,1365,2401,9793
57732898,4006,0,-1.1703253,0.62594175,-10.905708,0.00010863459,-0.014846505,-0.055423442,62.141273,156.9064,0.0047884034,1442826,-142,-1334,2478,9798
57836918,4019,0,-1.3804674,1.140952,-12.013147,-0.0011530318,0.008829735,-0.0654198,62.149582,156.9064,0.0047884034,1442826,495,-1418,1156,9801
57936892,3993,0,0.8831209,0.07554082,-11.606823,0.00041767,-0.012266491,-0.042688686,62.146812,156.9064,0.0047884034,1442826,-498,1002,4743,9800
58036893,4001,0,-0.44426337,-0.27151003,-12.284109,0.0072297845,-0.002746769,-0.04936228,62.149582,156.9064,0.0047884034,1442826,-300,-1139,925,9801
58140899,3969,0,0.149123,-0.3038466,-11.579324,-0.0025447845,-0.00059748476,-0.04716313,62.116344,156.9064,0.0047884034,1442826,-278,-20,3105,9789
58240893,4000,0,-0.15332234,0.5846066,-11.210381,0.0077759014,0.012704266,-0.037317596,62.127422,156.9064,0.0047884034,1442826,-232,-815,1236,9793
58340930,4037,0,0.5087689,1.7966594,-11.522177,0.011663983,-0.0029719516,-0.04610274,62.141273,156.9064,0.0047884034,1442826,1111,192,2183,9798
58444901,4009,0,0.35899976,0.15094195,-11.62241,-0.005046673,-0.007802517,-0.05708856,62.132965,156.9064,0.0047884034,1442826,1023,849,2828,9795
58546508,3991,0,-0.046452202,-1.0275401,-10.897451,-0.012951047,-0.0044930307,-0.05766709,62.124653,156.9064,0.0047884034,1442826,-597,-116,2349,9792
58646508,4016,0,0.23575301,0.19661476,-9.455938,-0.0019813972,0.0016514945,-0.03867406,62.141273,156.9064,0.0047884034,1442826,-221,960,2733,9798
58750504,4011,0,0.26593912,0.5505209,-9.262686,0.001837002,-0.0012510685,-0.042859674,62.135735,156.9064,0.0047884034,1442826,90,72,542,9796
58850506,4009,0,0.18323547,-0.015251842,-9.372475,-0.0055843852,0.0012547835,-0.021133773,62.174515,156.9064,0.0047884034,1442826,276,514,3013,9810
58950519,4026,0,-0.18418999,-0.6637477,-9.115221,-0.0051760566,0.0023195036,-0.040140282,62.166203,156.9064,0.0047884034,1442826,-313,-573,1666,9807
59054519,4020,0,-0.0100044375,0.63844675,-9.148542,0.01291525,0.0060133473,-0.037549134,62.196674,156.9064,0.0047884034,1442826,681,-232,669,9818
59775304,3969,0,0.2698039,0.44068307,-8.363016,-0.007125009,0.006048852,-0.036752757,62.157894,156.9064,0.0047884034,1442826,-179,221,1427,9804
59875299,4007,0,0.040313352,-0.02193257,-8.750117,-0.0019773876,-0.0026737791,-0.027727442,62.180054,156.9064,0.0047884034,1442826,576,45,1520,9812
59975310,4005,0,0.5215929,-0.5711471,-8.710532,-0.0048294803,-0.00038201653,-0.056384332,62.218834,156.9064,0.0047884034,1442826,-281,911,2188,9826
60079309,4013,0,0.09211445,0.7072366,-8.923424,0.0048789456,0.006842497,-0.04236883,62.227146,156.9064,0.0047884034,1442826,-68,294,2182,9829
60179293,3949,0,-0.18395837,0.7821313,-8.921743,0.009867897,0.002656967,-0.037467208,62.182823,156.9064,0.0047884034,1442826,40,-445,2857,9813
60279348,4056,0,0.26053354,0.011078768,-9.217375,-0.009318568,-0.0069016665,-0.053572297,62.249306,156.9064,0.0047884034,1442826,-350,-42,2957,9837
60383293,3993,0,-0.19867556,-1.0612843,-9.943035,-0.012144042,6.0549937e-05,-0.0370346,62.227146,156.9064,0.0047884034,1442826,350,-322,3053,9829
60487299,4007,0,-0.36639678,0.52737683,-9.695962,0.0055560432,0.010365166,-0.037304733,62.224377,156.9064,0.0047884034,1442826,-1175,-434,3892,9828
60591292,3985,0,0.6410162,1.3288171,-9.8644705,0.009561156,0.0012197456,-0.03938834,62.229916,156.9064,0.0047884034,1442826,573,-19,1981,9830
60691293,3960,0,-0.07549893,0.4308362,-10.601592,0.0051792855,-0.010718299,-0.050777808,62.246536,156.9064,0.0047884034,1442826,146,-657,1165,9836
60792092,4793,0,0.11532521,-0.81067055,-10.355654,0.0008048555,-0.00846072,-0.05710457,62.246536,156.9064,0.0047884034,1442826,182,-272,3487,9836
60892892,3996,0,0.21862383,-0.8466086,-11.418913,0.01152995,0.0036635313,-0.03816375,62.249306,156.9064,0.0047884034,1442826,402,103,1820,9837
60996892,4000,0,-0.24839918,0.81580925,-10.253961,-0.01143918,0.013982707,-0.05002921,62.268696,156.9064,0.0047884034,1442826,-577,8,1648,9844
61096893,4001,0,-0.7590341,1.3155073,-10.499949,0.008185732,0.0034006233,-0.044072643,62.27147,156.9064,0.0047884034,1442826,-277,-934,2715,9845
61196936,4042,0,0.13832644,1.4478089,-10.652771,0.01879465,-0.0024451448,-0.051154748,62.268696,156.9064,0.0047884034,1442826,894,-316,2562,9844
61300902,4010,0,0.2878363,-0.5940387,-10.151036,-0.00867269,0.001126336,-0.029269438,62.30748,156.9064,0.0047884034,1442826,-91,927,4092,9858
61400947,4055,0,0.16793033,-0.43139324,-9.778466,-0.005898727,0.0023555206,-0.035861097,62.2964,156.9064,0.0047884034,1442826,9,582,1972,9854
61504893,3967,0,0.28704345,0.77666676,-9.050997,-0.003535693,0.0084683485,-0.020864084,62.25485,156.9064,0.0047884034,1442826,568,569,2259,9839
61604893,4000,0,0.061839573,0.71047837,-9.561786,-0.00035606918,-0.0034325353,-0.037111003,62.29363,156.9064,0.0047884034,1442826,-63,185,1369,9853
61704934,4000,0,0.5763378,-0.17711301,-10.055672,0.0056853606,-0.0045286957,-0.03985209,62.2964,156.9064,0.0047884034,1442826,85,262,1881,9854
61806469,4000,0,0.3710045,-0.81067127,-9.879443,-0.0072523453,-0.008243741,-0.040667396,62.27424,156.9064,0.0047884034,1442826,-330,630,1445,9846
61910469,4000,0,0.54674196,0.3864685,-8.545149,-0.0010759572,0.0029081155,-0.027577149,62.27424,156.9064,0.0047884034,1442826,-675,1166,2580,9846
62010469,3963,0,-0.22997932,0.7451758,-8.465426,0.012434697,0.0019645223,-0.03519045,62.28809,156.9064,0.0047884034,1442826,-25,-414,1700,9851
62110478,3983,0,0.5561519,0.13417408,-8.374211,-0.0070067947,-0.007773036,-0.044177953,62.31025,156.9064,0.0047884034,1442826,-175,980,2219,9859
62214495,4020,0,0.46626106,-0.2674474,-8.357679,-0.005999633,-0.00049358513,-0.036573622,62.29086,156.9064,0.0047884034,1442826,-527,628,2452,9852
62314470,4001,0,-0.4998903,0.33731076,-8.821937,0.0055172713,-0.0028559268,-0.032937694,62.28809,156.9064,0.0047884034,1442826,-223,-950,2180,9851
62414469,4000,0,0.45222074,0.5550101,-8.422832,-0.0014909308,-0.0043481253,-0.013991179,62.30748,156.9064,0.0047884034,1442826,-245,-175,751,9858
62518469,4000,0,0.25614074,-0.23180214,-9.235537,0.007642312,-0.006770843,-0.035533577,62.34903,156.9064,0.0047884034,1442826,222,-230,296,9873
62618532,3986,0,-0.1906909,-0.41701216,-8.383121,-0.015262948,0.0063002137,-0.042662073,62.30748,156.9064,0.0047884034,1442826,-495,102,802,9858
62722493,4000,0,0.17739868,0.6343821,-8.447488,-0.006209733,0.010728016,-0.016826505,62.321327,156.9064,0.0047884034,1442826,26,721,3013,9863
62820152,4029,0,-0.30308637,1.1949785,-9.395061,0.0059181238,0.0013660642,-0.043480232,62.3518,156.9064,0.0047884034,1442826,-34,-242,1149,9874
62924120,4000,0,0.054276776,-0.078122124,-10.1152115,0.006089909,-0.009511808,-0.054748997,62.304707,156.9064,0.0047884034,1442826,-107,-543,822,9857
63024114,3997,0,0.374019,-0.8336895,-9.440934,-0.018306253,-0.0065270946,-0.058005385,62.31579,156.9064,0.0047884034,1442826,293,99,1844,9861
63128114,4000,0,-0.25008467,0.16280435,-9.323966,-0.00820782,0.0057105706,-0.045437686,62.34626,156.9064,0.0047884034,1442826,-75,231,1445,9872
63232114,4000,0,-0.28387538,1.2906287,-9.627572,-0.011833494,0.0040408364,-0.041928835,62.34903,156.9064,0.0047884034,1442826,333,-557,1058,9873
63332124,4010,0,0.50157124,0.3985155,-9.531618,-0.0021098482,-0.0017549057,-0.03064305,62.321327,156.9064,0.0047884034,1442826,269,780,4161,9863
63436092,3960,0,-0.13852079,-1.2641629,-11.022183,-0.007158473,-0.006458924,-0.04597276,62.36011,156.9064,0.0047884034,1442826,-386,-625,1616,9877
63536093,3960,0,-0.7087399,-0.49743515,-10.448258,-0.0012446251,0.00862469,-0.050399832,62.37396,156.9064,0.0047884034,1442826,208,-1030,2594,9882
63636101,4032,0,-0.47229573,0.20952192,-9.987313,0.0013866678,0.013330672,-0.037626047,62.36011,156.9064,0.0047884034,1442826,-153,-1151,2061,9877
63741719,4020,0,0.62444186,1.3360744,-10.118637,0.0054544834,-0.007514625,-0.039187174,62.37119,156.9064,0.0047884034,1442826,317,112,58,9881
63841693,3992,0,0.6408109,0.9135488,-10.0489855,0.015359372,-0.007375856,-0.033788666,62.34072,156.9064,0.0047884034,1442826,849,69,1318,9870
63941714,3989,0,0.48751646,-0.33639482,-11.491886,0.010486929,-0.010865386,-0.04543107,62.3795,156.9064,0.0047884034,1442826,553,-80,-346,9884
64045694,4001,0,-0.67576206,-1.0946971,-11.407247,-0.0095566735,0.009023384,-0.053542502,62.36565,156.9064,0.0047884034,1442826,-507,-946,874,9879
64145720,4027,0,-0.2438444,0.18559991,-11.193235,0.00582572,0.0052747126,-0.05491111,62.396122,156.9064,0.0047884034,1442826,-375,-584,1507,9890
64245699,4006,0,0.028054355,1.1018502,-10.284055,0.007802373,0.0054917247,-0.033538513,62.36842,156.9064,0.0047884034,1442826,-176,900,3803,9880
64349714,4015,0,-0.1762183,0.749352,-9.712982,-0.002543957,-0.0005038486,-0.04029268,62.4072,156.9064,0.0047884034,1442826,-264,-702,2762,9894
64449714,3982,0,0.14114378,-0.5096246,-10.638001,-0.0038013963,-0.0010544048,-0.05736898,62.396122,156.9064,0.0047884034,1442826,415,-234,846,9890
64549734,4020,0,-0.06064528,-0.8784743,-10.340709,-0.009868083,-0.00021059299,-0.041593697,62.42105,156.9064,0.0047884034,1442826,-466,-23,2624,9899
64653720,4006,0,-0.66937697,0.78607446,-9.879929,-0.0033041614,0.004196481,-0.038647097,62.393353,156.9064,0.0047884034,1442826,-1139,-782,2760,9889
64753716,4000,0,-0.27318385,1.8889561,-9.360629,-0.005862193,0.008725803,-0.04080727,62.44044,156.9064,0.0047884034,1442826,243,-531,1441,9906
64855293,4000,0,0.5436374,0.9886884,-9.961412,-0.010319435,-0.0033389493,-0.05451752,62.37673,156.9064,0.0047884034,1442826,-422,753,1650,9883
64955300,4008,0,0.72477806,-0.15676887,-10.229046,0.001646115,-0.013714236,-0.026301036,62.412743,156.9064,0.0047884034,1442826,28,223,1807,9896
65059305,4011,0,0.27257925,-1.5001936,-10.332133,-0.0034563746,-0.0052385204,-0.030167518,62.415512,156.9064,0.0047884034,1442826,-794,917,2099,9897
65163293,4001,0,0.04551655,0.40381053,-9.703999,-0.0011869266,0.010791829,-0.029790735,62.429363,156.9064,0.0047884034,1442826,-1057,786,3119,9902
65263353,4060,0,0.46294963,1.6276062,-9.6758,0.0022663188,0.0022809077,-0.04485378,62.412743,156.9064,0.0047884034,1442826,369,591,1636,9896
65363347,4054,0,0.23552354,1.2083011,-9.910935,0.009315541,-0.0019736455,-0.034862857,62.412743,156.9064,0.0047884034,1442826,810,-301,2607,9896
65467300,4007,0,-0.095107146,-0.27114648,-8.115522,-0.0060018105,0.0015234322,-0.02217282,62.426594,156.9064,0.0047884034,1442826,-20,550,3921,9901
65571303,4010,0,-0.543632,0.34198982,-7.693888,0.0051062335,0.00077910407,-0.0104060685,62.43767,156.9064,0.0047884034,1442826,-234,-1075,395,9905
65671292,3959,0,-0.31112525,0.33805284,-7.6112647,-0.013147584,0.0042986125,-0.03650531,62.462605,156.9064,0.0047884034,1442826,-52,144,2512,9914
65772927,4035,0,-0.29865858,-0.03515028,-8.844621,-0.010497359,-0.0017610893,-0.050807003,62.45706,156.9064,0.0047884034,1442826,-104,-172,1658,9912
65876896,4004,0,-0.12889385,-0.20795354,-9.226036,-0.0039926567,-0.0005759951,-0.0586937,62.44044,156.9064,0.0047884034,1442826,-1463,501,1706,9906
65976928,4029,0,-0.3815455,0.8721952,-9.1897335,-0.005107277,0.0010490776,-0.03527052,62.495846,156.9064,0.0047884034,1442826,672,-792,1210,9926
66076936,4044,0,0.3268723,1.3220465,-8.996049,0.0145336045,-0.002821197,-0.028387818,62.448753,156.9064,0.0047884034,1442826,187,330,3136,9909
66180893,4000,0,0.33724537,-0.07966023,-10.345625,0.012804231,-0.0070368736,-0.036921836,62.451523,156.9064,0.0047884034,1442826,14,331,1537,9910
66280893,3972,0,-0.21518034,-0.9900174,-10.650123,-0.004364878,5.863374e-06,-0.05948192,62.470913,156.9064,0.0047884034,1442826,667,-667,812,9917
66380896,3997,0,0.288505,-0.63262177,-9.848759,-0.005140301,0.0078077447,-0.020417243,62.465374,156.9064,0.0047884034,1442826,182,1074,3433,9915
66484918,4007,0,0.017734645,0.9987792,-9.254216,0.0020519397,0.004860863,-0.01944405,62.473682,156.9064,0.0047884034,1442826,-381,224,2655,9918
66584902,4005,0,0.3745615,1.6242722,-9.875305,0.008632146,0.0017832505,-0.048389595,62.473682,156.9064,0.0047884034,1442826,720,186,1062,9918
66684893,3999,0,-0.10698249,0.98296195,-10.289832,0.0073908414,-0.010336155,-0.043557994,62.473682,156.9064,0.0047884034,1442826,-304,-881,2817,9918
66786469,4000,0,-0.23457143,-0.36168006,-10.376994,-0.00015725847,-0.0108177755,-0.04634443,62.470913,156.9064,0.0047884034,1442826,-414,-948,2773,9917
66890469,4000,0,-0.22628644,-0.7802803,-10.746555,0.016518794,0.0023338178,-0.038686592,62.481995,156.9064,0.0047884034,1442826,-108,-22,2309,9921
66990469,3994,0,-0.8976976,0.17294453,-9.916998,0.006720017,0.008972377,-0.024311516,62.495846,156.9064,0.0047884034,1442826,-17,-803,3832,9926
67090469,3976,0,-0.24449684,1.4390647,-9.464203,-0.0076664686,0.02023258,-0.052213967,62.484764,156.9064,0.0047884034,1442826,503,207,1872,9922
67194496,4027,0,-0.27614528,1.039347,-9.827031,-0.0026212796,-0.0032030675,-0.04926578,62.501385,156.9064,0.0047884034,1442826,184,-577,3025,9928
67298476,4007,0,0.20393988,-1.3734175,-10.854612,0.013597733,-0.005164815,-0.035663575,62.504154,156.9064,0.0047884034,1442826,640,-216,2129,9929
67398469,4000,0,-0.13771375,-1.3216362,-10.977987,-0.0064115687,-0.0008873433,-0.05489858,62.479225,156.9064,0.0047884034,1442826,212,-443,2090,9920
67502498,4006,0,-0.38568565,0.7770352,-10.0503025,0.012566271,0.009151017,-0.04292612,62.523544,156.9064,0.0047884034,1442826,-873,-322,1555,9936
67602493,3966,0,-0.17708601,1.3573687,-9.742169,0.0030951137,0.008395713,-0.037214473,62.515236,156.9064,0.0047884034,1442826,-337,-136,4105,9933
67704114,4000,0,-0.5169433,1.6863321,-9.28258,0.0030811352,0.0011799796,-0.027308011,62.529083,156.9064,0.0047884034,1442826,567,-614,4498,9938
67804120,3995,0,0.10192039,0.95967925,-10.049132,-0.013544027,0.001896043,-0.05145728,62.537395,156.9064,0.0047884034,1442826,1048,44,1703,9941
67908154,4034,0,0.016682431,-1.2531098,-10.104023,-0.008786967,-0.006559641,-0.054128956,62.567867,156.9064,0.0047884034,1442826,-98,-573,3661,9952
68008151,4029,0,0.017604439,-0.6862734,-9.977569,-0.014940418,0.0074793305,-0.050047398,62.501385,156.9064,0.0047884034,1442826,3,447,3201,9928
68112135,4006,0,-0.41338015,0.88964754,-9.717405,0.009852102,0.010553101,-0.03076847,62.559555,156.9064,0.0047884034,1442826,6,-1097,2449,9949
68212120,4006,0,-0.5147981,1.3048443,-9.164799,-0.0046935207,0.0044944556,-0.058932558,62.565098,156.9064,0.0047884034,1442826,-452,-853,2131,9951
68312069,3955,0,0.18427078,1.1205566,-9.048655,-0.010153448,0.0058330377,-0.044581316,62.567867,156.9064,0.0047884034,1442826,265,664,3546,9952
68416069,3958,0,-0.16874349,-0.8045388,-10.281322,-0.0023614697,-0.009970181,-0.046930097,62.570637,156.9064,0.0047884034,1442826,71,-584,2442,9953
68516069,4000,0,-0.25325882,-0.8421841,-10.309539,-0.008416418,0.00061966816,-0.05001209,62.576176,156.9064,0.0047884034,1442826,-356,-937,1014,9955
68616920,4003,0,-0.43473944,-0.26388633,-9.825718,-0.011166174,0.012030799,-0.045106925,62.545704,156.9064,0.0047884034,1442826,-407,4,1084,9944
68721731,4038,0,0.02390609,1.2432356,-9.606029,0.020793157,0.008577304,-0.031031687,62.540165,156.9064,0.0047884034,1442826,364,-454,2234,9942
68821693,3994,0,-0.405903,0.9641593,-9.785359,0.011416094,-0.004935007,-0.036158014,62.587257,156.9064,0.0047884034,1442826,992,-871,2214,9959
68921693,3995,0,-0.05371466,-0.078923,-10.226533,0.008832615,-0.01258926,-0.048571058,62.573406,156.9064,0.0047884034,1442826,589,-673,2114,9954
69025718,4025,0,0.078704715,-1.3378482,-10.123098,-0.0002495111,0.0018751994,-0.02699019,62.592796,156.9064,0.0047884034,1442826,97,458,1386,9961
69125697,4004,0,0.38762945,-0.48595202,-9.828531,6.3938554e-05,0.005040488,-0.025894059,62.567867,156.9064,0.0047884034,1442826,512,567,721,9952
69225714,3994,0,0.11127154,0.94754696,-9.617909,-0.002775689,0.004353777,-0.029952206,62.584488,156.9064,0.0047884034,1442826,-10,794,1367,9958
69329714,4000,0,-0.28821886,0.62467086,-9.746887,-0.007757813,-0.00065912795,-0.053605814,62.595566,156.9064,0.0047884034,1442826,-566,-1271,818,9962
69429720,4006,0,-0.0814179,-0.5047977,-10.1497,-0.01040291,-0.009456077,-0.053893194,62.60111,156.9064,0.0047884034,1442826,-830,-556,1532,9964
69529789,4075,0,-0.057840135,-0.6588078,-10.0412245,-0.0018053509,-0.0043228427,-0.04431022,62.590027,156.9064,0.0047884034,1442826,296,74,2832,9960
69633722,3999,0,0.40388176,0.2828414,-9.82275,0.006872257,0.0011308084,-0.03315551,62.61773,156.9064,0.0047884034,1442826,-573,163,-438,9970
69735305,3960,0,0.3626229,0.94608325,-9.14879,-0.006966637,0.0058948155,-0.021543592,62.63435,156.9064,0.0047884034,1442826,-665,461,964,9976
69839344,4033,0,-0.09147685,0.6782967,-9.532088,-0.002375951,-0.0073258257,-0.060607262,62.6205,156.9064,0.0047884034,1442826,69,-610,3324,9971
69943298,3985,0,0.40179253,-1.0394002,-10.477667,0.0029818034,-1.6134e-06,-0.039236475,62.606647,156.9064,0.0047884034,1442826,696,613,943,9966
70043293,4000,0,-0.06475858,-0.92257464,-10.219084,-0.005454315,-0.0042037107,-0.06322636,62.606647,156.9064,0.0047884034,1442826,-688,-185,-657,9966
70143300,4007,0,-0.040800028,0.15674126,-9.640387,0.0009820234,-0.0015738102,-0.048166826,62.62327,156.9064,0.0047884034,1442826,-620,141,1303,9972
70247321,4027,0,-0.09482012,1.067452,-9.286091,-0.00070199615,0.0047556926,-0.02863899,62.63989,156.9064,0.0047884034,1442826,656,35,1904,9978
70347293,3968,0,0.3500911,0.30116907,-9.800704,0.0022568079,0.00074507925,-0.03238271,62.63989,156.9064,0.0047884034,1442826,852,98,532,9978
70447293,3991,0,0.5832954,-0.93684995,-10.299461,-0.0047984617,-0.004069423,-0.043530226,62.65097,156.9064,0.0047884034,1442826,-694,248,1220,9982
70551293,4000,0,-0.5464228,-0.1485449,-9.90616,-0.00055473414,0.0037704823,-0.05486211,62.63712,156.9064,0.0047884034,1442826,-1458,-686,766,9977
70656900,3980,0,0.3214839,1.1561577,-9.31417,-0.005417036,-0.0032652812,-0.021904927,62.626038,156.9064,0.0047884034,1442826,-640,43,823,9973
70756899,4005,0,0.84771574,1.0226662,-9.838935,-0.0034232426,-0.0021156988,-0.020654202,62.6759,156.9064,0.0047884034,1442826,392,295,411,9991
70856934,4011,0,0.6565927,0.007868319,-9.961183,-0.0020927992,-0.0106641855,-0.038595892,62.65374,156.9064,0.0047884034,1442826,-73,212,1682,9983
70960900,4008,0,-0.02429908,-0.94686514,-10.17306,-0.013335003,-8.4859785e-06,-0.050736666,62.65374,156.9064,0.0047884034,1442826,-723,425,1565,9983
71060893,3969,0,-0.1937876,-0.77338886,-9.725858,-0.0069652237,0.003237741,-0.023135215,62.684208,156.9064,0.0047884034,1442826,-1442,373,1837,9994
71168892,3957,0,-0.025627906,1.1759628,-9.868823,0.011077022,-0.008720338,-0.043997675,62.6759,156.9064,0.0047884034,1442826,-174,-504,1657,9991
71268900,4007,0,-0.24261542,1.0056394,-10.07097,0.0075955023,-0.00079729944,-0.043986876,62.68144,156.9064,0.0047884034,1442826,903,-1045,1855,9993
71368893,4000,0,-0.09733128,-0.5442387,-10.127168,-0.0074325213,-0.0055123963,-0.0542127,62.66759,156.9064,0.0047884034,1442826,268,-1102,856,9988
71472893,3999,0,-0.32236996,-1.3114605,-10.452773,0.0054806913,-0.0070607984,-0.04088184,62.64266,156.9064,0.0047884034,1442826,-204,-665,2131,9979
71570469,4001,0,0.19010785,-0.95676434,-9.645948,-0.015558746,0.004869852,-0.04113013,62.66205,156.9064,0.0047884034,1442826,-358,1506,4485,9986
71674469,4000,0,-0.3414849,0.6711553,-9.086441,-0.008113269,0.014392525,-0.048362225,62.69529,156.9064,0.0047884034,1442826,-687,-507,1900,9998
71774469,3965,0,0.23129685,1.3703142,-8.669178,-0.0075200265,0.005664069,-0.034666292,62.69252,156.9064,0.0047884034,1442826,-511,1197,4487,9997
71878475,4006,0,0.1472824,0.45490503,-9.962967,-0.017701643,-0.0055480404,-0.05749033,62.70083,156.9064,0.0047884034,1442826,-319,-56,306,10000
71978513,4044,0,0.43692705,-0.76464325,-9.902619,0.0026394215,-0.014521909,-0.028394964,62.68975,156.9064,0.0047884034,1442826,-84,62,2127,9996
72078469,4000,0,0.15800786,-1.0526366,-10.1699915,0.008369378,-0.001462458,-0.03611596,62.70083,156.9064,0.0047884034,1442826,160,-175,1760,10000
72182469,4000,0,-0.7300741,0.22475922,-10.23359,0.008762712,0.0055904686,-0.04687205,62.70914,156.9064,0.0047884034,1442826,-872,-788,-77,10003
72282541,4072,0,-0.29625773,0.86468333,-9.463069,-0.0026145244,0.010312244,-0.036819592,62.722992,156.9064,0.0047884034,1442826,-573,-730,2635,10008
72382536,4031,0,0.16439074,2.0215204,-8.739044,-0.00659928,0.011679849,-0.037024856,62.70637,156.9064,0.0047884034,1442826,352,1218,2836,10002
72486534,4042,0,-0.038733162,0.30079475,-10.033741,-0.008871736,-0.0034462838,-0.045171835,62.70637,156.9064,0.0047884034,1442826,620,-472,1781,10002
72588120,3968,0,0.70833933,-0.9593066,-9.652809,-0.01512713,-0.003724772,-0.04482803,62.736843,156.9064,0.0047884034,1442826,216,1379,3179,10013
72688152,4038,0,0.3037402,-1.3793708,-9.726926,0.00060706947,-0.0060526663,-0.027967013,62.72853,156.9064,0.0047884034,1442826,-270,320,2915,10010
73609693,4000,0,0.24043083,-0.502059,-10.137658,-0.010467175,-0.007865438,-0.042813662,62.778393,156.9064,0.0047884034,1442826,587,-55,2503,10028
73709693,4000,0,0.322569,-0.74745536,-9.991862,-0.01731633,-0.0017883757,-0.061373733,62.772854,156.9064,0.0047884034,1442826,-70,792,1584,10026
73813730,4004,0,-0.537562,0.40228447,-9.560383,-0.00037008268,0.00096967374,-0.03640693,62.76731,156.9064,0.0047884034,1442826,-230,-803,3396,10024
73913693,3994,0,-0.14025593,1.2777053,-9.4847,-0.010968476,0.0038632788,-0.04896051,62.795013,156.9064,0.0047884034,1442826,329,-536,2087,10034
74017732,4039,0,0.098310515,0.4707858,-10.394366,0.014285848,-0.0010029947,-0.037915416,62.7867,156.9064,0.0047884034,1442826,630,-70,2191,10031
74117720,4000,0,0.37343642,-0.6912048,-10.488844,-0.0007831251,-0.0093113985,-0.049373,62.831024,156.9064,0.0047884034,1442826,79,53,2213,10047
74217714,4000,0,0.21875213,-1.0899754,-11.215872,-0.0015313408,-0.0008981021,-0.040993568,62.761772,156.9064,0.0047884034,1442826,787,170,-279,10022
74317739,3985,0,0.03713579,-0.95327336,-10.296591,-0.00020580972,-0.0019766905,-0.032266364,62.795013,156.9064,0.0047884034,1442826,-909,780,2682,10034
74421769,4055,0,-0.3084376,1.2311754,-10.121991,0.0038006916,0.006963247,-0.04654797,62.817173,156.9064,0.0047884034,1442826,-704,-1323,762,10042
74523300,3970,0,0.20980857,1.6041796,-10.102673,0.015959356,-0.0037864433,-0.040063072,62.78393,156.9064,0.0047884034,1442826,815,-142,906,10030
74627293,3947,0,0.31672958,-0.3041395,-10.179758,-0.011267147,-0.0053567537,-0.058851484,62.817173,156.9064,0.0047884034,1442826,362,509,2746,10042
74731309,3963,0,-0.085219964,-0.5963151,-10.582051,0.01154867,-0.00030833628,-0.042958066,62.825485,156.9064,0.0047884034,1442826,12,-269,1310,10045
74831299,4006,0,-0.30143416,0.54267305,-10.112151,0.0070841517,0.0063610505,-0.03910166,62.836563,156.9064,0.0047884034,1442826,-331,-403,294,10049
74931299,3961,0,0.18876508,1.0637587,-9.615093,0.0096344035,0.0037909292,-0.025090395,62.80332,156.9064,0.0047884034,1442826,78,-394,653,10037
75035318,4026,0,0.111580364,0.33899418,-9.659022,-0.005632148,-0.00054481515,-0.03849346,62.828255,156.9064,0.0047884034,1442826,304,34,1643,10046
75135333,4041,0,-0.15680593,-0.330614,-10.123425,-0.010750965,0.0010874588,-0.04365449,62.825485,156.9064,0.0047884034,1442826,655,-898,1593,10045
75235293,3990,0,-0.38979897,-0.801774,-10.17136,-0.004329578,0.0031000425,-0.032728016,62.855953,156.9064,0.0047884034,1442826,237,-623,2957,10056
75339293,4001,0,0.28320715,0.43902013,-9.259014,-0.0031711394,0.0021026134,-0.020941794,62.850414,156.9064,0.0047884034,1442826,-913,871,2630,10054
75440930,4031,0,-0.059916686,1.4663825,-9.184639,-0.0064304285,0.013337893,-0.047830578,62.831024,156.9064,0.0047884034,1442826,-45,-31,2692,10047
75540893,4000,0,-0.035531826,1.1541542,-9.262968,0.0076699485,-0.0007712433,-0.036379777,62.864265,156.9064,0.0047884034,1442826,-363,-426,3529,10059
75640914,4021,0,-0.24716622,0.35894176,-10.147337,0.010778638,-0.008351664,-0.05195068,62.828255,156.9064,0.0047884034,1442826,357,-859,1338,10046
75744892,3961,0,0.19112618,-0.9552006,-9.651813,-0.010428168,0.007830078,-0.023245182,62.825485,156.9064,0.0047884034,1442826,-97,902,3071,10045
75844892,4000,0,-0.8927359,-0.5423719,-10.107969,-0.0028354106,0.016160669,-0.044902723,62.855953,156.9064,0.0047884034,1442826,-458,-1109,1616,10056
75948919,4027,0,0.41832125,0.6202029,-9.375289,-0.0012938031,-0.004022125,-0.027355025,62.872574,156.9064,0.0047884034,1442826,-167,6,941,10062
76048893,4000,0,0.1485965,0.6490791,-9.461914,-0.011277944,0.0020874105,-0.03234458,62.853184,156.9064,0.0047884034,1442826,-263,231,2180,10055
76148937,4010,0,0.13108177,0.01837055,-9.628785,-0.004708813,-0.00026541296,-0.044438947,62.850414,156.9064,0.0047884034,1442826,-41,-82,3130,10054
76252914,4022,0,0.20890081,-0.78900564,-10.319529,0.0031832927,-0.010466188,-0.043424755,62.889194,156.9064,0.0047884034,1442826,-735,73,1527,10068
76352918,4025,0,-0.033138987,0.09924282,-9.947186,-0.00094387855,0.004878025,-0.039043766,62.875347,156.9064,0.0047884034,1442826,565,324,460,10063
76454526,4057,0,-0.1943385,1.0571039,-8.887252,-0.006716197,0.018384714,-0.034883194,62.875347,156.9064,0.0047884034,1442826,184,165,3315,10063
76554495,4026,0,-0.22741713,1.1593457,-9.32037,-0.00026707584,0.0015677174,-0.05068779,62.869804,156.9064,0.0047884034,1442826,-560,-770,1377,10061
76658469,3994,0,0.5083403,-0.4768512,-9.68961,0.003958968,0.0059968065,-0.0318274,62.889194,156.9064,0.0047884034,1442826,-223,499,2087,10068
76762469,4000,0,-0.13202801,0.24074377,-9.608761,-0.0009236422,0.010693769,-0.051251598,62.855953,156.9064,0.0047884034,1442826,315,84,2341,10056
76862471,4002,0,-0.037952803,0.8191227,-9.196069,0.0044256253,0.0029976228,-0.046887096,62.886425,156.9064,0.0047884034,1442826,482,-187,1581,10067
76966469,4000,0,0.29220882,0.08162647,-9.548662,-0.0111528095,-0.00849271,-0.041819204,62.897507,156.9064,0.0047884034,1442826,-481,148,3226,10071
77070469,3994,0,0.28081155,-0.98641914,-10.421704,0.0049629034,-0.008021107,-0.04035353,62.903046,156.9064,0.0047884034,1442826,485,260,554,10073
77170470,4001,0,0.3540804,-1.3038744,-10.357431,0.0074184234,-0.0043956563,-0.027760986,62.903046,156.9064,0.0047884034,1442826,23,543,1257,10073
77270492,4000,0,0.102448545,-0.16252285,-9.829906,-0.005909852,0.0007556558,-0.031074543,62.903046,156.9064,0.0047884034,1442826,-1076,-214,-373,10073
77372114,4000,0,0.08260793,1.0284133,-8.857994,-0.0074629174,0.012084278,-0.019072147,62.908585,156.9064,0.0047884034,1442826,-821,419,3403,10075
77472120,4000,0,0.07247324,0.96394825,-8.886382,-0.010678998,0.0072507663,-0.03772166,62.933517,156.9064,0.0047884034,1442826,-764,17,3440,10084
77576114,4000,0,-0.112605006,-0.35888168,-10.214524,0.0052409857,-0.012048414,-0.05446914,62.933517,156.9064,0.0047884034,1442826,115,-666,2129,10084
77676120,3987,0,-0.03620777,-1.1138692,-10.50121,0.0047727246,-0.0059041195,-0.04405425,62.894737,156.9064,0.0047884034,1442826,227,-667,2047,10070
77776135,4021,0,-0.39071736,-1.075413,-10.307898,0.0062757656,-0.0009723843,-0.035906572,62.908585,156.9064,0.0047884034,1442826,-343,-621,3478,10075
77880114,4000,0,0.121280715,0.9991959,-9.548263,0.012497556,0.008503863,-0.03810522,62.925205,156.9064,0.0047884034,1442826,-6,292,1045,10081
77980152,4036,0,0.20536113,1.5977885,-9.679906,0.014347154,0.006246566,-0.04798986,62.903046,156.9064,0.0047884034,1442826,684,52,1058,10073
78084102,4010,0,0.7571651,-0.017343532,-9.999393,0.0052351616,-0.01030605,-0.026085772,62.933517,156.9064,0.0047884034,1442826,474,175,2333,10084
78184069,3977,0,0.57161033,-0.752919,-10.223676,0.0036171556,-0.006027296,-0.031735405,62.92798,156.9064,0.0047884034,1442826,389,103,947,10082
78285701,4008,0,0.13853297,-1.2205075,-10.287889,0.0012622192,-0.0042476095,-0.04031365,62.950138,156.9064,0.0047884034,1442826,256,-60,1098,10090
78385718,4025,0,-0.4027979,-0.1578014,-10.098023,0.0043890066,0.009396437,-0.028402423,62.952908,156.9064,0.0047884034,1442826,79,-294,1749,10091
78489693,3994,0,0.5117996,1.5786891,-9.062916,0.00781662,0.005013611,-0.038762525,62.939056,156.9064,0.0047884034,1442826,3,891,3421,10086
78589693,4000,0,0.037084885,1.266616,-9.7715435,0.010801652,0.000739513,-0.040886663,62.96399,156.9064,0.0047884034,1442826,407,-811,816,10095
78693693,4000,0,0.717206,-0.5812968,-9.78896,0.002575077,-0.013842728,-0.02738959,62.994457,156.9064,0.0047884034,1442826,-91,868,4003,10106
78797693,4001,0,-0.49211058,-1.3237704,-10.409982,-0.014478372,0.008430235,-0.049976766,62.96676,156.9064,0.0047884034,1442826,-616,486,1032,10096
78897693,4001,0,0.08968787,-0.4958073,-9.303469,-0.004237497,0.005712641,-0.019822199,62.96953,156.9064,0.0047884034,1442826,-632,572,2821,10097
79001693,3964,0,-0.19564494,1.8001107,-9.469273,-0.0062874737,0.00816847,-0.06052734,62.98338,156.9064,0.0047884034,1442826,114,-769,2301,10102
79101693,4000,0,-0.26365337,1.2866815,-9.853562,-0.0023175227,0.0009949363,-0.050555374,62.94737,156.9064,0.0047884034,1442826,391,-797,1897,10089
79201722,4008,0,-0.033833627,0.30851865,-10.0272,-0.009776667,-0.0052518407,-0.049605537,62.96953,156.9064,0.0047884034,1442826,-247,-477,1416,10097
79303302,4008,0,0.0502296,-0.7692102,-9.868891,-0.0076431707,0.0005287392,-0.03934019,62.98061,156.9064,0.0047884034,1442826,507,139,2624,10101
79407302,3997,0,-0.17717308,-0.07138317,-9.741085,0.00613543,0.010981464,-0.036752798,62.96399,156.9064,0.0047884034,1442826,384,-403,1723,10095
79507293,3999,0,-0.2569461,0.5792448,-9.376394,-0.00285311,0.013057795,-0.049381357,62.96122,156.9064,0.0047884034,1442826,-304,-42,2665,10094
79607293,3985,0,0.14969547,1.2817239,-8.9915,-0.004230419,0.009525305,-0.04516407,62.991688,156.9064,0.0047884034,1442826,82,240,2479,10105
79711345,4040,0,0.06324223,0.5264303,-10.101167,0.004388717,-0.0036078086,-0.041737042,63.01662,156.9064,0.0047884034,1442826,589,-916,1794,10114
79811334,4040,0,-0.13188744,-0.7564131,-10.189866,-0.009642304,0.00012976071,-0.048687868,62.958447,156.9064,0.0047884034,1442826,511,-951,1484,10093
79915317,4024,0,-0.3911915,-0.70903426,-10.264799,0.011933864,0.0009933626,-0.05213896,62.99723,156.9064,0.0047884034,1442826,28,-902,1723,10107
80015293,4001,0,-0.7023421,0.32541373,-9.282102,-0.012780145,0.011361563,-0.05623428,63.011078,156.9064,0.0047884034,1442826,-504,-1327,1622,10112
80115296,4003,0,0.42654413,1.0042899,-8.381343,0.007913818,0.0015648009,-0.023706261,62.994457,156.9064,0.0047884034,1442826,-256,763,2833,10106
80216869,4000,0,0.009761945,0.8252519,-9.046006,0.0152222365,0.0033470085,-0.04155142,63.02493,156.9064,0.0047884034,1442826,-349,-1121,2439,10117
80316903,4003,0,0.63372266,0.1807577,-9.1309595,-0.009530861,-0.010166026,-0.032740884,62.994457,156.9064,0.0047884034,1442826,-157,816,2820,10106
80420892,4000,0,0.3306972,-1.2082875,-9.745908,-0.0069615426,0.0025265259,-0.037200406,62.99723,156.9064,0.0047884034,1442826,-63,800,1872,10107
80520893,3963,0,-0.2566554,-0.56033206,-10.402856,0.010880383,-0.0009557705,-0.04324221,63.02216,156.9064,0.0047884034,1442826,439,-418,743,10116
80624907,4007,0,0.0710185,1.1564538,-9.714297,0.010699011,0.002743824,-0.03763031,63.01385,156.9064,0.0047884034,1442826,-171,-217,1510,10113
80724914,3975,0,0.20879148,1.2885903,-9.161026,0.003744325,0.0040783198,-0.034653414,63.02216,156.9064,0.0047884034,1442826,-45,-529,3755,10116
80824892,3973,0,0.6646665,1.2591743,-9.310986,-0.0040211203,0.0011800958,-0.042803448,63.02216,156.9064,0.0047884034,1442826,532,1422,3133,10116
80928929,4037,0,0.63599366,-0.83993703,-9.828803,-0.00510905,-0.0040063243,-0.03655745,63.02493,156.9064,0.0047884034,1442826,-109,982,1684,10117
81028893,3991,0,-0.24188724,-1.3648424,-10.0286255,0.0025827875,-0.004840376,-0.03079244,63.03324,156.9064,0.0047884034,1442826,42,-182,1214,10120
81130535,4037,0,0.10730611,-0.061068922,-9.80774,0.016002903,0.008586809,-0.047947682,63.03324,156.9064,0.0047884034,1442826,434,-171,2003,10120
81230469,4000,0,-0.5868109,0.71554816,-9.409655,-0.006790026,0.0058559375,-0.037572034,63.06094,156.9064,0.0047884034,1442826,131,-701,2796,10130
81334469,4000,0,-0.25428978,0.98348296,-9.723564,0.0070399814,-0.0011067489,-0.03676099,63.04155,156.9064,0.0047884034,1442826,331,-652,2195,10123
81438469,4000,0,0.10308842,-0.8244112,-10.184432,0.010227523,-0.006613812,-0.043582253,63.07756,156.9064,0.0047884034,1442826,256,-91,2087,10136
81538475,3963,0,-0.36054036,-1.1204394,-10.049497,-0.00037512928,-0.0023049293,-0.046598274,63.0277,156.9064,0.0047884034,1442826,-189,-647,2964,10118
81642539,4070,0,0.10212609,0.51166445,-10.076771,0.0071385913,0.0061572115,-0.034991074,63.07756,156.9064,0.0047884034,1442826,-236,224,858,10136
81742469,4000,0,0.41530356,1.0817978,-9.775854,0.015914327,0.007647133,-0.031709686,63.066483,156.9064,0.0047884034,1442826,552,268,1904,10132
81846469,4000,0,0.67598265,0.28668395,-9.642691,-0.006940697,-0.0073358407,-0.029572902,63.08033,156.9064,0.0047884034,1442826,-883,268,2104,10137
81946469,4000,0,0.6396624,-0.6738847,-10.026973,-0.005492279,-0.00837197,-0.036313307,63.09141,156.9064,0.0047884034,1442826,-420,1128,2499,10141
82048093,4779,0,-0.21673302,-1.2218798,-10.078503,-0.011231821,0.00074804423,-0.049942225,63.0277,156.9064,0.0047884034,1442826,105,402,2710,10118
82148114,4000,0,-0.20500793,-0.840602,-10.14429,-0.0099793095,0.0062127453,-0.049569607,63.066483,156.9064,0.0047884034,1442826,-296,-370,875,10132
82252114,3994,0,0.34630603,1.1619642,-9.728278,0.009363532,0.008238969,-0.032287974,63.099724,156.9064,0.0047884034,1442826,856,425,1004,10144
82352114,3963,0,0.62448066,1.0421497,-9.437252,0.008349392,-0.004018504,-0.025256073,63.088642,156.9064,0.0047884034,1442826,954,96,2081,10140
82452122,4008,0,0.5689959,0.5599201,-10.00237,0.010078989,-0.011216881,-0.040926196,63.07756,156.9064,0.0047884034,1442826,346,-130,1786,10136
82556123,4003,0,-0.1971097,-0.72715384,-10.031585,-0.006942851,0.0067859744,-0.034364916,63.09418,156.9064,0.0047884034,1442826,483,-280,2518,10142
82656114,3956,0,-0.17254402,-0.51837265,-10.033834,-0.0030439128,0.00072393776,-0.048039235,63.099724,156.9064,0.0047884034,1442826,-1242,-495,1591,10144
82756114,4000,0,-0.28229758,0.3589279,-10.1238985,0.0042796247,0.0016149954,-0.048877195,63.108032,156.9064,0.0047884034,1442826,-795,-511,413,10147
82860166,4052,0,0.024480347,1.0401455,-9.565063,-0.0020603614,0.0019378817,-0.039810337,63.13019,156.9064,0.0047884034,1442826,260,234,777,10155
82960113,3985,0,-0.0590481,0.12845464,-9.956719,-0.008357487,3.810448e-06,-0.048919987,63.13019,156.9064,0.0047884034,1442826,110,-479,1652,10155
83065699,4006,0,0.32927877,-1.5594876,-9.673135,-0.0046973415,-0.0066165584,-0.024613999,63.09141,156.9064,0.0047884034,1442826,-440,1052,3540,10141
83165699,4006,0,-0.2392069,-0.77823,-9.719263,-0.0035523798,0.0010177616,-0.024540866,63.1108,156.9064,0.0047884034,1442826,-90,12,2604,10148
83265699,3986,0,-0.24354717,0.5518921,-9.095147,0.00042320124,0.0034942082,-0.027918402,63.121883,156.9064,0.0047884034,1442826,147,-792,3291,10152
83369693,3974,0,0.54541284,0.6738251,-9.35716,-0.0014868319,-0.00792961,-0.02639445,63.132965,156.9064,0.0047884034,1442826,-512,468,2088,10156
83473724,4031,0,0.16910386,-1.0530587,-10.1385765,0.006299275,-0.0061006537,-0.039210953,63.08033,156.9064,0.0047884034,1442826,39,-96,3108,10137
83573714,4021,0,0.15233614,-1.2600558,-10.339486,0.0023064145,-0.004082263,-0.026306795,63.135735,156.9064,0.0047884034,1442826,923,199,1137,10157
83677693,4000,0,-0.23944624,0.34820056,-9.129612,0.003190211,0.0041407216,-0.028645925,63.105263,156.9064,0.0047884034,1442826,-864,-457,3789,10146
83777693,4000,0,-0.15093546,1.0432165,-9.451427,0.0063994955,0.0014978868,-0.03574718,63.11357,156.9064,0.0047884034,1442826,247,-366,1588,10149
83877698,4005,0,0.48764578,1.231193,-9.835894,0.005318311,-0.00327464,-0.033484153,63.146812,156.9064,0.0047884034,1442826,1286,106,2287,10161
83979292,4000,0,0.38081107,0.0074114953,-9.880948,-0.014615906,-0.011438219,-0.046813183,63.121883,156.9064,0.0047884034,1442826,271,1029,3215,10152
84079312,4020,0,-0.06542858,-0.35867196,-10.067617,-0.008538846,-0.0026182963,-0.04830838,63.138504,156.9064,0.0047884034,1442826,566,-488,2527,10158
84183308,3951,0,0.22049081,-0.026380831,-9.659731,-0.0006333655,-0.0051304535,-0.025300654,63.138504,156.9064,0.0047884034,1442826,107,424,2371,10158
84283307,4015,0,0.42623928,0.9819733,-9.252858,-0.002374365,0.006316353,-0.041109897,63.163433,156.9064,0.0047884034,1442826,224,726,2963,10167
84387301,4008,0,-0.13291185,0.82828563,-9.878534,0.0012354548,-0.0008124888,-0.054010537,63.132965,156.9064,0.0047884034,1442826,216,-510,2264,10156
85204869,4000,0,-0.096974,1.3504958,-9.263858,-0.010827551,0.011876928,-0.037681974,63.180054,156.9064,0.0047884034,1442826,159,548,1454,10173
85304894,4016,0,0.046407282,1.4096378,-9.572905,-0.008384184,0.0049699647,-0.047146313,63.180054,156.9064,0.0047884034,1442826,197,397,1526,10173
85408907,4015,0,0.39835024,-0.41026056,-10.62473,0.013229919,-0.0076193297,-0.04796025,63.174515,156.9064,0.0047884034,1442826,773,-155,451,10171
85508896,3968,0,0.3262718,-0.8211606,-10.453759,0.0062520257,-0.0016561281,-0.0429602,63.188366,156.9064,0.0047884034,1442826,1038,-31,487,10176
85608893,4001,0,0.103079036,-0.42681992,-9.799808,0.007440984,0.0034060257,-0.031517915,63.171745,156.9064,0.0047884034,1442826,379,81,2100,10170
85712892,4000,0,-0.6100616,1.178117,-9.825968,-0.0028407176,0.008673626,-0.053459443,63.152355,156.9064,0.0047884034,1442826,-388,-780,2240,10163
85812893,3959,0,0.43685916,1.8680769,-9.812652,0.007747027,0.0042156903,-0.040485077,63.152355,156.9064,0.0047884034,1442826,1228,-139,2653,10163
85914514,4000,0,0.18994868,0.6095079,-10.353927,-0.005767577,-0.0057712486,-0.051188998,63.188366,156.9064,0.0047884034,1442826,308,11,1060,10176
86014514,3952,0,0.109875314,-0.38268223,-10.378538,-0.0042857276,-0.016276103,-0.0532455,63.218834,156.9064,0.0047884034,1442826,431,-560,3173,10187
86118536,4010,0,0.54671264,-1.3615078,-10.299353,-0.0028500536,-0.00045207032,-0.021589369,63.191135,156.9064,0.0047884034,1442826,142,905,2046,10177
86218568,4051,0,-0.3596715,-0.4085377,-9.721154,-0.01030636,0.009243001,-0.035578553,63.188366,156.9064,0.0047884034,1442826,-40,293,2315,10176
86322492,3993,0,0.2945695,1.1174791,-9.729247,0.0074588596,0.004148486,-0.034140676,63.182823,156.9064,0.0047884034,1442826,1056,760,1390,10174
86422475,4006,0,0.3571117,0.3466903,-8.958293,0.0081669325,-0.0009604482,-0.029611582,63.229916,156.9064,0.0047884034,1442826,-113,568,3249,10191
86522469,4000,0,0.5568749,-0.19348954,-9.610123,-0.00070010265,-0.009742529,-0.031262625,63.221607,156.9064,0.0047884034,1442826,-6,396,2205,10188
86626469,3967,0,-0.027555073,-0.30716723,-9.573979,0.0023773925,0.0073862667,-0.04111731,63.249306,156.9064,0.0047884034,1442826,-15,-404,3304,10198
86730469,4000,0,0.054293945,1.1661203,-9.350763,-0.0020645391,0.0042151273,-0.037876826,63.243767,156.9064,0.0047884034,1442826,-226,332,2806,10196
86832093,4000,0,0.30832073,1.114525,-9.057427,-0.007283671,0.0094153695,-0.037740942,63.216064,156.9064,0.0047884034,1442826,724,229,3009,10186
86936093,3972,0,0.41422635,-0.66940606,-10.139708,0.004615095,-0.008617082,-0.043544803,63.221607,156.9064,0.0047884034,1442826,277,-3,1225,10188
87036093,3996,0,0.4515587,-1.026912,-9.509507,-0.0075457944,-0.0071283816,-0.03649369,63.25485,156.9064,0.0047884034,1442826,-659,911,3057,10200
87136134,4035,0,-0.41087258,-0.7823805,-9.959044,-0.0071306764,0.014394844,-0.03792007,63.260387,156.9064,0.0047884034,1442826,366,-32,1725,10202
87240107,4014,0,0.04077581,0.9872412,-9.574843,-0.0016035205,-0.00017160154,-0.0336634,63.227146,156.9064,0.0047884034,1442826,-119,-56,441,10190
87340093,4000,0,0.208031,0.64634967,-9.760521,0.0004143722,-0.005947613,-0.035809916,63.243767,156.9064,0.0047884034,1442826,12,465,1260,10196
87440114,3957,0,0.41870916,0.051589496,-9.80128,-0.0052715875,0.0047015036,-0.0508893,63.224377,156.9064,0.0047884034,1442826,845,156,1042,10189
87544118,4004,0,0.12828107,-0.97429407,-10.361671,0.0066851126,-0.002802639,-0.047965623,63.246536,156.9064,0.0047884034,1442826,730,-207,1189,10197
87644114,3962,0,0.1202954,-0.4578409,-9.284281,-0.0048894524,0.004750541,-0.027423855,63.252075,156.9064,0.0047884034,1442826,-909,568,3046,10199
87744161,4047,0,-0.41055697,0.8315256,-9.574299,-0.011113032,0.008452311,-0.0509213,63.235455,156.9064,0.0047884034,1442826,-639,-561,882,10193
87849695,4002,0,0.2957888,0.5959512,-9.450473,-0.00052563567,-0.012343736,-0.027494764,63.277008,156.9064,0.0047884034,1442826,921,382,3921,10208
87949698,3997,0,0.46161205,-0.19415306,-10.028054,-0.005245991,-0.009145708,-0.03919088,63.29086,156.9064,0.0047884034,1442826,879,734,2437,10213
88049704,4011,0,0.082509376,-0.8371907,-9.757342,-0.0006662507,0.004730901,-0.038461328,63.238228,156.9064,0.0047884034,1442826,-488,257,3041,10194
88153693,3988,0,-0.18825659,0.54742277,-9.3854885,0.0063943537,0.0058516227,-0.026550658,63.29363,156.9064,0.0047884034,1442826,-375,107,3404,10214
88253693,3994,0,0.22032933,1.1262223,-9.41215,-0.0040923455,0.004949742,-0.030536601,63.285316,156.9064,0.0047884034,1442826,-501,326,1786,10211
88353700,4001,0,-0.11781637,0.83835,-9.624437,-0.011665565,0.0018651807,-0.04579104,63.277008,156.9064,0.0047884034,1442826,-451,-18,814,10208
88457693,4000,0,0.37234315,-0.20905422,-10.17371,0.0086797215,-0.0071938448,-0.031039845,63.29086,156.9064,0.0047884034,1442826,1020,503,1874,10213
88557699,3967,0,0.37793583,-1.3077407,-10.004958,-0.0016694639,-0.005818751,-0.03909468,63.268696,156.9064,0.0047884034,1442826,321,619,2910,10205
88658492,3975,0,0.29430428,-1.3546052,-9.641631,-0.00532231,0.007032683,-0.03679554,63.277008,156.9064,0.0047884034,1442826,-1577,511,2241,10208
88759293,3961,0,-0.47467035,0.3399051,-9.425393,-0.005345336,0.007989068,-0.03644647,63.27147,156.9064,0.0047884034,1442826,-542,-834,1816,10206
88863334,4037,0,0.3754689,0.62401605,-9.24394,0.0015009764,-0.0059438674,-0.008597532,63.30748,156.9064,0.0047884034,1442826,608,330,2584,10219
88963293,3996,0,0.59158915,-0.08392382,-9.977617,-0.010936111,-0.0068453066,-0.045831252,63.279778,156.9064,0.0047884034,1442826,-473,703,1635,10209
89067295,3988,0,0.20369238,-0.69792825,-10.488988,0.011109496,0.0027165045,-0.04050733,63.285316,156.9064,0.0047884034,1442826,21,-87,-572,10211
89171298,4006,0,-0.21740492,1.1439964,-9.537307,-0.011027794,0.011954767,-0.04527341,63.299168,156.9064,0.0047884034,1442826,-241,-166,1393,10216
89271299,3979,0,-0.3649203,1.4787482,-9.344513,0.0011015985,0.0030849352,-0.047858573,63.268696,156.9064,0.0047884034,1442826,-451,-718,2939,10205
89375293,3988,0,0.7164359,0.03289036,-9.754109,-0.010709707,-0.00897223,-0.040615205,63.318558,156.9064,0.0047884034,1442826,-290,699,3180,10223
89475329,3999,0,-0.07597055,-0.4507888,-9.567532,-0.0053184847,0.0019166993,-0.03921008,63.257618,156.9064,0.0047884034,1442826,413,-312,3081,10201
89575339,4045,0,-0.3823391,-0.6382996,-10.276714,0.0038420507,0.00087269256,-0.040684056,63.282547,156.9064,0.0047884034,1442826,820,-442,2532,10210
89676895,3982,0,0.18015967,0.31849307,-9.84901,0.01136968,0.0020349855,-0.02488476,63.304707,156.9064,0.0047884034,1442826,161,218,2608,10218
89780888,4011,0,-0.061337247,1.0902376,-9.249471,-0.008144821,0.0035309936,-0.039674204,63.2964,156.9064,0.0047884034,1442826,-774,-318,2558,10215
89880879,4010,0,-0.34921873,0.86637735,-9.161625,-0.0074695405,0.0052423943,-0.06222059,63.31302,156.9064,0.0047884034,1442826,210,-450,3601,10221
89980869,4000,0,-0.028921627,-0.23180671,-9.651042,0.0047494676,-0.010320196,-0.03834845,63.318558,156.9064,0.0047884034,1442826,542,-878,2513,10223
90084869,3964,0,0.08899522,-1.2956468,-9.755053,-0.011660852,-0.0037652964,-0.034618735,63.318558,156.9064,0.0047884034,1442826,-1216,336,1373,10223
90184875,4006,0,-0.33824492,-0.34641093,-9.618655,-0.008250161,0.010577772,-0.026039764,63.304707,156.9064,0.0047884034,1442826,-621,-163,2095,10218
90284869,3977,0,-0.34981158,0.9851773,-9.584462,-0.00650567,0.0040130937,-0.038154323,63.34349,156.9064,0.0047884034,1442826,-558,-287,3005,10232
90388869,3934,0,0.2607767,0.7668598,-9.808268,0.0061444584,-0.0092206905,-0.037798744,63.30748,156.9064,0.0047884034,1442826,595,108,2316,10219
90488912,4032,0,0.30714697,-0.14042456,-10.209576,-0.0027077177,-0.011516176,-0.056691952,63.337948,156.9064,0.0047884034,1442826,-727,141,205,10230
90590520,3977,0,0.3974706,-0.6791816,-9.93341,-0.003944973,0.008237828,-0.03637614,63.321327,156.9064,0.0047884034,1442826,609,-30,1646,10224
90694517,4003,0,-0.08002542,0.5932148,-9.4415045,0.004180802,0.011618147,-0.041003134,63.36011,156.9064,0.0047884034,1442826,707,146,1411,10238
90794561,4047,0,0.118825175,0.9734829,-9.13108,-0.0014239205,0.005636373,-0.02985247,63.32687,156.9064,0.0047884034,1442826,159,571,1560,10226
90894514,4000,0,0.24293822,0.74544346,-9.339616,-0.005991676,0.008142825,-0.032231033,63.36288,156.9064,0.0047884034,1442826,235,935,2689,10239
90998514,4000,0,0.21292505,-0.80665004,-10.665389,0.0083978865,-0.006712673,-0.035614,63.34349,156.9064,0.0047884034,1442826,842,239,2150,10232
91102514,4000,0,0.051546395,-0.76888436,-9.888602,-0.0063787526,0.0119072385,-0.036149662,63.34072,156.9064,0.0047884034,1442826,-844,-92,1897,10231
91202514,3969,0,-0.3131164,0.44253045,-9.93798,-0.0020926986,0.003603115,-0.052386306,63.337948,156.9064,0.0047884034,1442826,472,-520,1621,10230
91306516,3960,0,0.34458163,0.45570296,-9.980474,-0.0019711787,-0.004170465,-0.038110662,63.3241,156.9064,0.0047884034,1442826,-111,321,1120,10225
91406548,4028,0,-0.06407239,-0.2779299,-9.528732,-0.007440904,-0.0033809403,-0.033966955,63.34903,156.9064,0.0047884034,1442826,-968,-151,2557,10234
91508112,3976,0,-0.093981236,-0.20930107,-10.125277,-0.0009039934,0.002470473,-0.041144177,63.3795,156.9064,0.0047884034,1442826,1095,-363,1603,10245
91612093,3988,0,0.180304,-0.12690972,-10.03631,-0.0022791915,-0.0030656508,-0.035193373,63.36288,156.9064,0.0047884034,1442826,5,553,988,10239
91712107,4014,0,-0.403735,1.2263756,-9.450759,-0.009955253,0.008787266,-0.0415658,63.3795,156.9064,0.0047884034,1442826,-733,340,2763,10245
91812093,4001,0,-0.10118509,1.5300038,-8.722945,-0.008801063,0.008512487,-0.045747697,63.38781,156.9064,0.0047884034,1442826,328,-149,3904,10248
91916093,3997,0,0.45739087,0.16454771,-10.20867,0.004401412,-0.0087527465,-0.04885798,63.337948,156.9064,0.0047884034,1442826,675,219,1647,10230
92016099,3980,0,0.14379682,-0.78139544,-10.051435,0.006504006,0.0008086683,-0.04608203,63.34072,156.9064,0.0047884034,1442826,-1243,334,1096,10231
92116099,3998,0,0.09643276,-0.46155673,-9.784972,-0.00064921746,0.012159321,-0.031547572,63.396122,156.9064,0.0047884034,1442826,456,359,1017,10251
92220093,3990,0,-0.120809816,1.1316233,-9.047494,0.0103975,0.01062934,-0.020156082,63.36011,156.9064,0.0047884034,1442826,583,2,2912,10238
92320093,4000,0,0.6248544,1.2227733,-9.68164,0.008903042,0.00093436724,-0.02860195,63.37396,156.9064,0.0047884034,1442826,444,276,440,10243
92421704,3996,0,0.5983568,-0.084414415,-9.849796,-0.0019584193,-0.0033135554,-0.02994711,63.38781,156.9064,0.0047884034,1442826,-613,146,1722,10248
92521699,3991,0,0.28090912,-0.4806105,-10.029606,-0.006899398,-0.0031901742,-0.029995311,63.36288,156.9064,0.0047884034,1442826,-460,127,1576,10239
92625736,4044,0,-0.306207,0.12784165,-9.820009,0.0052288915,0.0151434215,-0.042314343,63.36842,156.9064,0.0047884034,1442826,688,-65,2996,10241
92725745,4052,0,-0.07963255,0.59286237,-9.151849,0.005991889,0.0027751583,-0.054136664,63.396122,156.9064,0.0047884034,1442826,-1409,-346,1178,10251
92825693,4001,0,-0.046677183,1.1551577,-8.850957,0.009800825,0.0061340057,-0.024601858,63.38781,156.9064,0.0047884034,1442826,812,-491,3213,10248
92929710,4018,0,0.24912162,-0.24713275,-10.480733,0.009001982,-0.009527724,-0.060361955,63.39058,156.9064,0.0047884034,1442826,95,-634,-831,10249
93033708,4015,0,-0.049771436,-1.4138246,-10.709562,-0.0009769411,-0.001826686,-0.038997196,63.412743,156.9064,0.0047884034,1442826,-480,8,-582,10257
93133719,3978,0,0.00900229,-0.31061557,-9.931486,0.004172699,0.0017588818,-0.028734533,63.39058,156.9064,0.0047884034,1442826,212,349,1714,10249
93233693,3999,0,-0.0022360457,0.92545575,-9.434582,0.01028458,0.003835204,-0.021726355,63.42105,156.9064,0.0047884034,1442826,-63,521,4814,10260
93335311,4012,0,0.37781656,1.0499928,-9.600007,0.00086487614,-0.015412628,-0.050543696,63.396122,156.9064,0.0047884034,1442826,-225,17,3336,10251
93435271,3990,0,0.15945153,0.45897943,-9.950557,0.005963176,-0.008204015,-0.056151368,63.426594,156.9064,0.0047884034,1442826,-32,-155,1534,10262
93539269,4000,0,0.24840315,-1.1005857,-9.926479,-0.011493549,-0.0054914244,-0.062107705,63.432133,156.9064,0.0047884034,1442826,-864,887,3203,10264
93643279,4010,0,-0.5723307,-0.09545555,-10.05067,-0.01215406,0.011231853,-0.054685008,63.42382,156.9064,0.0047884034,1442826,-257,-771,64,10261
93743269,3987,0,-0.53873634,0.9241584,-9.440899,-0.007838734,0.017269393,-0.03726973,63.393353,156.9064,0.0047884034,1442826,239,-305,2377,10250
94564939,4025,0,0.38494426,-1.1028125,-10.214157,0.0012933414,-0.009466523,-0.038434863,63.42382,156.9064,0.0047884034,1442826,-679,664,2826,10261
94664914,4000,0,-0.13652302,-0.6199799,-9.87447,-3.4521916e-05,-0.0046191695,-0.037226066,63.432133,156.9064,0.0047884034,1442826,-776,297,806,10264
94764914,4022,0,0.1208163,0.8798968,-9.203136,-0.004144448,0.0036164143,-0.0072920434,63.454292,156.9064,0.0047884034,1442826,509,611,2362,10272
94868869,3977,0,-0.46710563,0.9985141,-9.376143,-0.001995212,-0.00026998532,-0.060071666,63.45706,156.9064,0.0047884034,1442826,-29,-802,2599,10273
94968869,3963,0,-0.33711892,-0.045696836,-9.625837,0.0013188331,-0.0017594865,-0.043274116,63.470913,156.9064,0.0047884034,1442826,663,-592,2332,10278
95072869,3992,0,0.62368387,-0.94885087,-10.194603,0.008142172,-0.0053847036,-0.040942874,63.462605,156.9064,0.0047884034,1442826,-79,513,909,10275
95174493,4001,0,-0.12769659,0.19466019,-9.794557,-0.008173457,0.0038545397,-0.05603246,63.470913,156.9064,0.0047884034,1442826,-574,100,-654,10278
95274493,3989,0,0.27223536,1.158111,-9.228995,0.001181714,0.012226583,-0.033850767,63.473682,156.9064,0.0047884034,1442826,446,1123,2324,10279
95374499,3961,0,0.18032445,0.8929208,-9.355386,-4.5654015e-05,-0.013563956,-0.045009196,63.487534,156.9064,0.0047884034,1442826,-851,36,833,10284
95478543,4050,0,0.19409432,-0.5831693,-9.558875,-0.011176134,-0.0033170532,-0.069301575,63.462605,156.9064,0.0047884034,1442826,-759,-277,1815,10275
95578519,4026,0,0.10245365,-0.5259498,-9.468413,-0.0064185243,0.010033893,-0.033866387,63.484764,156.9064,0.0047884034,1442826,477,261,3344,10283
95682493,4000,0,-0.39814675,0.5918369,-9.603141,0.008146973,0.0020925584,-0.044759773,63.493073,156.9064,0.0047884034,1442826,-424,-637,1593,10286
95782514,3993,0,-0.24343589,1.1282017,-9.324951,0.012930676,0.004773224,-0.041898467,63.462605,156.9064,0.0047884034,1442826,347,-328,3811,10275
95882521,3998,0,-0.10106005,1.2639242,-8.85515,0.0010348053,0.0061187604,-0.04455516,63.484764,156.9064,0.0047884034,1442826,438,-256,2873,10283
95986524,3977,0,0.022417331,-0.29912707,-10.131973,0.0023820938,-0.010329739,-0.058261406,63.487534,156.9064,0.0047884034,1442826,-35,-725,641,10284
96090569,4055,0,-0.24175426,-0.51645947,-10.079358,0.008608721,-0.004195089,-0.032787137,63.445984,156.9064,0.0047884034,1442826,-455,258,2471,10269
96192099,4006,0,-0.029841239,0.6258451,-9.750435,0.0031665717,4.1160034e-05,-0.038474403,63.487534,156.9064,0.0047884034,1442826,-637,274,1438,10284
96292181,4083,0,0.13515086,1.1757747,-9.604052,0.009880114,-0.005608782,-0.038556173,63.487534,156.9064,0.0047884034,1442826,227,-113,2483,10284
96396101,4009,0,0.6090208,0.270836,-9.732934,0.0049424362,-0.00363775,-0.037118375,63.506924,156.9064,0.0047884034,1442826,1004,598,2501,10291
96496093,4000,0,0.50842214,-0.49917832,-10.246009,0.0060053407,-0.0088827405,-0.05231367,63.529083,156.9064,0.0047884034,1442826,1109,590,1214,10299
96600092,3980,0,0.26874915,-0.9579119,-9.841237,-0.0066265124,0.008096985,-0.018026935,63.495846,156.9064,0.0047884034,1442826,-39,685,3109,10287
96700093,3984,0,-0.4026247,0.023407325,-10.053925,-0.0059836386,0.0073003345,-0.04107464,63.495846,156.9064,0.0047884034,1442826,-302,-421,-420,10287
96800092,3970,0,-0.13824324,1.0621246,-9.11811,-0.0049354127,0.00075451366,-0.03459088,63.537395,156.9064,0.0047884034,1442826,-571,439,1909,10302
96904093,3988,0,-0.10626625,0.7674148,-9.729378,0.0015786507,-0.004762085,-0.055346604,63.501385,156.9064,0.0047884034,1442826,130,-487,2086,10289
97004103,4010,0,0.28926602,-0.3095006,-9.9809475,0.013040914,-0.008579169,-0.04025377,63.504154,156.9064,0.0047884034,1442826,58,-277,3007,10290
97105692,3965,0,0.21645476,-1.5662042,-10.444496,0.0036507691,-0.005289334,-0.040260043,63.515236,156.9064,0.0047884034,1442826,364,327,2983,10294
