timestamp,integral_dt,error_count,x,y,z,x_integral,y_integral,z_integral,temperature,range_m_s2,scaling,device_id,x_raw,y_raw,z_raw,temperature_raw
52482573,4219,0,0.2519514,-0.9022504,-10.194455,0.0024393979,0.0048753326,-0.04742467,28.125,78.0,0.0023928226,1114658,437,823,-1640,2276
52587573,4156,0,-0.102092594,1.417037,-9.758975,-0.00043165463,-0.0006566969,-0.041163273,28.0,78.0,0.0023928226,1114658,204,264,-2898,2049
52688358,4155,0,0.05532972,-1.5698149,-10.539361,0.00551662,0.011566313,-0.04565836,28.125,78.0,0.0023928226,1114658,-1840,486,-4491,8193
52793354,4195,0,-0.6828766,-2.9806871,-10.516985,-0.0024076356,0.005878977,-0.04096733,28.125,78.0,0.0023928226,1114658,-1404,1770,-3090,8193
52894159,4205,0,-0.4738865,-2.467704,-10.767073,-0.0032925392,-0.0067083146,-0.04394936,28.0,78.0,0.0023928226,1114658,1164,812,-2839,17
52992855,4201,0,-0.45991144,-1.067205,-10.725985,-0.0030260293,-0.0034612364,-0.042678636,28.125,78.0,0.0023928226,1114658,1259,431,-3312,8193
53095754,4165,0,0.21971422,-0.10149623,-10.056366,0.0052921944,0.012136391,-0.035229366,28.125,78.0,0.0023928226,1114658,-634,729,-4387,16865
53196554,5190,0,0.40497646,1.0822417,-9.716292,7.67905e-05,0.0040278235,-0.049950004,28.0,78.0,0.0023928226,1114658,743,567,-2639,17
53299467,5263,0,-0.2391633,-0.4574591,-9.878638,-0.002710528,-0.010274918,-0.05155173,28.0,78.0,0.0023928226,1114658,1356,-424,-4221,4448
53401304,4200,0,-0.26962712,-0.2735452,-9.92963,0.0039722314,0.013359709,-0.040326443,28.125,78.0,0.0023928226,1114658,-913,1616,-4415,4452
53502104,4200,0,0.6891131,1.7508105,-9.775206,0.007399788,0.0122025525,-0.04130288,28.0,78.0,0.0023928226,1114658,1473,385,-3779,2292
53602904,5241,0,0.46937883,0.753902,-10.113491,-0.011009569,-0.010798384,-0.054999456,28.0,78.0,0.0023928226,1114658,2395,-928,-3140,4452
53705805,5251,0,-1.1984775,-1.4738334,-10.206308,-0.000102572114,0.0020234073,-0.05183273,28.125,78.0,0.0023928226,1114658,983,762,-2467,2294
53805556,4202,0,0.33126134,0.22126572,-10.044825,0.013839491,0.014011227,-0.0414524,28.125,78.0,0.0023928226,1114658,-632,1629,-3274,16865
53908520,4254,0,0.51331407,0.9684351,-9.845107,-0.01613014,-0.0055743223,-0.04154929,28.0,78.0,0.0023928226,1114658,994,-1366,-2385,2049
54009254,5251,0,-0.9257528,-0.89685047,-10.047653,-0.0014419914,-0.0015041924,-0.05437433,28.125,78.0,0.0023928226,1114658,-1084,712,-2448,4462
54110054,4183,0,0.877833,1.0100315,-10.110368,0.0070670983,0.013667925,-0.04198334,28.0,78.0,0.0023928226,1114658,790,1053,-3883,2289
54215054,5203,0,-1.6534803,-1.2081435,-10.222189,0.009782825,0.02130187,-0.053189583,28.125,78.0,0.0023928226,1114658,-160,2666,-3410,4472
54312703,4199,0,1.2331369,0.49098772,-9.770202,-0.013338578,-6.5739325e-05,-0.041566532,28.0,78.0,0.0023928226,1114658,-841,-1489,-5106,17
54415607,4194,0,0.4516307,-0.41772044,-9.885915,-0.01890338,-0.019209947,-0.035910495,28.125,78.0,0.0023928226,1114658,1525,-1832,-3231,16865
54516415,4163,0,-0.15717937,0.17945316,-11.243025,0.009527686,0.017775385,-0.05176859,28.125,78.0,0.0023928226,1114658,-350,3099,1565,4491
54616200,4246,0,-0.35541254,0.8460185,-10.061652,-0.020865923,-0.02877821,-0.044361934,28.0,78.0,0.0023928226,1114658,5074,3,-1529,4488
54721164,4191,0,1.6030985,0.25937277,-10.392067,0.024126641,-0.0039951713,-0.046205312,28.125,78.0,0.0023928226,1114658,-1393,-1192,-1170,4492
54821988,4168,0,-0.8379188,0.9474262,-10.140248,-0.0146764135,-0.017308015,-0.018480767,28.0,78.0,0.0023928226,1114658,3120,751,317,2049
55539110,4206,0,0.9643648,-0.40902257,-9.578495,-0.02167914,-0.009303678,-0.034261294,28.125,78.0,0.0023928226,1114658,-555,-6004,-3384,17
55639903,4199,0,0.18019836,0.115628794,-10.608469,-0.030408453,0.0055175796,-0.05075524,28.125,78.0,0.0023928226,1114658,439,-1506,-3210,17
55740703,4199,0,-0.5253903,0.17831753,-9.820562,-0.00380473,-0.0005285516,-0.04637243,28.0,78.0,0.0023928226,1114658,466,2107,-7562,8193
55841503,4199,0,0.26138034,0.8071667,-10.774308,0.005801591,0.00033812234,-0.05838534,28.0,78.0,0.0023928226,1114658,-464,-734,1044,2049
55946550,4247,0,-1.3330959,0.1944536,-10.598201,-0.020370826,0.0054856474,-0.044410974,28.125,78.0,0.0023928226,1114658,-1504,2366,-2438,2312
56051504,5250,0,-0.66454005,0.3249775,-11.54889,0.029218918,0.010601906,-0.0691618,28.125,78.0,0.0023928226,1114658,1209,5070,-2287,4552
56152303,4161,0,0.19640245,-0.7278364,-11.1560335,0.0043271286,-0.0041609793,-0.05503495,28.125,78.0,0.0023928226,1114658,212,-341,-9003,4542
56252054,4200,0,-0.35493305,-0.16611598,-11.922854,-0.0030649686,0.0007020914,-0.038920958,28.125,78.0,0.0023928226,1114658,469,-1599,-5820,17
56357054,4199,0,-1.3397093,0.9797911,-11.219167,-0.00830802,0.019634709,-0.03528756,28.125,78.0,0.0023928226,1114658,136,7076,-2277,2324
56457871,4217,0,-0.1350153,0.84782034,-11.834093,0.009149529,0.0066909394,-0.034794778,28.125,78.0,0.0023928226,1114658,-657,2632,-2036,8193
56562854,4180,0,-0.47759312,-0.65144366,-11.979947,-0.0053318394,3.2767966e-05,-0.05436706,28.25,78.0,0.0023928226,1114658,-1422,550,-6190,8193
56665797,4243,0,0.0023490842,-0.4824139,-12.102048,-0.00016676693,0.00728462,-0.068468645,28.125,78.0,0.0023928226,1114658,-831,-126,-3976,4560
56761337,4221,0,-1.081049,-0.22078782,-12.435483,-0.008215035,0.0099072745,-0.033767935,28.125,78.0,0.0023928226,1114658,-1214,1644,288,17
56866313,4209,0,-0.288234,1.9861263,-10.529727,0.0068485304,0.010848017,-0.05493627,28.125,78.0,0.0023928226,1114658,-60,1549,-3239,8192
56967103,5239,0,0.31811684,-0.11969974,-10.361224,0.015297498,-0.0066897967,-0.053645615,28.125,78.0,0.0023928226,1114658,522,-349,-9163,4569
57069023,4270,0,0.30156693,-0.67336744,-10.475759,-0.012863064,0.0038320378,-0.050537366,28.125,78.0,0.0023928226,1114658,-356,-1850,-146,4590
57167662,4193,0,0.21348293,-0.19519837,-9.611294,0.009341401,-0.0011826891,-0.044605285,28.125,78.0,0.0023928226,1114658,-170,-319,-8161,0
57272653,4200,0,-1.0964303,1.3871129,-9.411892,-0.009325984,0.007071284,-0.023431405,28.25,78.0,0.0023928226,1114658,1477,3906,-6290,8192
57375553,4119,0,0.25000054,0.28485262,-11.771003,0.021510025,-0.013574734,-0.069309436,28.375,78.0,0.0023928226,1114658,2929,-1915,-1826,16867
57476397,4186,0,-0.71201134,-0.6622883,-10.669939,-0.00071534433,-0.0009579008,-0.028580455,28.25,78.0,0.0023928226,1114658,784,3597,-1963,17
57577201,4153,0,0.1823005,-0.3852987,-10.81298,-0.008491719,0.003577191,-0.03760161,28.25,78.0,0.0023928226,1114658,-888,-962,-2094,17
57676926,4211,0,-0.97242165,0.7734505,-9.688003,-0.011086769,0.012413095,-0.037183512,28.125,78.0,0.0023928226,1114658,597,1771,-2461,2348
57777752,4249,0,-1.3199517,1.188763,-9.43525,-0.0075717866,0.004028034,-0.026998095,28.25,78.0,0.0023928226,1114658,1213,4724,-2436,2345
57882705,4151,0,-0.7390341,-0.6892373,-8.93924,0.012197239,0.0013705592,-0.050467756,28.375,78.0,0.0023928226,1114658,158,3538,-2793,4606
57983504,4144,0,-1.5926932,0.26220378,-8.584779,-0.01138907,0.0085246535,-0.022208277,28.125,78.0,0.0023928226,1114658,1776,3223,-747,4620
58082203,5149,0,0.3555296,0.5445216,-8.9766655,0.025164101,-0.0007759005,-0.04053001,28.25,78.0,0.0023928226,1114658,394,-45,-4050,8192
58186166,4212,0,0.17461367,1.2842871,-9.455958,0.017424617,-0.0077609443,-0.02130347,28.25,78.0,0.0023928226,1114658,2743,-506,593,2049
58286954,4200,0,-0.88583666,0.08203587,-9.407402,0.010812122,-0.0024965175,-0.035833754,28.25,78.0,0.0023928226,1114658,1656,4416,-4914,8192
58387754,4170,0,0.319073,-0.65447986,-9.589893,-0.017828455,-0.004585874,-0.021067925,28.25,78.0,0.0023928226,1114658,51,-1917,-3347,0
58488554,5219,0,0.064402275,0.37413198,-9.092123,0.017802117,0.008221326,-0.069220655,28.125,78.0,0.0023928226,1114658,806,-11,-4396,4622
58592505,4194,0,-0.9149303,0.24677469,-7.890301,0.028748682,-0.0053720307,-0.024081388,28.25,78.0,0.0023928226,1114658,-1724,3696,-9126,2048
58691204,4201,0,1.1975685,0.10965244,-9.400773,0.03779064,-0.0018943656,-0.047574967,28.375,78.0,0.0023928226,1114658,4081,-282,-1690,17
58792042,4235,0,-0.21232831,-0.8066389,-8.225468,-0.023709781,0.009883288,-0.011555859,28.25,78.0,0.0023928226,1114658,-2864,-1042,-613,2049
58897064,4261,0,-0.36219794,0.9905073,-8.199876,-0.011558933,0.008157191,-0.035141945,28.375,78.0,0.0023928226,1114658,2570,-1608,-3208,4646
58997823,5269,0,0.503295,0.66493034,-8.610403,0.038625084,-0.009952668,-0.032492403,28.25,78.0,0.0023928226,1114658,1229,4877,-872,4657
59097553,4199,0,0.8078468,-0.24381119,-8.535118,-0.009741703,0.001707367,-0.012164476,28.25,78.0,0.0023928226,1114658,1237,-2029,-7467,17
59198355,4185,0,-0.9889572,-0.23030299,-8.482877,-0.009439327,-0.009878495,-0.038273666,28.375,78.0,0.0023928226,1114658,-56,260,-7763,8193
59303400,4242,0,-0.89705616,0.40670878,-9.42864,-0.023253879,-0.0058198245,-0.033768732,28.25,78.0,0.0023928226,1114658,151,1470,2083,8193
59404214,5310,0,1.2731553,-0.03554713,-9.73107,0.011355128,-0.014804182,-0.05862924,28.25,78.0,0.0023928226,1114658,1852,-4541,-4709,4667
59501804,4163,0,-1.1532657,-0.7816191,-9.690889,-0.0009432709,0.0075803665,-0.046348866,28.375,78.0,0.0023928226,1114658,-247,4644,-3885,4662
59606819,4168,0,-0.5907939,0.50296986,-10.302269,-0.004083392,0.00923741,-0.07084695,28.25,78.0,0.0023928226,1114658,2142,2783,3513,2049
59707621,4196,0,-0.595848,1.2334446,-9.028922,0.019920047,0.0016306962,-0.044727094,28.25,78.0,0.0023928226,1114658,482,4127,-2665,2048
59808404,4184,0,-1.5515263,1.1361662,-9.350979,-0.013409997,0.00024952664,-0.053134847,28.125,78.0,0.0023928226,1114658,1010,3765,-9562,4689
59907103,5247,0,0.6705237,0.10722515,-9.949019,-0.010710514,-0.011555822,-0.025332352,28.25,78.0,0.0023928226,1114658,2917,-128,786,17
60012154,4250,0,-1.2186862,-0.65576977,-9.295977,-0.009445991,-0.007374255,-0.051699966,28.375,78.0,0.0023928226,1114658,-1607,5270,-622,4691
60112946,5268,0,-1.5625348,0.9901051,-8.783041,-0.012902448,0.016232086,-0.03392787,28.25,78.0,0.0023928226,1114658,2520,4995,-1811,2381
60215840,5224,0,-0.49847946,0.10312645,-9.11953,-0.035576504,-0.0003262874,-0.05592848,28.25,78.0,0.0023928226,1114658,-2257,699,-4393,2049
60319754,4152,0,-0.39586756,-1.0295942,-10.566357,-0.015131412,0.00187513,-0.08073863,28.25,78.0,0.0023928226,1114658,1519,-485,-548,4705
60416354,4115,0,-0.2706661,-0.62055993,-10.837231,-0.009668214,0.002910164,-0.024557725,28.25,78.0,0.0023928226,1114658,3802,-506,-509,8193
60519254,4180,0,0.17676334,0.7374015,-10.500883,0.00053505355,0.013038416,-0.009715683,28.25,78.0,0.0023928226,1114658,71,-134,-988,8193
60622159,4205,0,-0.005554715,1.6732134,-10.163275,-0.002161708,-0.0051470073,-0.07844726,28.375,78.0,0.0023928226,1114658,2270,-2535,-7792,4713
60722954,4200,0,0.26309955,-0.7055449,-10.01551,-0.021377875,-0.0075087114,-0.029939909,28.25,78.0,0.0023928226,1114658,-392,-1387,-3533,2380
60825863,4210,0,-1.1558685,-1.0850589,-9.975289,0.0079517905,0.0045906203,-0.03999885,28.25,78.0,0.0023928226,1114658,1570,3421,-12781,8193
60928754,4200,0,0.37615627,0.045939147,-11.474098,0.0012678783,0.003978811,-0.055069126,28.375,78.0,0.0023928226,1114658,1432,-3927,3687,17
61027482,5279,0,-0.4570569,1.0024704,-11.162425,-0.0195467,0.010083955,-0.044443958,28.375,78.0,0.0023928226,1114658,1816,-927,1830,4726
61129312,4208,0,-0.024327751,0.4528938,-10.981577,-0.0041727605,-0.006023651,-0.059480812,28.25,78.0,0.0023928226,1114658,37,867,-1848,4741
61230125,4213,0,-0.42353338,-0.7409533,-11.603075,0.015380076,-0.011463794,-0.03812216,28.25,78.0,0.0023928226,1114658,1174,3470,-9240,8192
61333006,4202,0,-0.2662995,-0.52223915,-11.538004,-0.03537642,0.014806834,-0.034564592,28.375,78.0,0.0023928226,1114658,2298,-1402,-5358,4740
61433838,5285,0,-1.0990218,0.72417134,-11.171773,0.0053075324,0.004958971,-0.060748324,28.375,78.0,0.0023928226,1114658,930,3387,137,2400
61531454,4201,0,-0.37885752,1.1727096,-10.870788,-0.0047216257,0.0072338716,-0.051589746,28.5,78.0,0.0023928226,1114658,-112,863,-4528,4752
61638597,4244,0,0.31648338,-0.27338272,-12.497848,-0.011619623,-0.008780606,-0.05979923,28.375,78.0,0.0023928226,1114658,-268,-292,3840,4757
61739426,4267,0,-0.61833155,-1.5092888,-11.038367,-0.010968886,0.01012028,-0.042448513,28.375,78.0,0.0023928226,1114658,1251,1286,-9887,4761
61840228,5324,0,-0.53515625,-1.0152872,-10.862346,0.021892797,-0.0026020017,-0.05752597,28.375,78.0,0.0023928226,1114658,1032,508,-5229,4767
61937838,4235,0,-0.6168885,0.40418395,-10.102586,0.0099584805,0.01930339,-0.066130705,28.5,78.0,0.0023928226,1114658,1970,2241,-5490,2405
63081276,4214,0,-1.672738,-0.3762392,-9.8335085,-0.03120506,-0.00038298575,-0.031367894,28.5,78.0,0.0023928226,1114658,663,3398,-10529,17
63184267,4314,0,-0.89199805,-0.059690494,-10.62408,-0.029484162,0.014206662,-0.041579276,28.375,78.0,0.0023928226,1114658,1885,707,-769,17
63283903,4193,0,0.5662486,0.78463584,-10.469378,-0.011455941,-0.0016140688,-0.024417713,28.375,78.0,0.0023928226,1114658,1739,-894,-2549,4819
63386804,4193,0,0.26493034,1.8622568,-10.830368,-0.020526405,0.0015232814,-0.036748797,28.375,78.0,0.0023928226,1114658,1940,-2791,-1930,4830
63487604,4150,0,1.39029,0.22693256,-11.93781,0.011759323,-0.005212172,-0.05931048,28.5,78.0,0.0023928226,1114658,505,-3219,-1258,4822
63588404,4161,0,-0.025504787,-0.81638634,-11.628745,0.020821026,-0.0025708424,-0.062511735,28.5,78.0,0.0023928226,1114658,704,838,-6819,4837
63689203,5249,0,-0.09849938,-0.81076145,-12.098857,-0.0017888412,0.012003548,-0.07482036,28.375,78.0,0.0023928226,1114658,-185,3314,-5752,8192
63793206,4233,0,-0.63764787,1.5754604,-9.911657,0.0071317595,0.020465566,-0.074156776,28.5,78.0,0.0023928226,1114658,2401,2519,-1368,2049
63895003,5200,0,-0.7998566,0.6587739,-9.364082,-0.023504166,-0.009225634,-0.049782366,28.5,78.0,0.0023928226,1114658,1734,2040,-7358,17
63997951,5297,0,0.8479499,-1.0220666,-10.74086,0.025520546,-0.003443607,-0.04941099,28.25,78.0,0.0023928226,1114658,-1258,-1772,-979,17
64101861,6273,0,-1.374384,-0.24466093,-9.429399,0.0022950976,0.015845574,-0.07147753,28.5,78.0,0.0023928226,1114658,2685,3763,-3538,8193
64202656,4203,0,-0.022239449,1.2958564,-9.0521555,-0.019788776,0.009464608,-0.02282114,28.5,78.0,0.0023928226,1114658,1457,-454,-6614,4864
64303478,4225,0,-0.21512203,1.2698102,-10.109435,0.024630062,0.00690855,-0.05776109,28.625,78.0,0.0023928226,1114658,3163,3312,-7462,4862
64408457,4203,0,-1.7369665,-0.77739984,-8.555083,0.0048559178,0.0036786224,-0.055668335,28.5,78.0,0.0023928226,1114658,1771,3344,-8993,8192
64508204,4201,0,0.25046965,-0.55591786,-10.976604,-0.03060207,0.00018200451,-0.021026144,28.5,78.0,0.0023928226,1114658,1948,-2948,2823,8193
64610054,5251,0,-1.0744479,0.6865992,-9.162936,0.042553544,0.010352223,-0.05289715,28.5,78.0,0.0023928226,1114658,-787,4441,-6056,17
64714017,4199,0,-1.0458283,1.5149238,-9.803079,0.028697241,-0.0013073278,-0.041040312,28.625,78.0,0.0023928226,1114658,1711,4592,-7082,8193
64814804,4200,0,-0.52831113,-0.56186366,-9.634346,-0.03140648,-0.008836192,-0.03135658,28.5,78.0,0.0023928226,1114658,261,-746,-4042,4895
64915604,4201,0,0.5552146,-0.6299161,-10.288421,0.022260271,-0.0023135606,-0.0487916,28.5,78.0,0.0023928226,1114658,1470,-2321,-5445,16868
65020604,4200,0,0.04849833,0.7733526,-10.033143,0.029993223,0.002411499,-0.03434237,28.375,78.0,0.0023928226,1114658,-278,-2568,-407,17
65123504,4178,0,0.17802317,1.3922231,-9.4599695,0.024510967,0.0043971776,-0.061340075,28.375,78.0,0.0023928226,1114658,510,1772,-9753,4910
65223254,4182,0,-0.21230331,0.04053171,-9.735978,-0.022184813,-0.015670924,-0.043422718,28.625,78.0,0.0023928226,1114658,554,-2258,-9267,4902
65326159,4205,0,-0.013174542,-0.94239014,-10.391061,-0.026917677,-0.0037397395,0.002441383,28.625,78.0,0.0023928226,1114658,676,-130,-96,4906
65428004,5250,0,0.22518754,-0.36631072,-9.83828,0.0033453547,0.005331433,-0.035957314,28.5,78.0,0.0023928226,1114658,-173,-1873,-437,0
65525653,4199,0,-0.94590074,0.9588848,-9.08444,0.008039865,0.023194682,-0.053250946,28.5,78.0,0.0023928226,1114658,-728,3664,-2854,2049
65628554,4199,0,-0.68163496,1.0180112,-10.284081,0.012763238,0.0151267005,-0.05241038,28.625,78.0,0.0023928226,1114658,-30,3532,191,4926
65731469,4216,0,-0.88015944,-0.98402107,-10.428925,0.008095203,0.00738434,-0.045793436,28.625,78.0,0.0023928226,1114658,-1140,4404,-1420,8192
65832271,4218,0,-0.8330372,-1.0786632,-9.211057,-0.01617406,0.001624773,-0.041662306,28.5,78.0,0.0023928226,1114658,-2062,2266,-8826,4935
65932003,4197,0,-0.101844475,-0.22749746,-9.780223,-0.019755315,0.006281383,-0.037519813,28.625,78.0,0.0023928226,1114658,-639,-1796,-3204,17
66034925,4219,0,-0.706553,1.2860799,-9.735719,-0.029538514,0.00566826,-0.010189507,28.5,78.0,0.0023928226,1114658,1178,1134,-2828,4943
66139904,4164,0,-0.12597388,-0.32376802,-10.205203,0.015547686,-0.009896608,-0.046319187,28.5,78.0,0.0023928226,1114658,230,1976,-2361,8192
66240704,4200,0,-0.6392124,-1.484338,-10.362514,0.0014899916,0.0016219664,-0.017576238,28.625,78.0,0.0023928226,1114658,-135,2326,-3506,8193
66343618,4193,0,-1.0022007,0.11391063,-9.618148,0.010982297,0.015177555,-0.044919286,28.5,78.0,0.0023928226,1114658,-597,1740,-4238,2490
66444404,4198,0,-0.8930995,1.268111,-9.479393,0.015648667,0.012766679,-0.030553754,28.5,78.0,0.0023928226,1114658,-2347,2354,-4881,4963
66545204,4179,0,-1.6169807,1.5346009,-9.433219,0.00374483,0.0092887515,-0.060467876,28.625,78.0,0.0023928226,1114658,29,6886,-6413,4953
66647066,4212,0,-0.5724906,0.30733797,-9.648645,0.0071916385,-0.005583692,-0.063595235,28.625,78.0,0.0023928226,1114658,2368,2763,-4284,16
66749955,4159,0,-1.3749459,-1.2256652,-9.831178,0.011814719,0.011766671,-0.03494932,28.5,78.0,0.0023928226,1114658,1132,3605,-6847,4969
66852892,4238,0,-0.36928785,0.40961975,-9.398384,0.024036346,0.01891127,-0.063296095,28.625,78.0,0.0023928226,1114658,-68,1146,-5399,16
66951561,4108,0,-1.1051208,1.2449368,-9.597556,0.0020685701,0.010742671,-0.053879295,28.5,78.0,0.0023928226,1114658,-302,4698,-2377,2503
67056554,4178,0,0.70256245,0.31662038,-10.186162,0.031864967,-0.005304576,-0.038909893,28.5,78.0,0.0023928226,1114658,3209,-212,-6376,4988
67155291,5287,0,-0.8281493,-0.001850595,-9.696983,0.018677305,-0.008730269,-0.068181716,28.625,78.0,0.0023928226,1114658,1743,4855,-7462,16
67256053,4184,0,-0.9030081,-1.2267586,-10.381622,-0.004707222,-0.0023119315,-0.0646751,28.625,78.0,0.0023928226,1114658,-270,3097,-806,16869
67361063,5260,0,-0.44686073,1.0217829,-9.265057,0.011269781,0.010660162,-0.049539085,28.625,78.0,0.0023928226,1114658,1474,1603,-3623,4983
67465050,4245,0,0.8848915,1.307423,-10.329087,-0.0130452085,-0.014861639,-0.058246996,28.625,78.0,0.0023928226,1114658,1140,-485,-3436,4994
67567903,6299,0,0.57010245,-0.74166626,-10.736558,-0.0268765,-0.016423974,-0.0541623,28.625,78.0,0.0023928226,1114658,-726,651,-3947,16
67669797,5293,0,-1.1337805,-1.0385847,-9.893066,-0.025389781,0.0076399622,-0.044959612,28.625,78.0,0.0023928226,1114658,285,1408,-3885,5003
67769516,4213,0,-0.74281996,0.066283844,-9.361335,-0.015597503,0.018877706,-0.044646367,28.625,78.0,0.0023928226,1114658,-1074,-213,-4467,8192
67872450,4200,0,-1.1312548,1.7522154,-10.097034,-0.0058693998,0.018979352,-0.046966042,28.75,78.0,0.0023928226,1114658,1096,3314,-1568,16
67973204,4141,0,-0.89631367,1.3924743,-10.827507,-0.007813442,0.0028289226,-0.044959538,28.75,78.0,0.0023928226,1114658,1801,2522,2674,5030
68076129,5273,0,-0.8673712,-0.5727322,-10.848288,-0.0072134957,-0.012112858,-0.04113245,28.625,78.0,0.0023928226,1114658,3114,2053,-3489,2503
68176926,4202,0,-1.1833187,-0.9985409,-10.378009,-0.01854029,0.005155317,-0.031599768,28.625,78.0,0.0023928226,1114658,981,2462,-3300,2508
68276653,4200,0,-0.6522743,-0.22877437,-9.985561,-0.015447761,0.014387363,-0.048277333,28.625,78.0,0.0023928226,1114658,-451,-21,-1676,5034
68379554,4129,0,-0.84349513,0.5592056,-9.788463,-0.0013065735,0.013136333,-0.05021722,28.75,78.0,0.0023928226,1114658,-1491,2825,1237,16
68482458,4205,0,-0.7758705,1.0337951,-10.374355,0.034654044,-0.011321134,-0.041434675,28.625,78.0,0.0023928226,1114658,1028,5551,-2934,16
68585407,4249,0,0.37556633,-0.62942374,-11.131595,0.016806027,-0.01830964,-0.03905799,28.625,78.0,0.0023928226,1114658,661,-1406,-760,8193
68684054,4196,0,-0.0045446656,-0.85633653,-10.534791,0.00853029,0.005497738,-0.06425728,28.625,78.0,0.0023928226,1114658,2352,732,-3712,16
68786963,4210,0,-0.21636793,0.42851678,-9.966696,-0.0056671547,0.004602269,-0.048079744,28.625,78.0,0.0023928226,1114658,-1072,-2373,-1656,8193
68889936,4259,0,-0.9419683,1.1612401,-10.085589,0.0012134976,0.0030827553,-0.053150445,28.625,78.0,0.0023928226,1114658,3031,3624,-1158,16
68994865,4211,0,0.6317338,-0.6701915,-10.510122,0.0004660204,-0.0082124295,-0.033111718,28.75,78.0,0.0023928226,1114658,1450,-3269,-4908,8193
69095653,4195,0,-0.43737966,-1.0672052,-10.759031,-0.024089674,-0.0044577564,-0.041621324,28.625,78.0,0.0023928226,1114658,-1898,-2693,-1625,16869
69195448,4232,0,-0.915416,-0.30243298,-10.319406,-0.021054687,0.0131381145,-0.044938937,28.75,78.0,0.0023928226,1114658,-1899,365,2058,5064
69299427,5323,0,-0.6765683,1.6228307,-9.928212,0.019465476,0.012151828,-0.057023514,28.625,78.0,0.0023928226,1114658,317,2121,-4148,5080
69399104,4200,0,-0.4057359,0.87330735,-9.903214,0.02441806,-0.005238983,-0.058785934,28.75,78.0,0.0023928226,1114658,1056,2036,-3661,5071
69499903,4199,0,-0.8316694,-0.39641574,-10.42207,0.026804589,-0.00019515448,-0.064571105,28.75,78.0,0.0023928226,1114658,-813,4564,-5003,8192
69600704,4185,0,-0.7900111,-1.3671867,-10.4221525,0.009342246,0.0012029146,-0.0533268,28.625,78.0,0.0023928226,1114658,-470,2340,-8628,8193
69701504,4201,0,-1.8013792,-0.23261029,-9.416876,-0.0015267073,0.008715554,-0.03315125,28.75,78.0,0.0023928226,1114658,-2379,3259,-9577,2537
69806586,4283,0,0.42910236,2.00395,-9.930036,0.014408661,-0.0006191539,-0.037101544,28.625,78.0,0.0023928226,1114658,2821,-347,-1970,2540
69906253,4199,0,-0.44822165,1.5207525,-10.182791,0.027902283,-0.008229148,-0.04800596,28.625,78.0,0.0023928226,1114658,790,2592,-3090,5098
70009169,4195,0,-0.44250262,-0.28368688,-10.472097,0.026121462,-0.009265448,-0.050088447,28.625,78.0,0.0023928226,1114658,483,1724,-4532,2528
70112054,4200,0,-1.2631791,-1.290999,-9.590305,0.027512548,-0.0052953754,-0.0573059,28.75,78.0,0.0023928226,1114658,-1229,2505,-5208,8193
70212854,4200,0,-1.8555666,0.2629789,-9.432896,-0.012636604,0.010780191,-0.04663382,28.75,78.0,0.0023928226,1114658,-1746,4095,-7686,8193
70313654,4200,0,-0.9325935,1.3196857,-9.854853,-0.032787986,0.022785354,-0.056802556,28.625,78.0,0.0023928226,1114658,563,184,-1244,2542
70414488,5284,0,0.6198291,1.5467075,-10.306045,-0.01723772,-0.011133961,-0.04615785,28.75,78.0,0.0023928226,1114658,2548,-1729,-1159,2049
70515253,4200,0,0.5693441,0.2895056,-10.849434,0.023007397,-0.010499816,-0.049001925,28.75,78.0,0.0023928226,1114658,470,-62,53,5125
70615006,4202,0,-1.1525317,-0.6591849,-9.8522415,-0.0074699856,-0.00506395,-0.042706147,28.75,78.0,0.0023928226,1114658,173,3631,-2292,5128
70720003,4200,0,-1.4490794,-0.12065133,-9.987184,0.012777551,0.021161884,-0.061326683,28.75,78.0,0.0023928226,1114658,2099,5021,-1653,8192
70820803,4199,0,-0.34827906,0.7839941,-9.474208,-0.016430462,-0.0027014017,-0.009254644,28.625,78.0,0.0023928226,1114658,-872,-760,-6263,2049
70921604,4201,0,0.541049,1.2737867,-9.929287,-0.0047690445,-0.0007648037,-0.041575186,28.75,78.0,0.0023928226,1114658,-839,-2088,-1058,5128
71021362,4204,0,-0.52092594,0.79953235,-9.655677,0.0025001208,0.008348893,-0.06838152,28.75,78.0,0.0023928226,1114658,1496,4961,-1707,8193
71123204,5250,0,-0.6308459,-1.4518276,-9.749437,-0.02853421,-0.011939967,-0.03788044,28.875,78.0,0.0023928226,1114658,345,-919,-7711,8193
71227161,4182,0,-0.58642346,-0.42408285,-10.090576,-0.021257337,-0.000697761,0.0060313405,28.75,78.0,0.0023928226,1114658,226,-1095,-3185,5150
71329062,5269,0,0.45823315,1.4477181,-9.877113,0.0027793397,0.008953341,-0.053550728,28.875,78.0,0.0023928226,1114658,-1312,-2228,-842,5154
71428754,4197,0,-0.9893844,2.04778,-9.851144,-0.0031692695,0.0140470425,-0.06254074,28.875,78.0,0.0023928226,1114658,1850,4616,-1352,2553
71529553,4178,0,0.6866926,0.181182,-10.472497,-0.035570715,-0.0074832826,-0.009894241,28.75,78.0,0.0023928226,1114658,536,-3508,-4567,5159
71630355,4170,0,0.70153904,-0.97505474,-10.8306,0.015776543,-0.0045755785,-0.05429098,28.875,78.0,0.0023928226,1114658,-456,-2349,-3014,8193
71736404,4176,0,0.6723122,0.4482632,-10.211342,0.0035720076,0.014088334,-0.051822644,28.875,78.0,0.0023928226,1114658,-870,-3509,2432,2565
71837204,4198,0,-0.32914406,2.0323575,-9.487712,0.022610834,0.0073014623,-0.061274063,28.875,78.0,0.0023928226,1114658,1135,1951,-7917,5163
71938003,4162,0,-0.5424132,0.70628554,-10.153579,-0.008189856,-0.0019054711,-0.047860198,28.75,78.0,0.0023928226,1114658,553,-665,-4678,5178
72038839,5285,0,0.7401952,-0.66991585,-10.880295,-0.010021645,-0.012016199,-0.034777995,29.0,78.0,0.0023928226,1114658,-156,-2222,211,2049
72141765,5311,0,0.41562155,-1.1200585,-10.117855,-0.0035637878,0.005368554,-0.053433347,28.875,78.0,0.0023928226,1114658,-1351,-3830,-5944,16
72246704,4135,0,-0.30382282,1.0422233,-9.721114,-0.024692697,0.007901418,-0.037677765,28.875,78.0,0.0023928226,1114658,-1930,-63,1537,5190
72344355,4127,0,-0.68380076,1.5251814,-9.595403,0.01786767,0.0046159807,-0.046076085,28.875,78.0,0.0023928226,1114658,654,2296,-444,2048
72445159,4134,0,-0.4160529,0.24910206,-9.801494,0.02190769,-0.008171511,-0.04228222,28.875,78.0,0.0023928226,1114658,1358,4065,-5712,5200
72548073,4219,0,-0.49768525,-1.4488416,-10.763822,0.013749743,-0.004189765,-0.03942599,28.75,78.0,0.0023928226,1114658,797,3499,1290,2049
72648855,4202,0,-1.8809272,-1.4072372,-10.392682,0.00766768,0.00089776743,-0.034057755,28.875,78.0,0.0023928226,1114658,-2068,4302,-2172,8193
72750704,4148,0,-0.9363293,1.8347008,-9.461271,0.02172724,0.0069859102,-0.059715923,28.875,78.0,0.0023928226,1114658,-1788,3152,-6372,5204
72856754,5250,0,0.3050198,2.0758102,-10.644786,0.011345084,-0.010688334,-0.052469485,28.875,78.0,0.0023928226,1114658,3452,-1422,-3824,16
72956511,4207,0,0.39545298,0.1932614,-10.675613,0.03121817,-0.010205835,-0.075830564,28.75,78.0,0.0023928226,1114658,1163,1027,-4506,5208
73057342,4238,0,-0.5192485,-1.3176214,-10.871328,0.015881889,-0.008996166,-0.046254303,28.875,78.0,0.0023928226,1114658,1805,3756,-2510,8192
73158103,4199,0,-1.122058,-1.13919,-10.027807,-0.008940379,-0.004614165,-0.035214767,28.75,78.0,0.0023928226,1114658,-1991,4902,-752,5225
73263103,4200,0,-1.2969407,1.4349878,-8.83814,0.029104851,0.01212179,-0.049639154,28.875,78.0,0.0023928226,1114658,827,4833,-8736,16
73363903,4200,0,-1.2160791,1.0104768,-9.825148,-0.0001281352,0.0033393991,-0.055707294,28.875,78.0,0.0023928226,1114658,-396,2217,-2146,8192
73463654,4180,0,0.683509,0.35419244,-10.372978,-0.015556158,-0.0010989037,-0.03948388,28.875,78.0,0.0023928226,1114658,2829,-2246,-2308,8192
73566573,6262,0,0.75047594,-1.1346298,-11.123475,-0.010648149,-0.010380253,-0.050495666,29.0,78.0,0.0023928226,1114658,471,-2498,-3448,2592
73669454,4200,0,-0.107336454,-0.53349805,-9.354484,-0.015542198,0.008951471,-0.027574258,28.875,78.0,0.0023928226,1114658,1064,-1040,-6002,8192
73772354,4126,0,0.044725265,1.6749365,-9.84664,-0.023545764,-0.0032994368,-0.03082224,28.875,78.0,0.0023928226,1114658,2265,-2453,-3552,8193
73873162,4145,0,0.11159225,0.6498983,-9.938248,-0.015741142,-0.010581851,-0.021593122,29.0,78.0,0.0023928226,1114658,1773,-1724,-5858,8192
73972915,4212,0,0.74212664,-0.05497844,-10.800117,0.02196737,-0.017855767,-0.049018398,28.875,78.0,0.0023928226,1114658,1186,-2755,-2580,16
74073789,4286,0,0.2569387,-1.4166282,-10.321655,0.013649615,-0.0020620015,-0.044028074,28.875,78.0,0.0023928226,1114658,-214,-1606,-7136,2588
74178741,6338,0,0.4316904,0.119447075,-10.406576,-0.0037672508,0.005966204,-0.053796895,28.875,78.0,0.0023928226,1114658,340,-3080,-363,16
74275372,4268,0,-0.62405956,1.1359982,-8.945826,0.012538186,0.018442336,-0.062145244,28.875,78.0,0.0023928226,1114658,-1996,437,-8203,2600
74380303,4168,0,0.48643118,1.0552315,-10.110454,0.016505007,0.0010546944,-0.033194188,29.0,78.0,0.0023928226,1114658,4092,-1543,-4827,5268
74481104,4144,0,0.5772938,-0.37125993,-10.630152,0.020241369,-0.015933879,-0.033077944,29.0,78.0,0.0023928226,1114658,1142,60,-6884,5263
74581904,4135,0,0.14651404,-1.5452319,-10.444768,0.010005969,-3.3924094e-05,-0.028505828,29.0,78.0,0.0023928226,1114658,209,-2098,-5011,2049
74684825,4220,0,-0.31762546,-0.16192614,-9.216746,-0.02385663,0.0061595724,-0.027336033,28.875,78.0,0.0023928226,1114658,-1935,-2128,-4871,16
74784556,4187,0,-0.3548,1.1542928,-9.172521,-0.029773273,0.0060868952,-0.008226136,29.0,78.0,0.0023928226,1114658,-454,-1102,-6589,5281
74890627,4199,0,0.5025283,0.1464584,-10.578663,0.024002401,-0.0057361806,-0.061963696,28.875,78.0,0.0023928226,1114658,119,-572,-6435,5280
74993504,4200,0,0.6558175,-0.71522194,-9.54954,-0.010242599,0.00012683624,-0.030785305,28.875,78.0,0.0023928226,1114658,-16,-1339,-4841,8192
75092231,5278,0,-0.19909365,-0.17274697,-9.323059,-0.0047955443,-0.0016414201,-0.025013926,29.0,78.0,0.0023928226,1114658,996,1737,1542,5284
75196226,4244,0,0.32049385,0.9236563,-10.135631,-0.01175658,-0.00055846514,-0.049305156,28.875,78.0,0.0023928226,1114658,-1896,-3536,185,5296
75301163,4146,0,0.5657681,0.23671558,-10.358862,0.024313381,-0.0044677327,-0.029364847,29.125,78.0,0.0023928226,1114658,3196,-307,-2643,5293
75399854,4188,0,0.53297085,-0.9444227,-10.007444,-0.019977355,-0.008888518,-0.04310186,29.0,78.0,0.0023928226,1114658,-501,-2544,-8370,8193
75504854,4200,0,0.4607963,-0.2411954,-9.96115,0.0074284035,-0.00070029753,-0.047705766,29.0,78.0,0.0023928226,1114658,-756,-2482,-2495,8193
75605653,4172,0,-1.1005511,0.78062373,-9.343797,-0.017160343,0.005230991,-0.01815283,29.0,78.0,0.0023928226,1114658,-50,2771,-6665,16872
75706454,4200,0,0.15981314,0.9898763,-9.963368,0.036701236,-0.011996469,-0.067790896,28.875,78.0,0.0023928226,1114658,742,1206,-7302,8193
75809354,4195,0,-0.2807781,-0.8576153,-9.399389,-0.016640736,-0.0020921412,-0.043502714,29.0,78.0,0.0023928226,1114658,-513,2921,-8585,8193
75910157,5231,0,-0.45685795,-1.1221293,-10.693619,0.014091483,-0.012050823,-0.049362876,28.875,78.0,0.0023928226,1114658,1378,-33,-3082,2049
76015159,4205,0,-1.4198816,0.5795087,-9.116868,-0.017947912,0.009497192,-0.036492806,28.875,78.0,0.0023928226,1114658,-2237,4844,-4796,5320
76117026,4189,0,0.36356962,0.9798305,-10.227565,0.022332435,-0.01293764,-0.029229999,29.0,78.0,0.0023928226,1114658,2364,-481,-5216,2630
76217834,4214,0,0.716131,0.022570113,-11.134213,-0.0004221507,-0.012060611,-0.036175728,29.0,78.0,0.0023928226,1114658,1047,-1084,564,5322
76320704,4200,0,-0.76834434,-0.97155046,-9.893069,-0.01864345,-0.002684538,-0.02413622,29.125,78.0,0.0023928226,1114658,-1189,1874,-6227,8193
76419424,5266,0,-0.10161847,-0.33020988,-10.603973,-0.00716549,0.013110467,-0.040381067,29.125,78.0,0.0023928226,1114658,928,-778,1476,5340
76520248,4245,0,-0.6547461,1.1083351,-9.956419,-0.011304997,0.008682585,-0.045443512,29.0,78.0,0.0023928226,1114658,1942,2467,657,2649
76624218,4265,0,-0.22715281,0.5583066,-8.660884,0.0007087308,-0.0033398098,-0.0300493,29.0,78.0,0.0023928226,1114658,864,2016,-7746,2649
76725039,4286,0,-0.5920708,-1.3674482,-10.2494545,-0.015049261,-0.00083507196,-0.051642563,29.0,78.0,0.0023928226,1114658,-299,3509,-552,5358
76825796,4242,0,-0.82070535,-0.78931063,-9.826407,-0.02251057,-0.002551889,-0.044962037,29.0,78.0,0.0023928226,1114658,1528,-984,-8457,5355
76928678,4225,0,-1.5867847,0.5716322,-9.567932,0.006614282,0.009633812,-0.020298865,29.0,78.0,0.0023928226,1114658,-1776,3596,-3310,16
77029499,4246,0,-0.5161392,1.8107097,-9.652457,-0.034707144,0.01244025,-0.046368316,29.0,78.0,0.0023928226,1114658,233,-206,-3786,16
77132354,4152,0,-0.69350016,0.74106866,-9.882808,-0.03229458,-0.008782442,-0.023526624,29.0,78.0,0.0023928226,1114658,2515,-907,-6232,8193
77232127,4224,0,1.2628613,-0.20072548,-10.518232,0.014346539,-0.011265782,-0.05488179,29.0,78.0,0.0023928226,1114658,2173,-1561,-4155,2643
77337104,4150,0,0.24086033,-1.1441633,-10.382498,-0.001974255,0.0006871417,-0.03194899,29.0,78.0,0.0023928226,1114658,-1242,-2483,-2626,5369
77437903,4149,0,-0.15265185,0.8679538,-9.431697,0.007974715,0.008219185,-0.07420203,29.0,78.0,0.0023928226,1114658,-1433,-252,-4976,5375
77538704,4152,0,-0.9635936,1.5904607,-9.959008,-0.013496355,0.004034845,-0.028346002,29.0,78.0,0.0023928226,1114658,1772,3344,324,5375
77641604,4201,0,-0.020231387,-0.31022513,-10.983077,-0.014549939,-0.010023421,-0.05766222,29.0,78.0,0.0023928226,1114658,145,-538,-4170,16
77741355,4196,0,0.33434206,-1.214047,-10.346887,0.030521827,-0.014264092,-0.027517434,29.125,78.0,0.0023928226,1114658,-9,339,-8422,8193
77843203,5249,0,-1.4394647,-1.2062447,-10.503246,-0.00498077,0.005392161,-0.063507065,29.125,78.0,0.0023928226,1114658,-1380,4014,-994,16
77945110,4256,0,-0.79113275,0.9293007,-9.257438,-0.016300177,0.0148989,-0.032318342,29.0,78.0,0.0023928226,1114658,1121,879,-3896,5388
78045856,4203,0,0.9185512,2.0130014,-10.3489065,0.011402212,-0.00211495,-0.042018555,29.125,78.0,0.0023928226,1114658,2598,-1843,-3817,8193
78150854,4200,0,0.8012017,-0.27113816,-10.162221,-0.012201633,-0.014004263,-0.0354311,29.0,78.0,0.0023928226,1114658,829,-2207,-7215,8193
78253798,4244,0,0.57005805,-0.8812494,-11.178385,0.010417781,-0.00488243,-0.037512884,29.0,78.0,0.0023928226,1114658,1885,-1624,248,5391
78350354,4195,0,-0.111673504,-1.0012668,-10.229454,-0.028764235,-0.005827683,-0.030838357,29.0,78.0,0.0023928226,1114658,126,-1825,-1235,8193
78455387,5283,0,-0.3502215,0.35622057,-9.157917,-0.018828347,0.008553052,-0.03752281,29.0,78.0,0.0023928226,1114658,-372,-879,-4361,8193
78558254,5229,0,0.4389729,1.3714153,-10.677928,-0.016498664,-0.007742866,-0.041159403,29.0,78.0,0.0023928226,1114658,3794,-2540,-1409,16
78661191,5288,0,0.38274077,-0.805913,-10.721502,0.007900253,-0.0060066837,-0.030689377,29.125,78.0,0.0023928226,1114658,359,-2948,3266,8192
78760954,4251,0,-0.034344755,-0.8901208,-10.087657,0.019189836,-0.0028555687,-0.039274443,29.25,78.0,0.0023928226,1114658,1626,890,-6376,16
78861748,4245,0,-1.0056591,-0.46467292,-9.431024,-0.0037787552,0.01103891,-0.055603255,29.125,78.0,0.0023928226,1114658,-3283,2541,-3146,2689
78966707,4151,0,0.28476605,1.7541399,-9.621771,0.011653495,0.011048814,-0.061520208,29.125,78.0,0.0023928226,1114658,2032,-1358,-2974,2681
79071704,4200,0,0.89799243,-0.73062867,-10.628255,-0.0070044757,-0.00769792,-0.050243933,29.125,78.0,0.0023928226,1114658,931,-3676,-1796,5439
79170403,5202,0,-0.5724313,-0.9995632,-10.370568,0.029631108,-0.009554995,-0.056305215,29.125,78.0,0.0023928226,1114658,1020,2477,-2530,16
79273325,5272,0,0.6331859,-1.7530689,-10.572013,0.01985394,0.0032373099,-0.068949066,29.25,78.0,0.0023928226,1114658,2044,-514,374,2049
79377262,4200,0,0.38152295,1.4571311,-10.156483,0.0016866378,0.004794048,-0.055625565,29.125,78.0,0.0023928226,1114658,-776,-1770,2022,5442
79480204,6315,0,0.26704523,1.7883776,-9.415569,0.0156808,0.0066012326,-0.073172145,29.125,78.0,0.0023928226,1114658,-1312,-646,-1061,5449
79578855,4197,0,-0.65603673,0.02351592,-9.288417,0.0033389593,0.004255951,-0.043755464,29.25,78.0,0.0023928226,1114658,118,2728,-5977,8193
79683858,4204,0,-0.93760836,-0.8165655,-10.316349,-0.0022041923,0.0018255207,-0.049853966,29.125,78.0,0.0023928226,1114658,1342,2190,-450,2048
79782613,5309,0,-0.1641474,-0.92077464,-9.153889,-0.004736039,0.008388407,-0.056336686,29.25,78.0,0.0023928226,1114658,-557,691,-1070,5462
79886526,4196,0,-1.4371325,1.6966237,-9.271256,0.020832796,0.011895817,-0.046297215,29.25,78.0,0.0023928226,1114658,-2105,4386,-4945,2685
79985204,4139,0,-1.1898612,1.4184101,-9.552799,-0.020927362,0.006414388,-0.038962137,29.25,78.0,0.0023928226,1114658,-700,1991,-6208,5469
80090204,4200,0,0.6049276,-0.7497394,-11.077208,0.004669473,-0.0039112084,-0.057438433,29.25,78.0,0.0023928226,1114658,-88,-1150,-2128,8192
80191048,4231,0,0.19710402,-0.97129554,-10.960899,-0.011504963,0.007493374,-0.07129996,29.25,78.0,0.0023928226,1114658,259,-2030,1412,2049
80291804,4200,0,0.076557815,-0.4768294,-10.158021,0.0021001266,0.0076101287,-0.079541795,29.25,78.0,0.0023928226,1114658,-1220,-2595,-6304,2049
80391553,4126,0,0.50171334,1.3462323,-10.146059,-0.009596665,0.0058718584,-0.04779157,29.125,78.0,0.0023928226,1114658,648,-2557,916,16
80495514,4188,0,-0.4218471,0.6811197,-9.508835,-0.0048253015,-0.004375049,-0.023297878,29.125,78.0,0.0023928226,1114658,-1934,857,-5888,2049
80595254,4200,0,0.5106018,-0.24543084,-10.545246,-0.016263817,-0.004539501,-0.013105278,29.0,78.0,0.0023928226,1114658,465,-3160,-840,0
80698173,6319,0,-0.33464134,-0.9528744,-10.004741,-0.024416497,-0.007802176,-0.037416566,29.375,78.0,0.0023928226,1114658,-1023,1497,-2640,16
80798978,4224,0,-1.0920066,0.69569206,-8.700016,-0.0020833418,0.011394669,-0.030057233,29.25,78.0,0.0023928226,1114658,897,1448,-9714,16
80899788,4199,0,-1.3018775,1.596803,-8.825529,-0.0034675072,0.0176149,-0.03896705,29.25,78.0,0.0023928226,1114658,357,5608,-6102,0
81004753,4198,0,1.1949798,0.637777,-11.385458,0.0154757155,-0.0073660896,-0.06527745,29.125,78.0,0.0023928226,1114658,2854,-2421,2350,5504
81104504,4200,0,0.02484169,-0.47397777,-10.455761,0.03661055,-0.012256284,-0.073856294,29.25,78.0,0.0023928226,1114658,358,1655,-7771,16
81203203,4200,0,-0.5668127,-1.4977884,-9.94774,-0.0017616733,0.005501653,-0.06214684,29.25,78.0,0.0023928226,1114658,-448,2435,462,8193
81306104,4200,0,0.08767847,0.2560298,-9.487027,-0.0122323735,0.008455446,-0.06494582,29.25,78.0,0.0023928226,1114658,334,-932,4,16
81406903,4199,0,0.45876214,1.4632207,-9.188393,-0.0007025862,0.00404184,-0.04150833,29.25,78.0,0.0023928226,1114658,-60,-3002,-8219,16
81509813,5259,0,-0.013627667,0.64527875,-9.766096,-0.021155478,0.0056416127,-0.047994126,29.25,78.0,0.0023928226,1114658,-1134,-824,-3218,5518
81607461,4207,0,0.6838238,0.00424673,-10.526674,-0.015318716,-0.0068410207,-0.006474535,29.25,78.0,0.0023928226,1114658,2449,-2536,-3568,2048
81713504,4200,0,-0.94446605,-0.39098293,-10.234225,0.007833325,0.007805968,-0.060612097,29.25,78.0,0.0023928226,1114658,1736,3491,-2337,16
81813254,4200,0,-0.59438485,0.0218128,-8.937201,0.0020149895,0.008082648,-0.046395186,29.25,78.0,0.0023928226,1114658,-2106,-212,-9363,5535
81914054,4178,0,-0.07462773,1.2745707,-8.793889,0.015420603,0.005095358,-0.042632,29.375,78.0,0.0023928226,1114658,-1204,1031,-7666,5537
82017025,4272,0,0.6447442,0.70159686,-10.397239,-0.004620558,-0.0070691523,-0.052278984,29.25,78.0,0.0023928226,1114658,-132,-3646,-4772,5536
82117825,4272,0,0.52835023,-1.0337191,-10.488281,-0.023682894,-0.013720677,-0.057737026,29.25,78.0,0.0023928226,1114658,-1337,-2846,-2545,5532
82220653,4196,0,-1.085263,-0.9062215,-10.506979,0.0033394026,-0.0009060239,-0.049740836,29.375,78.0,0.0023928226,1114658,-499,4398,-3530,16
82322551,6349,0,-0.71281755,0.51714504,-10.470506,0.020009894,0.01043139,-0.08194364,29.25,78.0,0.0023928226,1114658,586,1080,-6466,2727
82423346,4235,0,-0.44863558,1.1017349,-10.062772,-0.013902912,-0.010548022,-0.03192018,29.25,78.0,0.0023928226,1114658,101,-2608,-5721,2726
82524127,4200,0,-0.48793033,0.8050682,-10.47946,-0.03146587,-0.007922952,-0.030468678,29.25,78.0,0.0023928226,1114658,650,827,725,2722
83231803,4199,0,-1.0306057,-1.5734856,-10.095297,0.032908782,-0.0010456413,-0.033258837,29.375,78.0,0.0023928226,1114658,1239,4131,-9427,16
83337902,4248,0,-0.3286796,0.7391266,-10.099493,-0.007500946,0.008252142,-0.033199634,29.375,78.0,0.0023928226,1114658,-110,399,1099,16
83436597,5270,0,0.3624792,1.2169089,-9.644707,-0.00465593,0.0032991539,-0.043015856,29.375,78.0,0.0023928226,1114658,-2256,-2918,-210,2048
83540503,4199,0,0.81329745,0.43977812,-10.035674,-0.027901506,-0.005079187,-0.048904713,29.375,78.0,0.0023928226,1114658,-160,-2261,-3427,5584
83641303,4199,0,-0.046130527,-1.2046976,-10.473497,-0.014856438,-0.007522505,-0.03923103,29.25,78.0,0.0023928226,1114658,310,-440,-1645,5589
83742110,4206,0,-0.62043965,-0.9946548,-10.742592,-0.023062209,0.00954857,-0.034935556,29.375,78.0,0.0023928226,1114658,1293,803,2123,8192
83842904,4199,0,-0.7469638,0.1458417,-9.957656,-0.020067869,0.005610579,-0.012193091,29.25,78.0,0.0023928226,1114658,607,-61,-3970,2743
83945811,5257,0,-0.634318,2.3440695,-9.825106,-0.0010255518,0.013435592,-0.044682678,29.5,78.0,0.0023928226,1114658,1219,3243,-7211,5609
84046614,4211,0,-0.9609155,0.7791927,-9.87231,-0.00014272501,-0.0009856396,-0.056662172,29.375,78.0,0.0023928226,1114658,1396,1369,-5288,8193
84146354,4195,0,0.045607425,-0.049066,-10.345495,-0.0051161963,-0.0056041456,-0.050192375,29.375,78.0,0.0023928226,1114658,2581,3101,-1834,8193
84251424,4248,0,0.00059152534,-0.8891,-9.599838,0.0018191446,-0.0018579212,-0.035119865,29.375,78.0,0.0023928226,1114658,-95,956,-2576,5621
84352229,4276,0,-0.26215878,0.4740712,-9.703514,0.027983492,0.018443605,-0.04692279,29.375,78.0,0.0023928226,1114658,-59,214,-3839,5611
84452997,4243,0,0.49677888,2.0109959,-11.029631,0.012279708,0.004224242,-0.065882705,29.375,78.0,0.0023928226,1114658,75,-1127,3481,5630
84553780,4226,0,0.15727337,0.48621267,-10.495204,-0.0028615189,-0.0032123032,-0.032413583,29.375,78.0,0.0023928226,1114658,3591,-285,-4853,2752
84656667,4207,0,0.37058955,-0.9433312,-10.244603,-0.029344909,0.0012024732,-0.034764722,29.375,78.0,0.0023928226,1114658,1380,-1817,-1538,2048
84757454,5176,0,-0.13159677,-1.251357,-9.562905,-0.026557822,0.0020115443,-0.03897927,29.5,78.0,0.0023928226,1114658,-478,-3556,-5233,2048
84857214,4158,0,-0.09133479,-0.3544622,-9.518165,-0.020278163,0.009871109,-0.0215635,29.25,78.0,0.0023928226,1114658,-458,-437,-3531,5637
84960159,4240,0,-0.90027845,1.1819309,-9.503274,-0.008242704,0.008590216,-0.03908722,29.5,78.0,0.0023928226,1114658,275,1663,-6037,8193
85063004,4200,0,-0.36921284,-0.24901627,-10.075454,0.0067277383,-0.0071614147,-0.0471684,29.375,78.0,0.0023928226,1114658,-1064,2476,-2422,5637
85163804,4195,0,-0.20659856,-1.2463444,-9.44467,0.010106736,0.0038077584,-0.03664361,29.5,78.0,0.0023928226,1114658,455,-574,-8652,5636
85266706,4179,0,-0.011014477,-0.30750072,-9.808549,0.015685774,0.0082376655,-0.06068367,29.5,78.0,0.0023928226,1114658,-1791,-1204,-8368,5639
85367504,4178,0,0.20233986,1.5622983,-10.065568,-0.0062381383,-0.00088738906,-0.04247342,29.5,78.0,0.0023928226,1114658,-473,-1365,-1489,5653
85467254,4201,0,0.37318635,1.6452711,-10.454569,-0.009611579,9.148903e-05,-0.026789257,29.5,78.0,0.0023928226,1114658,550,-1474,791,8192
85570175,6321,0,0.771909,0.1360722,-10.551301,-0.009559511,-0.009366081,-0.06825142,29.5,78.0,0.0023928226,1114658,1119,-2440,-5412,16
85670982,4229,0,0.11028105,-1.0559613,-10.757199,-0.022289462,-0.005092684,-0.037016552,29.375,78.0,0.0023928226,1114658,1953,-2613,653,16
85771806,4252,0,-0.1522641,-0.52606004,-9.808633,-0.0122374445,0.007981243,-0.004897363,29.375,78.0,0.0023928226,1114658,-93,-2421,-2871,16
85876754,4193,0,-0.53237706,1.1555096,-9.139995,-0.0021350028,0.0013472238,-0.045252725,29.375,78.0,0.0023928226,1114658,2242,1675,-8864,5664
85975483,5280,0,-0.8050274,1.5949702,-8.986979,-0.020167377,-0.005131381,-0.06409277,29.375,78.0,0.0023928226,1114658,3041,-33,-6386,5668
86078354,5250,0,-0.034139063,-0.9429241,-10.119853,-0.021330627,-0.011898366,-0.03814405,29.5,78.0,0.0023928226,1114658,3888,630,-5568,8193
86178103,4188,0,-0.24728394,-1.6484059,-10.705663,-0.03557369,-0.0057169595,-0.047023118,29.5,78.0,0.0023928226,1114658,-1295,-2187,-3209,16
86278903,4199,0,-0.10725324,-0.50689346,-10.412389,-0.023894664,0.008076833,0.0031006895,29.5,78.0,0.0023928226,1114658,-301,-1282,-1784,8192
86383903,4200,0,-0.57095426,0.78280544,-9.572892,0.0010488771,0.00032818876,-0.03816243,29.375,78.0,0.0023928226,1114658,646,1217,-6127,16
86484703,4199,0,-0.64180833,0.28967243,-9.921108,0.0011725038,-0.0050799404,-0.02855996,29.625,78.0,0.0023928226,1114658,3326,982,-4449,16
86587613,5259,0,-0.95342,-1.6788735,-10.916873,-0.0078335395,-0.012542044,-0.05516196,29.375,78.0,0.0023928226,1114658,1434,3442,-1279,16
86690552,5298,0,-0.5115955,-0.8400705,-10.589003,0.0146433115,0.010524164,-0.070951074,29.375,78.0,0.0023928226,1114658,-2399,5283,-6705,2781
86790254,4200,0,-1.3794527,0.7205345,-9.400276,0.0017394414,0.015145358,-0.039030492,29.375,78.0,0.0023928226,1114658,-2341,3811,-1902,16
86893162,4138,0,-0.71075875,1.8161283,-9.805887,-0.0019021757,0.0028723178,-0.07231963,29.5,78.0,0.0023928226,1114658,229,5113,-1678,8192
86993954,4122,0,-0.49004483,-0.023666741,-9.983971,0.0052966187,-0.010537314,-0.03180991,29.5,78.0,0.0023928226,1114658,-1202,3924,-2023,5709
87096858,4205,0,-0.59340227,-1.3273908,-10.442204,-0.010566548,-0.0033104578,-0.03540612,29.5,78.0,0.0023928226,1114658,2063,1344,-1389,2049
87195587,4183,0,-0.29343075,-1.3774717,-10.489421,-0.026041323,0.0073585613,-0.021621726,29.375,78.0,0.0023928226,1114658,95,-3371,-1842,16875
87297404,6283,0,0.02526549,-0.3129129,-9.796698,0.0044607953,0.020256123,-0.070616774,29.5,78.0,0.0023928226,1114658,-1480,-3474,-6537,8193
87399253,5249,0,0.689448,1.7681146,-9.736501,-0.005391969,-0.003099218,-0.034034654,29.5,78.0,0.0023928226,1114658,745,-2389,10,15
87499004,4200,0,0.039823394,1.8245852,-10.375728,0.03123345,-0.0021940502,-0.07658068,29.375,78.0,0.0023928226,1114658,1190,1741,-309,5719
87601904,4158,0,0.10985065,-0.4731742,-9.897529,0.050118305,0.004118196,-0.04129896,29.5,78.0,0.0023928226,1114658,2202,789,-6997,8193
87702704,4162,0,-1.027418,-1.4534302,-10.515933,0.00526412,0.005777848,-0.054996323,29.5,78.0,0.0023928226,1114658,2706,2344,-4830,5725
87807715,4211,0,-0.5215258,0.8553293,-9.826407,0.02301376,0.014843928,-0.054007147,29.625,78.0,0.0023928226,1114658,539,1866,-4595,0
87908503,4199,0,-0.4536767,1.4247165,-9.3205,0.021632694,0.0073016346,-0.051548123,29.5,78.0,0.0023928226,1114658,-1711,2520,-3432,15
88006167,4213,0,-0.03548951,0.8965338,-10.487726,-0.014940885,-0.01775961,-0.041660745,29.5,78.0,0.0023928226,1114658,-1620,201,-77,5735
88112232,4229,0,-1.1827501,-1.7768284,-11.045015,0.0067578824,-0.006099483,-0.048463527,29.5,78.0,0.0023928226,1114658,-1136,4443,1573,5745
88213025,4221,0,-1.1533443,-1.2586635,-9.400307,0.009309591,0.012397898,-0.039991867,29.375,78.0,0.0023928226,1114658,1402,3991,-6843,5743
88313825,5271,0,-0.91152483,0.32249048,-9.439909,-0.010065057,0.014806215,-0.06684086,29.625,78.0,0.0023928226,1114658,-2114,1144,-7884,5744
88413553,4173,0,-1.3543366,0.86375296,-10.03183,-0.011730349,0.0042527053,-0.049405236,29.625,78.0,0.0023928226,1114658,-1968,4151,2675,8192
88514354,4195,0,-1.0174416,1.4581602,-9.239706,-0.015518391,-0.011237081,-0.024076618,29.5,78.0,0.0023928226,1114658,3916,1691,-7339,8193
88617254,4200,0,-0.6084911,-0.6734292,-10.497819,0.011458716,-0.017748203,-0.064801745,29.5,78.0,0.0023928226,1114658,2126,4303,-3346,5754
88718054,4157,0,-0.8665144,-1.1671597,-10.020386,-0.010536192,0.0021323427,-0.029395944,29.5,78.0,0.0023928226,1114658,2069,2894,-6998,5767
88818854,4195,0,-0.8503362,-0.45121968,-9.229103,-0.02036413,-0.0011181843,-0.048141703,29.5,78.0,0.0023928226,1114658,-3669,2746,-2979,8193
88923862,4208,0,0.050247267,1.4468963,-10.0486555,0.008519319,0.0043735397,-0.044468284,29.5,78.0,0.0023928226,1114658,1798,-1619,-2383,8193
89024654,4200,0,0.76361495,0.39330247,-10.062081,0.02673234,-0.011431971,-0.044866633,29.625,78.0,0.0023928226,1114658,2035,1691,-4011,16
89125453,4199,0,-0.29827294,-1.1249171,-10.302753,0.03788204,0.0003241527,-0.04861004,29.625,78.0,0.0023928226,1114658,799,2354,-5346,8192
89226254,4200,0,-0.09463853,-0.84541893,-10.924674,0.0074704615,0.004805781,-0.057832,29.5,78.0,0.0023928226,1114658,1440,1099,-2921,8193
89326011,4199,0,-0.68963283,0.0057791895,-9.474263,0.017553065,0.012477283,-0.059154462,29.5,78.0,0.0023928226,1114658,-1558,1753,-4393,16
89427854,5210,0,-0.6721108,1.310172,-9.116442,0.011386637,0.003141259,-0.02659374,29.5,78.0,0.0023928226,1114658,-151,4438,-4378,8193
89533904,4178,0,1.0673258,-0.54865366,-10.568168,0.026955357,-0.006480019,-0.032998096,29.5,78.0,0.0023928226,1114658,2933,-1927,-7706,2835
89634705,4157,0,-0.11991411,-1.47915,-10.454647,0.010296771,-0.007725037,-0.04282789,29.625,78.0,0.0023928226,1114658,643,-1346,-1653,5801
90657404,5204,0,-1.2813041,-0.16810864,-9.781735,0.023369664,0.012266757,-0.028870761,29.625,78.0,0.0023928226,1114658,-1060,3425,-1730,15
90754003,5249,0,0.35164028,-0.3300763,-9.6964245,0.018179726,0.009608389,-0.02942124,29.625,78.0,0.0023928226,1114658,-202,-1429,414,15
90857962,4165,0,0.7183256,1.7922752,-10.324679,-0.00050115946,0.0021468834,-0.041305106,29.625,78.0,0.0023928226,1114658,1314,-2338,-586,5840
90960854,4200,0,0.6413629,-0.22735234,-10.208434,-0.0013848329,-0.020272063,-0.031690363,29.625,78.0,0.0023928226,1114658,3165,649,-6419,8193
91057454,4200,0,-0.23993203,-0.9879111,-10.062785,-0.016800292,-0.016001439,-0.046004586,29.625,78.0,0.0023928226,1114658,269,-69,-5477,5840
91162453,4199,0,-2.0000126,-0.5910954,-9.498168,-0.01843769,0.010990977,-0.0088222055,29.625,78.0,0.0023928226,1114658,2398,2348,-8974,5837
91263268,4214,0,-0.21695301,0.3284415,-9.751076,-0.02640245,0.011323406,-0.02625798,29.625,78.0,0.0023928226,1114658,815,-3774,-3892,8192
91368254,4200,0,-0.6572438,0.54024124,-9.767183,-0.006960022,-0.008640936,-0.051590133,29.625,78.0,0.0023928226,1114658,-2663,1575,-3707,0
91469075,4221,0,0.17911561,-0.40359923,-10.853007,-0.005563546,-0.01736957,-0.029245045,29.625,78.0,0.0023928226,1114658,219,-737,-459,5851
91571966,4212,0,-0.13899161,-1.2161099,-10.044184,-0.036645193,0.0075630397,-0.045883015,29.75,78.0,0.0023928226,1114658,1405,-1669,-2011,15
91674898,4220,0,-1.235232,0.06865424,-9.661664,-0.02122366,0.0061841654,-0.032920882,29.75,78.0,0.0023928226,1114658,727,-163,-5046,8193
91775679,4225,0,-0.44048667,1.535141,-8.874366,-0.0022498956,0.014046542,-0.024505178,29.75,78.0,0.0023928226,1114658,1260,1525,-10403,15
91874392,5288,0,-0.4509477,1.3942636,-9.154682,-0.025449693,-0.00010176189,-0.047171947,29.75,78.0,0.0023928226,1114658,2508,-212,-9886,8193
91979406,4212,0,-0.8100925,-0.5870672,-11.331909,0.0075653023,-0.015133306,-0.08380411,29.5,78.0,0.0023928226,1114658,116,3444,1194,8193
92078085,4222,0,-0.69063026,-1.0176951,-10.372215,-0.009651084,0.00013207027,-0.058831554,29.5,78.0,0.0023928226,1114658,1797,3792,-3580,5877
92181005,4236,0,-0.28062433,0.35252124,-10.067771,0.0143961245,0.008772946,-0.04635639,29.75,78.0,0.0023928226,1114658,1155,1970,-1734,5874
92280704,4195,0,0.013032393,1.0167539,-9.500968,0.021292808,0.013537285,-0.04303385,29.625,78.0,0.0023928226,1114658,234,-780,-7042,15
92382628,5325,0,0.5822827,1.1758318,-9.968114,-0.0011233039,-0.015252693,-0.04876406,29.625,78.0,0.0023928226,1114658,905,-3310,-4781,5880
92486537,4234,0,-0.36933511,-1.1716955,-10.214493,-0.02203333,0.00011709496,-0.062585495,29.75,78.0,0.0023928226,1114658,-560,1534,-1701,2878
92589404,4200,0,-0.5332888,-0.99753946,-10.231924,0.020034503,0.009240402,-0.0582905,29.75,78.0,0.0023928226,1114658,1332,1886,-8174,15
92688146,4243,0,0.065118104,0.30524665,-8.937135,0.014163939,0.0069939755,-0.042620905,29.75,78.0,0.0023928226,1114658,-1101,-1749,-5258,2886
92788953,4250,0,-0.5016678,1.1684238,-9.812578,0.023826169,0.0058495426,-0.026666798,29.625,78.0,0.0023928226,1114658,1555,1255,1575,2880
92893927,4190,0,0.2545308,-0.55517685,-10.377781,-0.027726224,-0.022244692,-0.006447047,29.75,78.0,0.0023928226,1114658,-511,-1232,-3476,5885
92989454,4200,0,-0.4300461,-0.2594974,-9.401303,-0.0024152633,-0.0032143134,-0.06287827,29.875,78.0,0.0023928226,1114658,1879,2668,-1806,2048
93095544,4212,0,-0.36411116,0.046945322,-9.219278,0.008633105,0.004409954,-0.0330597,29.75,78.0,0.0023928226,1114658,1203,2576,-1600,5911
93196336,4160,0,-0.17451635,1.1775495,-9.993403,0.02357423,0.003776746,-0.030425694,29.75,78.0,0.0023928226,1114658,-816,-2105,-1789,15
93297123,5269,0,0.38441196,1.606812,-10.519403,-0.00070884463,0.0025450583,-0.057092067,29.625,78.0,0.0023928226,1114658,-228,-1525,950,15
93397936,4191,0,-0.08392397,0.22600234,-10.049399,-0.0075755916,-0.0050011813,-0.04827871,29.75,78.0,0.0023928226,1114658,282,-1794,-4856,15
93497666,4213,0,-0.36084098,-0.8940295,-9.646394,-0.005215048,-0.0069194264,-0.029982047,29.75,78.0,0.0023928226,1114658,1761,1832,-7010,0
93603705,4201,0,-0.80512017,-0.74179476,-9.330726,-0.026157476,0.0034933367,-0.03447159,29.75,78.0,0.0023928226,1114658,-4317,-313,-4592,2048
93703462,4209,0,-0.7859658,0.2707565,-9.113508,-0.0042995834,-0.003775209,-0.022324976,29.75,78.0,0.0023928226,1114658,-1754,2101,-5433,5914
93806354,6300,0,-0.49966797,0.86704844,-9.809827,0.0070614447,-0.0024367576,-0.07994421,29.75,78.0,0.0023928226,1114658,1344,1362,-2123,8193
93905079,4213,0,-0.24664047,0.54601705,-11.012984,0.017744336,0.00091130903,-0.088789,29.75,78.0,0.0023928226,1114658,3122,1178,-1346,5919
94005869,4215,0,0.30291593,-0.7386216,-10.668683,-0.01985056,0.00047608826,-0.041270826,29.75,78.0,0.0023928226,1114658,735,-1662,1221,8193
94108754,4197,0,-0.464782,-0.007443797,-9.589969,0.008583467,-0.0012628654,-0.0401068,29.625,78.0,0.0023928226,1114658,-13,1632,-9420,5932
94213835,4281,0,0.2152376,1.5713096,-10.286109,-0.032834806,0.0072621135,-0.041122258,29.75,78.0,0.0023928226,1114658,714,-2330,-3464,5927
94310380,4221,0,0.48283324,1.1323062,-9.7706,0.024291696,0.0033376608,-0.050710134,29.75,78.0,0.0023928226,1114658,412,-2509,-4029,8193
94413287,4203,0,0.7225997,-0.20051624,-10.515296,-0.021100601,-0.00060745364,-0.041065305,29.75,78.0,0.0023928226,1114658,861,-2231,-1042,15
94514104,5301,0,0.43992683,-0.96659786,-10.562475,-0.01977267,-0.003714929,-0.030819923,29.75,78.0,0.0023928226,1114658,1138,-2177,1086,15
94619054,4159,0,-0.5166637,1.0015553,-9.4944725,0.0042260936,0.01125055,-0.052610643,29.75,78.0,0.0023928226,1114658,-96,1426,-5840,5957
94719854,5249,0,-0.63033175,1.234655,-8.940682,0.004821596,0.005198285,-0.05409382,29.75,78.0,0.0023928226,1114658,1510,3996,-4379,8193
94817504,4201,0,0.10598402,1.5203576,-9.451853,-0.012204688,-0.0070189075,-0.043707628,29.875,78.0,0.0023928226,1114658,2320,353,-6214,2048
94926706,4180,0,-0.41773117,-1.2139583,-9.703192,0.01196088,0.0030346906,-0.0413439,29.75,78.0,0.0023928226,1114658,872,2102,-6996,15
95027504,4177,0,-1.333816,0.23111206,-10.100471,0.004561073,0.008774172,-0.04031361,29.875,78.0,0.0023928226,1114658,-2713,2936,11,15
95128318,4184,0,-0.6388176,1.2661867,-9.313709,-0.021264698,0.017976597,-0.01480273,29.75,78.0,0.0023928226,1114658,1118,728,-6678,15
95229146,4211,0,0.6639417,1.7965463,-9.703746,-0.017115274,-0.002418877,-0.0704874,29.75,78.0,0.0023928226,1114658,-37,-3155,-5167,15
95329914,4160,0,0.46144667,0.4917871,-9.9720545,0.022667594,-0.011551561,-0.034880053,29.625,78.0,0.0023928226,1114658,1982,2354,-7708,15
95430728,4225,0,-0.6814574,-1.1835505,-10.204846,-0.018460317,-0.010121464,-0.055275,29.875,78.0,0.0023928226,1114658,-1398,1381,-4187,15
95535704,4151,0,-0.12386912,0.08293698,-9.605752,-0.014322148,0.011643106,-0.032402527,29.75,78.0,0.0023928226,1114658,403,504,155,8193
95634403,5244,0,-1.4639387,0.89130133,-9.134655,0.010379043,0.016946465,-0.06457793,29.875,78.0,0.0023928226,1114658,286,5440,-5864,2049
95737304,5251,0,-0.98296463,1.4810456,-9.582906,-0.016951269,0.007819526,-0.04444913,29.875,78.0,0.0023928226,1114658,-198,2987,-3343,5982
95838104,4175,0,0.0723819,0.10607163,-9.797198,-0.026379155,-0.0051559447,-0.04200595,29.875,78.0,0.0023928226,1114658,-436,-892,-5362,8192
95937891,4238,0,0.8072709,-0.19777139,-11.29097,0.020111615,-0.008523303,-0.07750407,29.75,78.0,0.0023928226,1114658,785,-1032,871,8193
96039704,5239,0,0.9279413,-1.6292007,-9.329126,0.022149295,-0.005339533,-0.048997167,29.75,78.0,0.0023928226,1114658,-57,1424,-5061,8193
96140504,4200,0,-1.3608108,-0.23662479,-9.410279,0.0019479962,0.009375747,-0.038560096,29.875,78.0,0.0023928226,1114658,-430,5193,-5002,8192
96243424,4213,0,-1.5732495,1.6538923,-9.623615,-0.023411356,0.013929256,-0.041392364,29.875,78.0,0.0023928226,1114658,908,3736,-4826,2928
96343158,6304,0,0.67598945,1.7056154,-10.17883,0.0028067795,0.0010869597,-0.054550223,29.75,78.0,0.0023928226,1114658,-1077,-2174,-2330,15
96445025,5272,0,1.0194119,0.32309255,-10.287036,0.016663196,-0.019491939,-0.044511203,29.875,78.0,0.0023928226,1114658,4123,-850,-2915,6000
96548999,4246,0,0.7877064,-1.265927,-11.054495,-0.008612061,-0.005088469,-0.030381426,29.875,78.0,0.0023928226,1114658,850,-3063,2248,6009
96651855,4190,0,0.8809286,-0.54637295,-9.970224,-0.0051660724,0.0023269854,-0.029296553,29.875,78.0,0.0023928226,1114658,-995,-2389,649,8193
96750632,4274,0,-0.77131915,0.9857364,-9.297089,0.03144721,0.009472318,-0.029381907,30.0,78.0,0.0023928226,1114658,953,3029,-8861,15
96855587,4144,0,0.51284283,1.4186249,-11.004172,0.03236365,-0.0027972227,-0.05869875,30.0,78.0,0.0023928226,1114658,2797,-2029,850,16880
96956359,4150,0,-0.3309056,-0.22692996,-10.266542,0.009092942,0.0057090083,-0.048328925,29.875,78.0,0.0023928226,1114658,3617,3146,-5606,8193
97057163,4165,0,-0.40865266,-1.0333711,-9.91997,-0.036429968,-0.016040968,-0.010386447,29.875,78.0,0.0023928226,1114658,201,-1810,-6301,8192
97157954,4157,0,-0.29399243,-0.24742869,-9.846491,-0.013326357,0.004030083,-0.026367212,29.875,78.0,0.0023928226,1114658,-2557,-2503,-3822,6033
97258754,4150,0,1.0030667,0.82221437,-9.520981,0.0034506533,0.0054233214,-0.046048548,29.875,78.0,0.0023928226,1114658,-1046,-4779,-3262,6024
97359554,5251,0,0.4123418,1.8952259,-9.946294,0.018233525,0.005873627,-0.0717884,30.125,78.0,0.0023928226,1114658,208,-232,-2713,6031
97462453,5249,0,1.1144524,0.11750377,-10.689033,0.027868876,-0.015567706,-0.059800293,30.0,78.0,0.0023928226,1114658,2200,-1894,-6322,8192
97569568,4214,0,-0.76876915,-0.9393733,-10.306173,-0.014251654,0.0045583756,-0.025515117,29.875,78.0,0.0023928226,1114658,-1934,1447,-1077,15
97669304,4190,0,-0.30708796,0.4372546,-9.661205,-0.0007582239,-0.006624521,-0.029686287,30.0,78.0,0.0023928226,1114658,-1160,1520,-2371,8192
97768016,4193,0,-0.6082757,1.3480273,-8.862996,0.0065424726,0.009199193,-0.016285935,30.0,78.0,0.0023928226,1114658,2310,3196,-5455,15
97874054,5219,0,-0.6230751,0.20013812,-10.256867,0.025047228,-0.013698882,-0.063092075,30.0,78.0,0.0023928226,1114658,4514,3589,-3620,2962
97971704,4152,0,0.86314714,-0.80161524,-11.526812,-0.033726986,-0.004918863,-0.04582463,30.0,78.0,0.0023928226,1114658,-992,-3724,4007,6063
98072504,4175,0,0.4940881,-1.6686254,-9.847512,0.004105261,-0.0065288935,-0.018817477,29.875,78.0,0.0023928226,1114658,-146,-3151,-4494,6048
98177504,4200,0,0.5816372,0.47704217,-10.196018,-0.022498785,0.0060050474,-0.016462974,30.0,78.0,0.0023928226,1114658,-811,-2210,2584,15
98278303,4199,0,0.34872746,1.240132,-10.228533,0.007955905,0.00062082533,-0.03877842,30.0,78.0,0.0023928226,1114658,-2772,-1006,924,15
98377025,5271,0,-0.2020832,0.77068466,-9.417749,0.019346513,-0.011372522,-0.040627085,29.875,78.0,0.0023928226,1114658,3325,2551,-7702,8193
98482004,4173,0,-0.24357745,-1.6727312,-10.713251,0.017421328,-0.0025751856,-0.061642643,30.0,78.0,0.0023928226,1114658,82,2066,-1412,6063
98583879,4225,0,-1.298525,-0.8934312,-9.992244,0.021143213,-1.22385245e-05,-0.043486636,30.0,78.0,0.0023928226,1114658,-1685,2138,-4046,8193
98685728,5274,0,-1.0227714,1.0846989,-8.931024,0.022706212,0.015806599,-0.046554007,30.0,78.0,0.0023928226,1114658,729,5104,-3910,2980
98786506,4203,0,-1.1100885,1.061932,-9.458139,-0.0059993668,0.0042038914,-0.05528124,30.0,78.0,0.0023928226,1114658,-2148,3371,-2936,15
98888365,4115,0,-0.36178505,0.018365694,-9.984988,-0.015944066,-0.022000896,-0.045758605,30.0,78.0,0.0023928226,1114658,1732,-1002,-7169,8193
98989170,4157,0,-0.2273731,-1.202809,-10.648662,-0.022980573,-0.0023576946,-0.01537834,30.0,78.0,0.0023928226,1114658,374,-140,-1919,2981
99091003,5163,0,-1.0633705,-0.9553053,-10.254753,-0.038607877,0.0033207338,-0.046745174,30.0,78.0,0.0023928226,1114658,-2060,1563,1906,6079
99190754,4129,0,0.3670344,0.09182495,-9.536295,-0.009391002,-0.0048532905,-0.03402495,29.875,78.0,0.0023928226,1114658,-1994,-2374,-6046,6078
99291554,4112,0,0.69698775,1.8764659,-10.584788,0.0026074667,0.003036696,-0.050867945,30.0,78.0,0.0023928226,1114658,-214,-1534,2142,6098
