timestamp,integral_dt,error_count,x,y,z,x_integral,y_integral,z_integral,temperature,range_m_s2,scaling,device_id,x_raw,y_raw,z_raw,temperature_raw
32383297,4005,0,0.36571488,0.2659579,-9.783168,0.0009484084,0.0009300044,-0.038807977,61.858727,156.9064,0.0047884034,1442826,-33,-5,1907,9696
32487292,3974,0,-0.09229286,0.465448,-9.911991,0.002764021,0.0007044837,-0.039351143,61.886425,156.9064,0.0047884034,1442826,-15,-209,1978,9706
32587292,3963,0,0.43269885,0.65366805,-9.703695,0.001991824,0.00041859157,-0.039797135,61.850414,156.9064,0.0047884034,1442826,155,-39,2069,9693
32688891,4732,0,0.40364233,1.3423108,-10.112868,0.001995583,0.0045729093,-0.04473716,61.886425,156.9064,0.0047884034,1442826,-167,-60,1721,9706
32788892,3955,0,-0.24142604,-1.1056013,-10.334126,0.004075297,0.011328548,-0.040592216,61.903046,156.9064,0.0047884034,1442826,-609,-342,1927,9712
32892936,4000,0,0.052406084,-1.3413297,-10.427311,0.0034247646,0.0074968087,-0.041349154,61.875347,156.9064,0.0047884034,1442826,-753,-223,1781,9702
32992928,4002,0,0.14992455,-0.4654201,-10.275023,0.005090053,0.007591223,-0.037189633,61.867035,156.9064,0.0047884034,1442826,-505,-119,1908,9699
33096917,4025,0,0.48913252,1.2221153,-9.406131,0.00043718563,0.010145301,-0.034960628,61.903046,156.9064,0.0047884034,1442826,-404,20,2023,9712
33196920,4028,0,0.58351165,1.427816,-9.433036,-0.0009776573,0.00033913105,-0.04286574,61.925205,156.9064,0.0047884034,1442826,175,49,2149,9720
33304902,4011,0,-0.03858055,-0.66459143,-9.969487,0.0038615246,-5.128575e-05,-0.038346305,61.914127,156.9064,0.0047884034,1442826,-73,-25,1917,9716
33404893,3995,0,0.3471972,-0.06936274,-9.752344,0.005250654,0.006355415,-0.038811795,61.914127,156.9064,0.0047884034,1442826,-254,-264,2133,9716
33504892,4000,0,0.9660918,0.7694912,-9.632939,0.001684942,0.0036965758,-0.038111098,61.922436,156.9064,0.0047884034,1442826,-66,286,2084,9719
33604903,3982,0,-0.07435169,0.5456937,-9.69812,-0.0047200043,-0.0005666502,-0.043527212,61.92798,156.9064,0.0047884034,1442826,129,210,2037,9721
33705719,4028,0,-0.23545352,0.104101665,-10.007665,0.0053858357,0.0008060981,-0.04057613,61.90859,156.9064,0.0047884034,1442826,-113,-353,1920,9714
33810512,4000,0,0.71198004,0.7762511,-9.590724,-0.005184139,-0.002390255,-0.040737282,61.933517,156.9064,0.0047884034,1442826,184,236,2037,9723
33910568,4056,0,-0.13252865,-0.14310227,-9.927893,0.00032341946,-0.0075081894,-0.040757403,61.914127,156.9064,0.0047884034,1442826,284,-33,1965,9716
34010512,4000,0,0.08885475,-0.39289984,-10.00161,0.004147099,0.008342057,-0.036242023,61.941826,156.9064,0.0047884034,1442826,-625,-190,1641,9726
34114517,4005,0,0.7243417,1.2288064,-9.578441,-0.0005357899,-0.003663102,-0.040205736,61.952908,156.9064,0.0047884034,1442826,142,164,1977,9730
34214512,4000,0,0.122905776,-0.0032450804,-10.044745,-0.006219419,-0.007879002,-0.04198039,61.952908,156.9064,0.0047884034,1442826,112,266,1954,9730
34318512,3958,0,0.6016101,0.2999791,-9.70055,0.011172207,0.004311556,-0.038780246,61.97784,156.9064,0.0047884034,1442826,-293,-351,1936,9739
34422512,4000,0,-0.7820761,-0.04211683,-10.011247,-0.0020485949,-0.0027628292,-0.03833595,61.939056,156.9064,0.0047884034,1442826,-250,-92,1906,9725
34522561,4015,0,1.0586531,0.37600738,-9.633895,-0.008268126,-0.0051559466,-0.040001553,61.952908,156.9064,0.0047884034,1442826,-71,782,2107,9730
34626512,3977,0,1.1286831,0.5942395,-9.59852,-0.0068969503,-0.010681972,-0.0419451,61.955677,156.9064,0.0047884034,1442826,556,843,2062,9731
34727298,4006,0,-0.12125277,0.17565331,-9.784471,-0.008553369,-0.008198902,-0.043197483,61.98061,156.9064,0.0047884034,1442826,-148,479,2693,9740
34828099,3971,0,0.36009094,0.650203,-9.726954,0.0113295,0.0123650925,-0.035140697,62.011078,156.9064,0.0047884034,1442826,-1317,-234,1876,9751
34928093,3975,0,-0.31855842,-0.065588646,-10.062369,0.012185916,0.0054923412,-0.038640477,62.00277,156.9064,0.0047884034,1442826,-370,-686,2356,9748
35032129,4036,0,0.8378604,0.10820885,-10.125902,0.0072214613,0.0052191005,-0.034183305,62.00277,156.9064,0.0047884034,1442826,-562,66,1249,9748
35132092,3957,0,0.0473746,0.112532705,-9.424305,-0.010796624,0.0008688375,-0.04180853,62.00277,156.9064,0.0047884034,1442826,353,458,2460,9748
35236118,3991,0,0.5909515,0.5465457,-9.677121,-0.0044152327,0.0028733616,-0.03166912,62.03324,156.9064,0.0047884034,1442826,116,447,1664,9759
35336093,4002,0,0.58070195,0.342441,-9.975605,0.019355526,0.00078477524,-0.030638546,61.991688,156.9064,0.0047884034,1442826,268,-303,1676,9744
35440091,3999,0,1.1056368,0.48214972,-10.229045,-0.006116034,0.0027380513,-0.03396381,62.047092,156.9064,0.0047884034,1442826,-40,1149,1392,9764
35540152,4060,0,0.03360805,0.283759,-9.939699,-0.024602592,-0.0034168856,-0.03347699,62.03601,156.9064,0.0047884034,1442826,191,838,1385,9760
35640137,4045,0,0.76631415,0.3029883,-8.998214,0.027893098,0.00051660475,-0.026054,62.03601,156.9064,0.0047884034,1442826,456,-377,2341,9760
35741707,3988,0,0.56970257,0.6741152,-9.983315,0.01826294,-0.003653373,-0.01810223,62.05817,156.9064,0.0047884034,1442826,914,-735,613,9768
35841711,4043,0,0.44596165,0.65967566,-9.698727,0.020022027,0.00087426894,-0.029518472,62.049862,156.9064,0.0047884034,1442826,334,-933,2043,9765
35945719,4000,0,0.21635975,-0.008125174,-10.218114,-0.02269401,0.0040188055,-0.045052625,62.05817,156.9064,0.0047884034,1442826,-362,301,1814,9768
36045669,3951,0,0.13972498,0.26069036,-9.123581,0.005074891,-0.005858557,-0.04038218,62.04155,156.9064,0.0047884034,1442826,-314,266,3800,9762
36145668,3949,0,0.8234066,0.4947907,-8.92133,0.0019179607,0.0054455856,-0.021126414,62.085873,156.9064,0.0047884034,1442826,354,-15,1792,9778
36249722,3965,0,0.0010294799,0.09330612,-10.4244995,0.003262734,0.002420179,-0.053247616,62.06371,156.9064,0.0047884034,1442826,-360,-97,1611,9770
36349776,4057,0,-0.22660872,0.2892725,-9.819096,0.00361223,0.021544851,-0.048867337,62.116344,156.9064,0.0047884034,1442826,803,-766,1983,9789
36453710,3999,0,0.4041637,0.501811,-10.177708,0.0050356803,-0.007976249,-0.028388437,62.07202,156.9064,0.0047884034,1442826,-573,-99,3385,9773
36553669,3953,0,0.21996583,0.44024712,-10.278975,0.007898722,0.006408277,-0.038935408,62.116344,156.9064,0.0047884034,1442826,1115,-222,2451,9789
36653719,3951,0,0.6024463,-0.4834331,-10.044357,0.0002075592,-0.012647737,-0.041004397,62.08033,156.9064,0.0047884034,1442826,-439,128,1787,9776
36755312,4001,0,0.5327041,-0.16910364,-9.359454,0.002022807,0.0017804287,-0.039121546,62.11357,156.9064,0.0047884034,1442826,461,274,3543,9788
36859312,4000,0,0.4807734,-0.40182588,-9.574959,0.016888293,-0.0045562373,-0.036151946,62.127422,156.9064,0.0047884034,1442826,-400,-133,1927,9793
36959317,3998,0,0.21872574,-0.44896626,-9.501526,-0.019878924,-0.004355018,-0.045663737,62.124653,156.9064,0.0047884034,1442826,530,1324,2954,9792
37059351,4005,0,-0.21100405,-0.39106262,-10.322555,0.0066173,-0.005432148,-0.031972412,62.119114,156.9064,0.0047884034,1442826,303,-660,2424,9790
37163312,3994,0,-0.16599856,0.35523292,-9.846447,-0.00048800616,0.009016713,-0.038459927,62.1108,156.9064,0.0047884034,1442826,1670,-529,1588,9787
37263319,4007,0,-0.48611346,0.4377814,-10.3372,-0.0034204468,0.008531668,-0.0349544,62.160664,156.9064,0.0047884034,1442826,-215,-311,3285,9805
37363313,4001,0,0.20295107,0.43495134,-10.050318,0.011935866,0.00964443,-0.023906061,62.171745,156.9064,0.0047884034,1442826,380,-435,2507,9809
37467326,3988,0,0.14364673,0.48128593,-10.913813,-0.006467986,0.0022643334,-0.03694154,62.177284,156.9064,0.0047884034,1442826,91,872,3381,9811
37567312,4003,0,-0.43778765,-0.054789074,-10.578134,-0.0093711605,0.00046473672,-0.05195902,62.155125,156.9064,0.0047884034,1442826,-984,-686,1419,9803
37671312,4000,0,-0.15390669,-0.69702584,-10.477993,-0.0009972197,-0.002890055,-0.036477618,62.177284,156.9064,0.0047884034,1442826,-326,166,503,9811
37776891,3973,0,0.17359446,-0.022714224,-10.697835,-0.0011669067,-0.0014091837,-0.053066667,62.210526,156.9064,0.0047884034,1442826,-1322,-402,-182,9823
37876893,3945,0,0.16194327,0.62318945,-10.236708,0.0033470325,0.0047593787,-0.037971117,62.193905,156.9064,0.0047884034,1442826,240,-92,1455,9817
37976892,3994,0,0.20839174,0.43340275,-10.691196,0.0074619474,-0.0068772086,-0.027980778,62.171745,156.9064,0.0047884034,1442826,359,-132,1828,9809
38080945,4022,0,-0.46031606,-0.7535243,-10.006606,-0.0037083086,-0.0018379842,-0.04813706,62.249306,156.9064,0.0047884034,1442826,-333,-216,2792,9837
38180938,4033,0,0.12339972,-0.44101143,-9.721485,0.0074160984,-0.0018487689,-0.0318207,62.224377,156.9064,0.0047884034,1442826,909,248,3385,9828
38280894,4002,0,0.21698415,-0.44633955,-9.981532,-0.004615088,-0.003788363,-0.03758255,62.229916,156.9064,0.0047884034,1442826,-703,312,1723,9830
38384930,4035,0,-0.2990743,0.8183982,-10.250125,0.008320977,0.0013375346,-0.039862532,62.204987,156.9064,0.0047884034,1442826,83,-595,621,9821
38484893,3994,0,0.7327331,0.60212713,-9.885369,0.0044178325,-0.003211116,-0.030953228,62.224377,156.9064,0.0047884034,1442826,-121,358,3158,9828
39102491,3974,0,0.15178941,-0.840663,-9.886343,-0.00091822626,-0.005774061,-0.047950994,62.285316,156.9064,0.0047884034,1442826,-376,-33,-109,9850
39202517,4026,0,0.20166472,-0.82374287,-9.694045,0.0059076776,-3.6576996e-05,-0.042487968,62.2964,156.9064,0.0047884034,1442826,308,51,994,9854
39302527,4036,0,0.107172124,0.10880555,-8.92757,0.008870481,0.0047273804,-0.023987405,62.277008,156.9064,0.0047884034,1442826,-256,237,1548,9847
39406491,4023,0,0.3683988,0.83267874,-8.893205,-0.0010462003,0.0050142426,-0.04270892,62.299168,156.9064,0.0047884034,1442826,96,320,2423,9855
39506491,3960,0,0.5764241,0.14320561,-8.736507,-0.0026428017,-0.0024680546,-0.03475541,62.304707,156.9064,0.0047884034,1442826,-390,511,1524,9857
39610515,4024,0,-0.32525924,-0.4693943,-9.359845,-0.0005138417,-0.00010307715,-0.046594717,62.29086,156.9064,0.0047884034,1442826,796,-247,3333,9852
39712115,4023,0,-0.39934403,0.0268525,-9.622326,0.010209579,0.002993938,-0.040171713,62.31579,156.9064,0.0047884034,1442826,648,-439,1484,9861
39816092,3975,0,0.09022982,0.9411012,-9.401127,-0.0016940811,0.0070199175,-0.02636895,62.304707,156.9064,0.0047884034,1442826,-846,431,2029,9857
39916091,3998,0,-0.0070673963,1.2531099,-9.53567,-0.008845109,0.009960729,-0.059157286,62.3241,156.9064,0.0047884034,1442826,-24,313,2511,9864
40020113,4015,0,0.90423083,0.076639555,-10.673187,0.0090830885,-0.010311786,-0.030311631,62.337948,156.9064,0.0047884034,1442826,-138,118,345,9869
40120091,3952,0,0.45729128,-0.56740624,-10.531058,-0.0036853463,-0.0076824944,-0.039696906,62.321327,156.9064,0.0047884034,1442826,76,840,2367,9863
40220092,3989,0,-0.06889983,-1.0155232,-10.048584,-0.0070932275,0.008479612,-0.036721457,62.318558,156.9064,0.0047884034,1442826,-87,193,1791,9862
40324112,4020,0,-0.4049132,0.53922355,-10.24646,0.008870296,0.006991841,-0.03779731,62.36288,156.9064,0.0047884034,1442826,-46,-542,478,9878
40424140,4037,0,0.32252035,1.2304295,-9.468061,0.009810566,0.0023351025,-0.04098935,62.37119,156.9064,0.0047884034,1442826,153,441,2682,9881
40528092,3979,0,0.45439,0.645935,-9.698528,-0.004334356,0.00072758255,-0.04297131,62.35734,156.9064,0.0047884034,1442826,86,-226,2034,9876
40632098,4007,0,0.33375707,-1.0087705,-10.8103895,0.005772416,-0.0030552181,-0.032119673,62.38227,156.9064,0.0047884034,1442826,683,372,2326,9885
40733730,3995,0,-0.2765854,-1.1245798,-10.407718,-0.009034501,0.0039281766,-0.036475677,62.38781,156.9064,0.0047884034,1442826,-1604,248,1537,9887
40833698,3952,0,-0.3261352,0.047111258,-9.64633,0.00024266611,0.011635394,-0.039041128,62.38227,156.9064,0.0047884034,1442826,110,-43,4376,9885
40937692,4000,0,0.33036184,0.79844874,-10.0985775,0.008505448,-0.001267465,-0.02978614,62.37673,156.9064,0.0047884034,1442826,-206,91,1738,9883
41037692,3962,0,0.44848084,0.6856155,-10.0984125,0.0067862337,-0.0035870364,-0.032635935,62.39889,156.9064,0.0047884034,1442826,394,158,2839,9891
41137765,4066,0,0.31465656,0.20986153,-9.828188,0.0066033625,-0.0045325514,-0.034673117,62.39889,156.9064,0.0047884034,1442826,620,131,3568,9891
41241712,4014,0,0.18882483,-0.9570391,-9.961349,-0.0036519538,-0.00082870515,-0.03513919,62.38504,156.9064,0.0047884034,1442826,-172,600,2496,9886
41341692,4000,0,0.16397545,-0.5837407,-9.173572,0.0064137634,-0.00409161,-0.03083008,62.40443,156.9064,0.0047884034,1442826,-36,521,3051,9893
41441692,4000,0,-0.21323994,0.91795784,-9.71681,0.012338444,0.009114321,-0.038775153,62.434902,156.9064,0.0047884034,1442826,503,-309,897,9904
41545692,3952,0,0.6659992,0.86539674,-8.976135,0.0012536745,0.0023774356,-0.025339942,62.443214,156.9064,0.0047884034,1442826,-226,584,2893,9907
41645692,3967,0,0.84039646,0.22618477,-9.518281,0.011354287,-0.00548439,-0.032324985,62.445984,156.9064,0.0047884034,1442826,-28,-7,1317,9908
41751322,4008,0,0.19756286,-1.0826695,-9.699339,-0.00975978,0.00037898542,-0.030795725,62.462605,156.9064,0.0047884034,1442826,-464,939,2565,9914
41851356,4044,0,0.23681173,-0.5326535,-9.749469,0.004619651,0.0052115163,-0.021030411,62.451523,156.9064,0.0047884034,1442826,449,485,1231,9910
41955312,4000,0,0.1550201,1.1119446,-9.074896,-0.0065656556,0.0054291487,-0.025525983,62.45983,156.9064,0.0047884034,1442826,201,382,2317,9913
42055312,3994,0,0.24652816,0.8984058,-9.534326,0.00851672,0.0052483683,-0.023659512,62.462605,156.9064,0.0047884034,1442826,62,386,1277,9914
42155323,4005,0,0.6846109,0.43462923,-10.334317,0.006874911,-0.015469201,-0.04132056,62.479225,156.9064,0.0047884034,1442826,-56,124,441,9920
42259312,3996,0,0.2975361,-0.852605,-9.967338,-0.0019997498,-0.0047567817,-0.017371437,62.481995,156.9064,0.0047884034,1442826,-448,109,292,9921
42359326,3974,0,-0.46535146,-0.011552004,-8.740875,0.010557447,0.0029951343,-0.055110704,62.493073,156.9064,0.0047884034,1442826,-790,-1194,839,9925
42463341,4023,0,-0.02788769,0.29025802,-8.367967,-0.003075332,-0.01025247,-0.024683693,62.493073,156.9064,0.0047884034,1442826,-1722,-308,945,9925
42567318,4006,0,0.1346186,-0.29899964,-8.2893,-0.00027368346,-0.00960119,-0.043418147,62.498615,156.9064,0.0047884034,1442826,-1393,468,854,9927
42667318,3965,0,-0.21480083,-0.34152284,-9.073912,0.0084293615,-0.00243541,-0.04015463,62.523544,156.9064,0.0047884034,1442826,973,-154,3915,9936
42768910,4018,0,-0.34612563,-0.00039237534,-9.522327,0.009200937,-0.00096995017,-0.036518082,62.537395,156.9064,0.0047884034,1442826,-213,-686,1713,9941
42872892,4000,0,0.7049075,0.72172385,-9.212466,-0.0029672976,-0.0018531275,-0.014610976,62.504154,156.9064,0.0047884034,1442826,874,1092,3044,9929
42972892,3962,0,0.44456914,0.5784905,-9.267345,-0.007702378,-0.009633787,-0.054490015,62.542934,156.9064,0.0047884034,1442826,-1467,439,1745,9943
43072937,4012,0,0.088759065,0.636936,-9.633586,-0.00714179,0.0060279677,-0.061342828,62.551247,156.9064,0.0047884034,1442826,970,202,2291,9946
43176931,4033,0,0.20674898,-0.6600141,-10.371322,-0.002081246,-0.0074033556,-0.025112666,62.531857,156.9064,0.0047884034,1442826,-157,469,3301,9939
43276895,3958,0,0.06997127,-0.9979045,-10.331909,-0.005954032,0.0050778994,-0.041147433,62.540165,156.9064,0.0047884034,1442826,-962,391,904,9942
43376893,4001,0,-0.32588786,-0.12415608,-10.313283,0.0054007755,0.014681706,-0.029577412,62.554016,156.9064,0.0047884034,1442826,74,-80,3880,9947
43480934,4043,0,-0.27768874,1.7386782,-9.773602,-0.0045153853,0.018698476,-0.04354643,62.570637,156.9064,0.0047884034,1442826,955,75,2706,9953
43580934,4017,0,0.20710559,1.8658894,-9.817155,0.010483388,0.00017902238,-0.03898446,62.548477,156.9064,0.0047884034,1442826,178,-459,2335,9945
43682519,3992,0,1.0313053,1.006249,-10.208866,-0.00542131,-0.0113770915,-0.04665786,62.58172,156.9064,0.0047884034,1442826,-264,132,3173,9957
43782488,3981,0,-0.026107661,0.73951435,-11.234847,0.009946866,-0.005635131,-0.044388395,62.614956,156.9064,0.0047884034,1442826,707,-583,1283,9969
43886519,3999,0,0.27566355,-1.045299,-10.522479,-0.008721206,0.0060564317,-0.04315185,62.567867,156.9064,0.0047884034,1442826,1060,925,5037,9952
43990532,4013,0,-0.21743657,0.049185384,-10.74939,0.0060788174,0.0057685766,-0.052251387,62.6205,156.9064,0.0047884034,1442826,-328,-345,-961,9971
44090519,4051,0,0.26081795,1.4117235,-9.704977,0.009280382,0.0046017505,-0.03206354,62.606647,156.9064,0.0047884034,1442826,457,401,2496,9966
44194519,3993,0,0.2678093,0.8581187,-10.078174,0.0005176767,-0.001515965,-0.0517959,62.584488,156.9064,0.0047884034,1442826,-162,-869,1995,9958
44294469,3950,0,0.2942178,-0.23341799,-10.495117,0.010152533,0.0018684177,-0.02745942,62.6205,156.9064,0.0047884034,1442826,1357,398,2183,9971
44398519,4024,0,0.09563582,-1.0585836,-9.7169485,-0.0036760464,-0.0009921964,-0.025669534,62.648197,156.9064,0.0047884034,1442826,-361,1050,3743,9981
44498468,3963,0,-0.16975024,0.0019862154,-9.358299,0.0045541474,0.0054296358,-0.012442309,62.67313,156.9064,0.0047884034,1442826,-299,-37,1773,9990
44600091,4000,0,0.06735002,1.2067994,-9.589323,0.0059528057,-0.0015880715,-0.035739288,62.65374,156.9064,0.0047884034,1442826,-56,-195,557,9983
44700092,3939,0,0.4042786,1.7905147,-9.566723,0.013380609,0.004987572,-0.03169779,62.65374,156.9064,0.0047884034,1442826,1333,-185,1464,9983
44804092,3960,0,0.4549061,0.010073317,-9.851075,0.002258396,0.0010518655,-0.01692497,62.66759,156.9064,0.0047884034,1442826,1140,542,1107,9988
44904126,4004,0,-0.06258456,-0.66942555,-11.0617075,0.011205334,-0.012050312,-0.05304329,62.70914,156.9064,0.0047884034,1442826,-264,-692,1238,10003
45008108,3983,0,0.00019999582,-1.0591018,-10.509982,0.008638845,-0.000725183,-0.061126,62.67036,156.9064,0.0047884034,1442826,-192,-165,932,9989
45108128,4036,0,-0.32009166,-0.453073,-9.975515,-0.017724864,0.010397321,-0.0523,62.720222,156.9064,0.0047884034,1442826,-266,-122,605,10007
45208092,4000,0,0.1630984,0.85941523,-9.69447,0.011103262,-0.0052432455,-0.028122595,62.71745,156.9064,0.0047884034,1442826,-1,-103,-21,10006
45312119,4027,0,0.73503906,0.6542461,-9.792085,0.012527425,-0.004118029,-0.036583915,62.69806,156.9064,0.0047884034,1442826,1232,-59,1505,9999
45416099,4007,0,-0.50276023,-1.7059553,-9.868757,-0.0140146,-0.013675511,-0.044296786,62.7313,156.9064,0.0047884034,1442826,-620,-1205,1156,10011
45516092,3988,0,-0.15001456,-0.6691868,-10.4699745,0.0017618466,-0.0152880065,-0.060302738,62.75346,156.9064,0.0047884034,1442826,-972,-195,-2346,10019
45617692,3994,0,0.064883545,0.28065786,-9.345607,0.0021334994,-0.0037761014,-0.033659164,62.71745,156.9064,0.0047884034,1442826,-651,367,2027,10006
45721692,4000,0,0.17571592,0.6873801,-8.965985,0.0013724455,-0.008525116,-0.02400657,62.75346,156.9064,0.0047884034,1442826,-450,560,3009,10019
45821789,4097,0,-0.110264696,0.32224703,-9.4344635,0.014969105,0.009439987,-0.04000704,62.75346,156.9064,0.0047884034,1442826,26,-224,2801,10019
45925726,4019,0,0.034324475,-0.33248547,-9.619442,-0.012978592,0.0029932433,-0.04141134,62.761772,156.9064,0.0047884034,1442826,1577,-155,2558,10022
46025692,3994,0,0.7676596,-1.0148702,-10.10226,0.0009290806,-0.009003166,-0.031875137,62.76454,156.9064,0.0047884034,1442826,-473,211,-665,10023
46125691,3999,0,-0.40254712,-0.20856598,-9.65779,0.006938784,0.009687076,-0.03598778,62.795013,156.9064,0.0047884034,1442826,-66,-619,2897,10034
46229734,4021,0,-0.32248807,1.1245499,-8.816119,0.0027272631,0.0066197067,-0.033281077,62.789474,156.9064,0.0047884034,1442826,-444,-463,3911,10032
46329734,3979,0,-0.0040500215,1.0533051,-9.641178,-0.0064684353,-0.009713126,-0.052381966,62.80332,156.9064,0.0047884034,1442826,-861,323,1274,10037
46433719,3944,0,1.0208837,-0.7144385,-10.205538,0.00097206887,-0.014191518,-0.041299317,62.831024,156.9064,0.0047884034,1442826,-1179,1044,1290,10047
46533728,3994,0,0.13330065,-1.2760301,-10.26709,0.014177989,-0.008362141,-0.035085864,62.789474,156.9064,0.0047884034,1442826,394,277,3773,10032
46631325,4028,0,0.5134273,-1.3809072,-10.08014,-0.01050717,0.00092280237,-0.05178965,62.822716,156.9064,0.0047884034,1442826,-801,1333,2503,10044
46735337,4040,0,0.16181625,-0.33784804,-9.364446,-0.0004024366,0.002220671,-0.03609072,62.800552,156.9064,0.0047884034,1442826,-1163,881,3344,10036
46839297,3999,0,0.29485878,1.5591562,-8.965337,-0.0033298559,-0.0031311142,-0.045554608,62.819942,156.9064,0.0047884034,1442826,-1076,901,4122,10043
46943293,4002,0,1.0104201,0.20085129,-9.688727,0.0028948907,-0.0061002346,-0.02719926,62.817173,156.9064,0.0047884034,1442826,-739,503,3442,10042
47043297,3979,0,0.25952742,-0.6301371,-10.608723,0.016280238,-0.010798507,-0.030903278,62.822716,156.9064,0.0047884034,1442826,309,71,2919,10044
47143297,4029,0,-0.33457142,-0.86350423,-10.5698,-0.024863617,0.0017836139,-0.05829271,62.808865,156.9064,0.0047884034,1442826,-386,-825,-767,10039
47247291,3994,0,-0.61917895,-0.12604761,-10.205582,-0.00048582302,0.0062553436,-0.037390094,62.842106,156.9064,0.0047884034,1442826,-1,-367,4400,10051
47347291,3972,0,-0.3085509,0.9908841,-9.567258,-0.001872144,0.0065274937,-0.031551566,62.883656,156.9064,0.0047884034,1442826,-152,-13,3680,10066
47447300,4001,0,-0.18166758,1.1145833,-9.549141,-0.0042066523,0.0030719256,-0.035534237,62.828255,156.9064,0.0047884034,1442826,226,-94,2933,10046
47552892,3970,0,0.24019556,-0.4818145,-9.889178,0.0052868226,-0.0043001603,-0.036922053,62.875347,156.9064,0.0047884034,1442826,-318,235,2861,10063
48060891,3999,0,0.06383142,-0.23819993,-10.484801,0.013671795,-0.013654485,-0.040141433,62.905815,156.9064,0.0047884034,1442826,529,-254,2333,10074
48570520,4027,0,0.26437402,0.061251823,-9.595022,0.0020256187,0.009901267,-0.03964334,62.930748,156.9064,0.0047884034,1442826,1776,-378,2799,10083
48670526,4007,0,-0.43334296,-0.9684721,-10.019747,-0.0019137015,0.011777185,-0.01776043,62.97784,156.9064,0.0047884034,1442826,-1231,-501,687,10100
48774519,4051,0,-0.11607246,0.19245283,-8.955352,-0.011448257,0.0064945975,-0.0341452,62.941826,156.9064,0.0047884034,1442826,-1147,-277,2384,10087
48878519,4000,0,0.022285229,1.3814344,-9.158456,-0.0029304123,0.016840803,-0.025356013,62.96676,156.9064,0.0047884034,1442826,1001,-472,2573,10096
48978520,4001,0,0.12768629,0.041609827,-10.085307,-0.0045567085,0.0014058141,-0.045795854,63.00277,156.9064,0.0047884034,1442826,489,394,1998,10109
49082468,3947,0,0.020599347,-0.7996151,-9.868644,-0.0070093814,0.010479479,-0.03776854,62.96953,156.9064,0.0047884034,1442826,-312,-1,2372,10097
49182525,4006,0,0.59654444,-0.4755712,-9.826404,-0.00086421426,-0.001516212,-0.03372663,62.972298,156.9064,0.0047884034,1442826,951,1415,3668,10098
49282506,3987,0,0.20356067,0.48135993,-10.073209,0.006826997,-0.0027618348,-0.03247889,62.950138,156.9064,0.0047884034,1442826,254,293,2359,10090
49382519,4028,0,-0.04080616,0.59783673,-9.920567,0.0017395612,-0.0072094654,-0.048101686,62.991688,156.9064,0.0047884034,1442826,-106,-802,693,10105
49484185,4073,0,0.15709245,0.6876639,-9.549191,0.0021188115,-0.019295001,-0.041885342,62.994457,156.9064,0.0047884034,1442826,1589,-890,2192,10106
49588146,4028,0,0.105214454,-0.5523235,-10.045938,0.005969138,-0.016620617,-0.052966073,63.01662,156.9064,0.0047884034,1442826,-701,-78,1994,10114
49688112,3970,0,0.009620752,-0.09100841,-9.759654,-0.0048950166,0.006324327,-0.04942576,62.98338,156.9064,0.0047884034,1442826,446,-189,2523,10102
49792121,4009,0,-0.09195968,0.27473927,-9.722802,-0.007773226,0.0122091975,-0.04219278,63.0,156.9064,0.0047884034,1442826,-1583,-748,580,10108
49896112,3988,0,0.07325478,0.5075959,-9.517023,0.0029393765,0.017238319,-0.052376874,63.04432,156.9064,0.0047884034,1442826,-14,-1414,2043,10124
49996112,4000,0,0.42641842,-0.1092029,-9.987046,-0.0058782026,-0.0031623072,-0.039453156,63.05263,156.9064,0.0047884034,1442826,-652,264,1687,10127
50100147,4035,0,-0.32442442,-0.95564955,-9.20449,-0.013611155,-0.0015092939,-0.036257572,63.03878,156.9064,0.0047884034,1442826,-786,-150,3855,10122
50200112,4002,0,-0.6877251,-0.31892717,-9.777115,0.018152941,0.00242389,-0.036867518,63.03047,156.9064,0.0047884034,1442826,477,-530,1331,10119
50300112,3932,0,0.23688604,0.10344028,-9.200697,0.0033537077,-0.001720957,-0.033789493,63.03047,156.9064,0.0047884034,1442826,-1373,-498,2234,10119
50404154,4042,0,1.1645708,1.916844,-9.846456,0.009570484,0.0053562974,-0.04242867,63.04155,156.9064,0.0047884034,1442826,1264,-67,280,10123
50505710,4018,0,0.58056,0.4997599,-10.290814,-0.008160708,-0.013237644,-0.04223316,63.06094,156.9064,0.0047884034,1442826,480,1167,1784,10130
50605730,4039,0,-0.1986762,-0.32218772,-9.853866,0.0054312926,-0.00089741184,-0.037241705,63.06094,156.9064,0.0047884034,1442826,436,-1,2812,10130
50709736,4044,0,-0.30041817,-0.4094408,-10.589578,0.008666653,-0.006458695,-0.050737146,63.04432,156.9064,0.0047884034,1442826,-544,-759,473,10124
50809734,4042,0,0.15885483,0.49202827,-9.407425,0.007310898,0.00993285,-0.013809383,63.05263,156.9064,0.0047884034,1442826,871,-106,2136,10127
50913692,3958,0,0.017142573,1.4829178,-9.215047,-0.010465263,0.007067857,-0.033944238,63.116344,156.9064,0.0047884034,1442826,366,336,2934,10150
51017692,3994,0,0.006152917,0.13298732,-10.538893,0.0033423838,-0.0022275916,-0.04860048,63.06371,156.9064,0.0047884034,1442826,666,-575,640,10131
51117736,4007,0,0.52854466,-0.61633986,-10.795093,0.0028784887,-0.0060973847,-0.05200824,63.108032,156.9064,0.0047884034,1442826,129,57,475,10147
51217725,3995,0,0.001598395,-0.7030391,-10.665017,-0.0029298568,-0.0007656133,-0.04993787,63.102493,156.9064,0.0047884034,1442826,-789,-232,617,10145
51321734,4040,0,-0.47674853,1.1118855,-9.47951,0.0059187794,0.014476595,-0.029859047,63.124653,156.9064,0.0047884034,1442826,368,-969,1184,10153
51419302,3983,0,0.24983843,1.4217054,-9.250041,-0.0077513233,0.011449689,-0.037305262,63.07756,156.9064,0.0047884034,1442826,31,488,668,10136
51523269,3950,0,0.47538447,1.4970037,-9.508044,-0.011663009,-0.009009604,-0.04265181,63.132965,156.9064,0.0047884034,1442826,-440,365,3569,10156
51623319,4048,0,0.8107974,0.8413366,-9.804609,0.0104210405,-0.009020249,-0.025632352,63.1108,156.9064,0.0047884034,1442826,208,95,2684,10148
51727319,3995,0,0.6236172,-1.206967,-10.441905,0.0054133087,-0.010803886,-0.022995709,63.1108,156.9064,0.0047884034,1442826,-663,1187,3595,10148
51827268,3949,0,0.02395217,-0.8993247,-10.8090725,0.0070654973,0.0065873186,-0.04326832,63.141273,156.9064,0.0047884034,1442826,848,-249,323,10159
51927268,3966,0,-0.64977545,-0.5657646,-9.401185,-0.016558385,0.011115681,-0.033634,63.141273,156.9064,0.0047884034,1442826,-422,230,4023,10159
52031319,4014,0,0.25552592,1.5255774,-9.215962,-0.008068431,0.009952622,-0.03473248,63.155125,156.9064,0.0047884034,1442826,-227,222,2211,10164
52135319,4000,0,0.123894125,1.6039693,-9.2538185,-0.007878451,0.0046995743,-0.044669505,63.141273,156.9064,0.0047884034,1442826,1620,221,3588,10159
52235290,3971,0,0.55412996,0.10707358,-10.138895,0.005239184,-0.0073242863,-0.03713332,63.185596,156.9064,0.0047884034,1442826,466,796,2695,10175
52340892,4000,0,0.31439686,-1.304624,-9.512486,-0.012174748,0.0070852255,-0.039621796,63.149582,156.9064,0.0047884034,1442826,-1099,1065,1899,10162
52440940,4016,0,0.33693162,-0.31662923,-9.235921,0.007233911,-0.005647885,-0.019958321,63.144043,156.9064,0.0047884034,1442826,-552,25,2817,10160
52540898,3967,0,-0.43224546,0.9098747,-9.415437,0.008470023,0.011506365,-0.027483238,63.207756,156.9064,0.0047884034,1442826,14,-976,-219,10183
52644918,4026,0,0.42141566,1.7213725,-9.35232,0.012106804,0.003728794,-0.033614982,63.193905,156.9064,0.0047884034,1442826,454,-383,1570,10178
52744891,3999,0,0.20813635,1.4089067,-9.842801,0.017616939,-0.002709127,-0.045313273,63.185596,156.9064,0.0047884034,1442826,288,-303,2228,10175
52844892,3993,0,0.4287253,0.49591592,-10.256648,0.014321292,-0.006079709,-0.028964182,63.199444,156.9064,0.0047884034,1442826,597,-261,2636,10180
52948892,3963,0,0.18648966,-0.87325627,-9.952491,-0.0018800425,-0.004452983,-0.03304959,63.188366,156.9064,0.0047884034,1442826,-731,413,2509,10176
53048925,4034,0,0.35427237,-0.50580233,-9.154113,0.0002984187,-0.002775173,-0.016896915,63.238228,156.9064,0.0047884034,1442826,-838,513,2550,10194
53152927,4036,0,-0.1953039,1.1914213,-9.074784,-0.00600125,0.007921197,-0.03188976,63.210526,156.9064,0.0047884034,1442826,-290,-935,1748,10184
53254491,3912,0,-0.22053431,1.3191367,-9.517913,-0.0018944826,0.0012416912,-0.036338575,63.199444,156.9064,0.0047884034,1442826,-128,-671,2894,10180
53358507,3981,0,0.69024175,-0.09331483,-10.521299,0.0011283492,-0.011420272,-0.035735715,63.235455,156.9064,0.0047884034,1442826,626,429,623,10193
53458492,4001,0,0.17442462,-1.0620432,-10.534452,-0.003040122,-0.017064972,-0.020984136,63.263157,156.9064,0.0047884034,1442826,-51,333,2158,10203
53562491,4000,0,-0.84109217,0.092618614,-9.876506,0.0020012746,0.01876094,-0.028187469,63.216064,156.9064,0.0047884034,1442826,604,-926,1412,10186
53662505,4014,0,-0.24254726,1.0076377,-9.461047,0.00014845346,0.008433869,-0.029839186,63.265926,156.9064,0.0047884034,1442826,-313,-20,3539,10204
53762533,4042,0,-0.3038155,1.4066894,-9.7840805,-0.0005957419,-0.0038824491,-0.04388832,63.279778,156.9064,0.0047884034,1442826,-551,-449,2146,10209
53862491,3964,0,0.14579326,1.213919,-10.051357,-0.0016171995,-0.0011443107,-0.056465104,63.238228,156.9064,0.0047884034,1442826,-188,-586,1981,10194
53966495,4003,0,0.7805521,-0.628586,-9.8701,0.0031655813,-0.009320429,-0.015821017,63.277008,156.9064,0.0047884034,1442826,365,1350,4465,10208
54066491,4000,0,-0.20853275,-1.2177691,-10.000119,-0.015917188,0.0011438516,-0.05707872,63.263157,156.9064,0.0047884034,1442826,-814,99,1131,10203
54166529,4035,0,-0.26040053,-0.056591876,-9.554639,0.0041662497,0.013502738,-0.035979986,63.265926,156.9064,0.0047884034,1442826,-160,-339,3378,10204
54272185,4067,0,0.26651233,1.3227063,-8.783461,-0.0023857662,0.020179782,-0.039628632,63.268696,156.9064,0.0047884034,1442826,455,23,2943,10205
54376152,4034,0,0.5589778,-0.001954463,-9.597527,-0.0023501308,-0.0027330492,-0.032164313,63.304707,156.9064,0.0047884034,1442826,-999,-174,1492,10218
54476118,4006,0,0.29909217,-0.38748264,-10.216583,-0.007924621,-8.906092e-05,-0.05510065,63.299168,156.9064,0.0047884034,1442826,198,-299,1843,10216
54580141,3981,0,-0.100883044,0.23491488,-9.272429,0.005086432,-0.0063727032,-0.0241256,63.29086,156.9064,0.0047884034,1442826,-117,-5,3267,10213
54680112,4000,0,0.022543946,0.733789,-9.574142,-0.004072015,0.010499314,-0.047543593,63.301937,156.9064,0.0047884034,1442826,-571,-80,2176,10217
54780112,3934,0,-0.03576391,1.556373,-9.932034,0.011300517,0.0034657966,-0.03441455,63.31579,156.9064,0.0047884034,1442826,462,-543,1733,10222
54884112,3979,0,0.060896564,0.43751043,-10.457725,0.004828926,-0.0012843625,-0.049520697,63.321327,156.9064,0.0047884034,1442826,-83,-896,2542,10224
54984151,4000,0,0.50410444,-0.6931918,-9.846848,0.0045042573,-0.008896448,-0.018673446,63.337948,156.9064,0.0047884034,1442826,402,370,2216,10230
55084142,4024,0,0.17802048,-0.5955076,-9.582919,-0.0044396017,0.006361929,-0.04926355,63.35734,156.9064,0.0047884034,1442826,113,-115,1829,10237
55185739,4005,0,-0.33803377,0.13549326,-9.456449,-0.005519386,0.008743663,-0.038496647,63.30748,156.9064,0.0047884034,1442826,240,-164,495,10219
55289772,4080,0,0.6733749,0.81123936,-9.204501,-0.0010309103,-0.006052724,-0.036083434,63.31579,156.9064,0.0047884034,1442826,50,883,2311,10222
55393692,3957,0,0.31603375,-0.19383004,-10.323891,0.00017126824,-0.0036648568,-0.0415793,63.37396,156.9064,0.0047884034,1442826,341,-463,2002,10243
55497692,3994,0,-0.08605279,-0.50873315,-9.992183,0.0040996354,0.005797986,-0.028634124,63.35734,156.9064,0.0047884034,1442826,418,224,2449,10237
55597692,3999,0,0.0028187702,0.28647694,-9.560872,0.008815319,0.004557427,-0.03797211,63.38781,156.9064,0.0047884034,1442826,-422,236,2469,10248
55697692,3999,0,-0.12596902,1.0604209,-9.175118,0.0030009123,0.0059455293,-0.03157021,63.34349,156.9064,0.0047884034,1442826,-903,-179,2764,10232
55801737,4045,0,0.12676857,1.1966337,-9.231882,-7.327204e-05,0.0010468038,-0.04103674,63.36288,156.9064,0.0047884034,1442826,868,-640,1902,10239
55901773,4081,0,0.5065029,0.16142535,-9.322327,-0.008645883,-0.0031358341,-0.035179578,63.36565,156.9064,0.0047884034,1442826,205,1112,4595,10240
56001692,4000,0,0.7518691,-0.7404943,-10.608439,0.0025798343,-0.008288481,-0.042607963,63.38227,156.9064,0.0047884034,1442826,118,853,1909,10246
56103293,4024,0,0.11115379,-1.1761189,-10.264208,0.004136094,-0.0012198678,-0.023397122,63.38781,156.9064,0.0047884034,1442826,-439,189,1428,10248
56207302,3976,0,0.22979988,0.4932364,-9.423234,0.0025128284,-0.0046830745,-0.03137453,63.396122,156.9064,0.0047884034,1442826,-1414,421,2880,10251
56307269,3950,0,-0.34530896,1.5948511,-9.919995,0.009998151,0.011832785,-0.047782764,63.42105,156.9064,0.0047884034,1442826,-415,-231,270,10260
56407313,3994,0,0.12556413,1.8457212,-9.424772,-0.0043590046,0.0043774783,-0.03484935,63.40166,156.9064,0.0047884034,1442826,360,-420,3278,10253
56511319,4008,0,-0.14710623,0.32085407,-10.572336,0.004522822,-0.0069879554,-0.053531103,63.426594,156.9064,0.0047884034,1442826,559,-787,2289,10262
56611319,4014,0,0.31585228,-0.37779087,-10.097313,-0.015394311,0.006248137,-0.05221305,63.451523,156.9064,0.0047884034,1442826,1247,-319,1901,10271
56715320,4014,0,-0.7984733,-0.09769031,-10.154927,-0.003857039,0.0046554846,-0.034351297,63.448753,156.9064,0.0047884034,1442826,-699,-264,2392,10270
56815269,4000,0,-0.16553026,0.5415147,-9.327356,-0.01482472,0.007347008,-0.05568544,63.448753,156.9064,0.0047884034,1442826,-798,-82,2299,10270
56915319,4012,0,-0.22328852,1.4513173,-9.190968,-0.009502366,0.011143328,-0.05240133,63.44321,156.9064,0.0047884034,1442826,277,342,1470,10268
57016927,4016,0,-0.0016288232,1.267249,-9.687899,-0.0010642798,0.004692068,-0.048621822,63.432133,156.9064,0.0047884034,1442826,1219,-596,2169,10264
57120920,4028,0,0.076457396,-0.5449984,-10.596197,0.002402356,-0.009949083,-0.04438871,63.445984,156.9064,0.0047884034,1442826,-91,-824,676,10269
57220918,4020,0,-0.05353316,-0.78102404,-10.022722,0.0028216362,-0.002620296,-0.037358753,63.45983,156.9064,0.0047884034,1442826,148,-405,1124,10274
57324898,4006,0,0.011168413,0.16255163,-9.057226,-0.007381632,0.018835545,-0.051499598,63.44321,156.9064,0.0047884034,1442826,-356,456,1442,10268
57424892,4000,0,-0.3721823,1.2670671,-9.609822,-0.0022032412,0.015958356,-0.034999333,63.501385,156.9064,0.0047884034,1442826,372,-905,927,10289
57524892,3961,0,-0.12071647,1.6074102,-9.640371,0.0016463308,-0.004220819,-0.047289845,63.47645,156.9064,0.0047884034,1442826,-354,-760,3866,10280
57628892,3988,0,0.6515233,-0.023547385,-10.203569,-0.0012356571,-0.014850028,-0.04562883,63.490303,156.9064,0.0047884034,1442826,-750,475,2051,10285
57728920,4008,0,0.6642798,-0.7657627,-9.682344,-0.0015060524,-0.0025051318,-0.035994634,63.468143,156.9064,0.0047884034,1442826,-487,618,1745,10277
57828918,4003,0,-0.16704156,-0.8856351,-10.004381,-0.013158067,0.0018375174,-0.04757058,63.518005,156.9064,0.0047884034,1442826,-837,205,1144,10295
57932912,3993,0,-0.054223698,0.9982838,-9.975645,0.010899827,0.0024680165,-0.036136072,63.495846,156.9064,0.0047884034,1442826,-100,-249,145,10287
58034546,4042,0,0.44682845,1.651401,-9.676208,0.005327195,0.0035055263,-0.03888933,63.495846,156.9064,0.0047884034,1442826,931,-399,1415,10287
58134492,3959,0,0.44862112,1.2250762,-9.492631,0.014510759,-0.00025429807,-0.029759768,63.504154,156.9064,0.0047884034,1442826,47,-349,1761,10290
58234492,3965,0,0.31415153,0.4749279,-10.2441845,0.0047341688,-0.002677184,-0.035160065,63.509693,156.9064,0.0047884034,1442826,901,-639,447,10292
58338493,3995,0,0.3425204,-0.96370196,-9.847865,-0.0032982728,-0.0054380945,-0.037911102,63.526314,156.9064,0.0047884034,1442826,-232,391,1432,10298
58438534,4036,0,-0.17514394,-0.30002782,-9.899985,0.004229285,0.007320959,-0.032099087,63.523544,156.9064,0.0047884034,1442826,711,75,1074,10297
58542526,4033,0,0.18327655,0.9488678,-9.391075,0.005911068,-0.00017361087,-0.0375128,63.567867,156.9064,0.0047884034,1442826,-768,-461,-491,10313
58642499,4008,0,0.42728052,1.009538,-9.401176,0.0051569897,-0.00969716,-0.031035293,63.523544,156.9064,0.0047884034,1442826,-428,-57,2645,10297
58746492,3984,0,0.82845,-0.17409086,-9.661069,-0.002942951,-0.00090718805,-0.02129269,63.556786,156.9064,0.0047884034,1442826,308,1335,2550,10309
58848130,4011,0,0.26408556,-1.1146061,-10.268019,-0.007405697,-0.0015736127,-0.04283247,63.559555,156.9064,0.0047884034,1442826,-725,281,1120,10310
58948118,3980,0,-0.11981242,-0.5939571,-9.9178505,-0.0003324193,-0.0036453935,-0.03411814,63.529083,156.9064,0.0047884034,1442826,-945,-47,2642,10299
59052103,4005,0,-0.25508702,1.1325179,-9.490462,-0.0031776112,0.002360013,-0.025918802,63.562325,156.9064,0.0047884034,1442826,-246,-544,1397,10311
59152117,3998,0,0.05767165,1.4061384,-9.565279,-0.0037165163,0.00041382073,-0.042904932,63.595566,156.9064,0.0047884034,1442826,336,-485,2354,10323
60381694,3992,0,-0.11170995,-0.11475952,-9.697379,-0.0023552862,-0.0029445959,-0.033214778,63.645428,156.9064,0.0047884034,1442826,571,4,3512,10341
60481692,3926,0,0.6004817,0.6395329,-9.057827,0.008918863,-0.0008054724,-0.030199409,63.63989,156.9064,0.0047884034,1442826,-418,447,3235,10339
60585731,4039,0,0.25947207,1.3717207,-9.392012,-0.0029917944,0.010396399,-0.052318133,63.63712,156.9064,0.0047884034,1442826,705,-94,1920,10338
60686541,4039,0,0.5512204,0.26994672,-9.545563,-0.0034919733,-0.004168189,-0.042373374,63.631577,156.9064,0.0047884034,1442826,311,-12,2650,10336
60787307,3980,0,0.38043654,-0.44991088,-9.937397,-0.0057431287,0.00035670557,-0.031411283,63.6759,156.9064,0.0047884034,1442826,189,-23,1310,10352
60887320,3994,0,0.016454555,-0.9978626,-10.268295,-0.0053803665,-0.0016841505,-0.033956844,63.69806,156.9064,0.0047884034,1442826,244,-171,3239,10360
60991330,3999,0,0.3113816,0.55404913,-9.570552,0.0053502596,0.012189538,-0.03129454,63.67867,156.9064,0.0047884034,1442826,-108,26,1571,10353
61091338,4019,0,0.19808598,0.97499734,-9.587458,0.012407312,0.0050162273,-0.044115614,63.68975,156.9064,0.0047884034,1442826,-836,-576,194,10357
61191311,3992,0,0.04172704,1.3694301,-9.575025,-0.0015356566,0.0071828025,-0.06331645,63.722992,156.9064,0.0047884034,1442826,282,-85,560,10369
61295314,3995,0,0.8623757,-0.4748093,-10.503406,0.010374841,-0.01602668,-0.035266083,63.684208,156.9064,0.0047884034,1442826,342,417,1751,10355
61395360,4030,0,0.26947019,-1.2153436,-10.30841,0.0045046047,-0.009110077,-0.031751677,63.73407,156.9064,0.0047884034,1442826,219,375,4082,10373
61499330,4011,0,0.06857678,-0.10738815,-9.660422,-0.0040412997,0.010260737,-0.03895209,63.69252,156.9064,0.0047884034,1442826,-120,319,1730,10358
61599295,3962,0,-0.004616885,0.6877113,-9.381008,-0.0025557308,0.0017941874,-0.043550067,63.70914,156.9064,0.0047884034,1442826,-755,390,1461,10364
61704912,3966,0,0.07625427,0.62524056,-9.433658,0.012681198,-0.0038350145,-0.04135974,63.73407,156.9064,0.0047884034,1442826,-433,-518,2661,10373
61808918,4001,0,0.46806318,-1.0114158,-10.486854,0.006691685,-0.004813364,-0.050385747,63.72853,156.9064,0.0047884034,1442826,552,60,987,10371
61908912,3951,0,-0.15538016,-0.6578842,-10.255431,-0.005313121,0.002517753,-0.045913927,63.7313,156.9064,0.0047884034,1442826,-157,-417,2029,10372
62012935,4024,0,0.0846303,1.0393249,-9.463596,0.003197695,0.014702432,-0.037760444,63.72853,156.9064,0.0047884034,1442826,-41,-103,423,10371
62112950,4038,0,0.18924783,1.5119884,-9.472816,-0.010086871,0.008192759,-0.041923724,63.74792,156.9064,0.0047884034,1442826,-407,-59,1162,10378
62216912,4000,0,0.37566745,0.62923735,-9.665571,-0.0025387458,-0.0072241486,-0.048327744,63.756233,156.9064,0.0047884034,1442826,-154,-377,4959,10381
62316919,4007,0,0.63000673,-0.4419015,-9.913781,-0.0046005957,-0.0013736282,-0.03912717,63.761772,156.9064,0.0047884034,1442826,1066,400,4293,10383
62416916,4004,0,0.44796208,-0.90504515,-9.790048,0.00048150425,0.0033949756,-0.03646928,63.7867,156.9064,0.0047884034,1442826,683,826,4242,10392
62622498,3970,0,-0.27472284,0.7393903,-9.63554,-0.0013043281,0.0025206353,-0.039269514,63.775623,156.9064,0.0047884034,1442826,-367,-347,2195,10388
62722517,3985,0,0.011867011,1.0562928,-10.1390915,0.0013710186,-0.0037933346,-0.05282735,63.759003,156.9064,0.0047884034,1442826,-935,-504,2303,10382
62826552,4060,0,0.55406165,0.14150587,-10.421499,0.0027851728,-0.010414727,-0.042283643,63.814404,156.9064,0.0047884034,1442826,36,-337,1198,10402
62926492,4000,0,0.35544348,-0.59636414,-10.141507,-0.0043436037,-0.014537578,-0.042819437,63.78393,156.9064,0.0047884034,1442826,-761,-218,2775,10391
63030492,4000,0,-0.052249227,-0.502837,-10.582591,-0.0018396983,0.00015737745,-0.06435457,63.76454,156.9064,0.0047884034,1442826,-697,-696,552,10384
63130492,4001,0,-0.071293615,0.5085474,-9.9008665,0.0092288945,0.013809337,-0.041164704,63.78393,156.9064,0.0047884034,1442826,596,-464,-251,10391
63234536,4036,0,0.21850091,1.1000252,-9.639005,-0.0077341213,0.004723157,-0.04609471,63.822716,156.9064,0.0047884034,1442826,-167,224,1468,10405
63338491,4000,0,0.621302,0.28713045,-10.31656,0.005619659,-0.0064388714,-0.03892964,63.792244,156.9064,0.0047884034,1442826,558,-277,1035,10394
63440125,4006,0,0.4669921,-0.8648687,-10.568282,-0.0016039673,0.00039822469,-0.032326814,63.814404,156.9064,0.0047884034,1442826,-271,145,348,10402
63540137,4069,0,-0.02700378,-0.7624473,-9.96614,-0.0021647438,0.00805008,-0.050090924,63.795013,156.9064,0.0047884034,1442826,132,-195,1683,10395
63644124,4005,0,0.19602062,0.83594555,-9.334677,0.002473151,-0.001264977,-0.031292178,63.800552,156.9064,0.0047884034,1442826,121,153,2304,10397
63744126,4007,0,0.33604395,0.96979856,-9.123712,-0.009418432,0.006460987,-0.057127185,63.828255,156.9064,0.0047884034,1442826,30,301,3214,10407
63848119,4000,0,0.7958447,0.7087816,-9.818405,0.006649768,-0.0090371445,-0.039523985,63.789474,156.9064,0.0047884034,1442826,708,580,3856,10393
63948068,3998,0,0.3238283,-0.35769057,-10.192592,-0.009796524,-0.0026928196,-0.05770552,63.842106,156.9064,0.0047884034,1442826,305,-151,2521,10412
64048075,3981,0,0.05479559,-0.60895747,-10.268042,0.0033846288,0.0077514304,-0.04218495,63.819942,156.9064,0.0047884034,1442826,106,-292,856,10404
64152094,3968,0,-0.05240673,0.3943995,-9.621615,-0.00023349212,0.0013264173,-0.035635613,63.864265,156.9064,0.0047884034,1442826,279,31,2824,10420
64252068,3949,0,0.21775872,1.1438631,-9.308395,-0.0014297654,0.0039645745,-0.046605196,63.872574,156.9064,0.0047884034,1442826,4,606,2681,10423
64353719,3984,0,0.31823242,1.3541471,-9.612574,-0.0013654511,-0.00097396644,-0.036370445,63.880886,156.9064,0.0047884034,1442826,601,147,1445,10426
64457698,4000,0,0.17251267,-0.41377681,-9.947111,0.0055801077,-0.002513273,-0.039722867,63.864265,156.9064,0.0047884034,1442826,-154,-289,1707,10420
64561698,4007,0,-0.12212479,-0.9012599,-10.558223,0.0044130106,-0.00801231,-0.03562254,63.858727,156.9064,0.0047884034,1442826,-845,-404,367,10418
64661691,3963,0,-0.05199656,0.0076971427,-9.745647,0.00047439596,0.0034173103,-0.024607975,63.872574,156.9064,0.0047884034,1442826,-483,-6,1692,10423
64765693,3966,0,0.41875094,1.564391,-9.200954,-0.002432744,0.008960868,-0.04781969,63.878117,156.9064,0.0047884034,1442826,666,545,2084,10425
64865718,4026,0,1.0587612,0.9729084,-9.889604,0.0024387846,-0.0031167963,-0.041194953,63.883656,156.9064,0.0047884034,1442826,34,466,1342,10427
64965698,4006,0,0.43045095,0.04288005,-10.43034,0.01001485,-0.01560241,-0.03353832,63.847645,156.9064,0.0047884034,1442826,-102,-31,1637,10414
65069734,4042,0,0.5636805,-1.4823142,-10.20296,-0.001954399,-0.0026307674,-0.03135404,63.900276,156.9064,0.0047884034,1442826,-1170,713,1005,10433
65169734,4042,0,0.2724606,-0.08559618,-9.706083,0.004931231,0.005200049,-0.037819095,63.883656,156.9064,0.0047884034,1442826,212,882,3395,10427
65271304,4013,0,-0.09308143,1.0400586,-9.455789,0.010001228,0.0026084834,-0.024002077,63.916897,156.9064,0.0047884034,1442826,271,-495,768,10439
65371291,3995,0,-0.16059701,1.5035212,-9.250809,0.0022849545,0.004490552,-0.05836614,63.903046,156.9064,0.0047884034,1442826,-1246,-766,2930,10434
65475291,3959,0,-0.044891145,0.8701824,-10.505787,0.0075564273,-0.005300823,-0.05172182,63.911358,156.9064,0.0047884034,1442826,102,-851,350,10437
65575292,4001,0,0.37489754,-0.58123505,-10.35146,-0.011014565,0.0020000548,-0.059758797,63.922436,156.9064,0.0047884034,1442826,885,187,687,10441
65675292,4001,0,0.7842037,-1.71189,-10.307159,-0.003208711,-0.012907866,-0.026238061,63.9446,156.9064,0.0047884034,1442826,-629,1236,2894,10449
65779292,4001,0,0.23518588,-0.9241487,-9.627076,0.0016916983,-0.0020565412,-0.033127617,63.925205,156.9064,0.0047884034,1442826,-1034,1130,2490,10442
65879292,3952,0,-0.32532296,1.1091326,-9.551388,0.008571401,0.012192192,-0.04190149,63.916897,156.9064,0.0047884034,1442826,-506,-546,1085,10439
65979298,4007,0,-0.04534069,1.2018964,-9.273575,-0.003196089,0.0045752157,-0.04627136,63.930748,156.9064,0.0047884034,1442826,-874,-619,3089,10444
66083333,4040,0,-0.47297165,1.0768969,-10.27385,-0.0052083144,-0.0053060604,-0.06460767,63.916897,156.9064,0.0047884034,1442826,303,-821,1821,10439
66184925,4014,0,0.3306281,-0.64236504,-10.206839,-0.0035387957,-0.009310129,-0.041395724,63.952908,156.9064,0.0047884034,1442826,313,-566,3242,10452
66284924,4012,0,0.5815484,-1.4520104,-10.107159,-0.013761455,0.0012646406,-0.043205112,63.96122,156.9064,0.0047884034,1442826,-903,1337,2027,10455
66388912,3963,0,-0.047949094,-0.39539775,-9.402561,-0.01557235,0.011391082,-0.055900674,63.958447,156.9064,0.0047884034,1442826,434,23,1510,10454
66488946,4034,0,0.12239246,0.25651488,-9.422438,-0.010801815,0.008826711,-0.051899258,63.972298,156.9064,0.0047884034,1442826,-845,512,1054,10459
66588926,4014,0,0.23464532,1.390962,-9.215352,-0.0005294749,-0.00020356942,-0.05163704,63.972298,156.9064,0.0047884034,1442826,-735,406,1569,10459
66692912,3956,0,0.12220985,0.9404718,-9.749688,-0.011750029,-0.00030001224,-0.04267826,63.994457,156.9064,0.0047884034,1442826,218,-96,2579,10467
66792912,4000,0,0.3148352,-0.28610745,-9.763507,-0.0065801023,0.0033457584,-0.03448184,63.972298,156.9064,0.0047884034,1442826,1037,246,1801,10459
66892912,3956,0,0.21432573,-1.1147676,-10.210856,-0.0075091086,-0.0057233614,-0.040177174,64.01662,156.9064,0.0047884034,1442826,-476,113,1097,10475
66996912,3961,0,-0.5212342,0.0033434436,-10.283647,-0.0014777519,0.0097586475,-0.053473845,64.00277,156.9064,0.0047884034,1442826,-629,-783,811,10470
67096954,4004,0,-0.27713302,1.1760635,-9.556727,0.000991432,0.014585745,-0.04808336,64.02216,156.9064,0.0047884034,1442826,-360,-786,3191,10477
67202492,4001,0,0.42301172,1.1714123,-9.518035,0.0077219824,-0.008333948,-0.019349579,64.0277,156.9064,0.0047884034,1442826,445,-74,2275,10479
67302492,3951,0,0.43061528,0.35850367,-9.9184675,0.009004776,-0.007193919,-0.01723618,64.00277,156.9064,0.0047884034,1442826,421,-536,1571,10470
67402519,4027,0,0.32946116,-0.3638302,-10.095906,0.009651665,-0.005211784,-0.01227999,64.00831,156.9064,0.0047884034,1442826,1277,-626,264,10472
67506498,4005,0,0.5772184,-0.7552049,-9.385966,-0.0015056824,0.0030819569,-0.040316768,64.01939,156.9064,0.0047884034,1442826,-1019,961,2001,10476
67610493,4001,0,0.12235637,1.3117244,-9.648017,-0.0013230854,0.0051292414,-0.046632856,64.03601,156.9064,0.0047884034,1442826,-692,-534,1917,10482
67710492,3999,0,-0.046175335,1.3656161,-9.594966,-0.006138253,0.0056730406,-0.053598523,64.01108,156.9064,0.0047884034,1442826,615,-158,1800,10473
67810504,4004,0,0.25852552,0.7187885,-9.6863575,-0.0042453418,0.0010111963,-0.04836455,64.03878,156.9064,0.0047884034,1442826,956,-25,3411,10483
67914531,4033,0,0.26932278,-0.693169,-10.712155,0.003240628,-0.004531685,-0.037229374,64.02493,156.9064,0.0047884034,1442826,561,64,1136,10478
68016119,4000,0,0.11687774,-0.42271844,-10.142581,0.008744503,-0.0035389564,-0.01996152,64.03047,156.9064,0.0047884034,1442826,-597,-12,1249,10480
68116072,3953,0,-0.057644434,0.77847946,-9.63607,0.0022922547,-0.0002606965,-0.024803286,64.03047,156.9064,0.0047884034,1442826,-299,276,3055,10480
68216133,4014,0,0.43074226,1.2527518,-9.090326,0.00036220858,0.0005237511,-0.04768438,64.08033,156.9064,0.0047884034,1442826,216,747,2213,10498
68320089,3970,0,0.23963614,0.4686615,-9.942901,-0.00021956305,-0.001956297,-0.04365154,64.07202,156.9064,0.0047884034,1442826,269,-185,2211,10495
68420119,4000,0,0.26794994,-0.541381,-10.413158,0.0019725235,-0.0061599407,-0.044218883,64.094185,156.9064,0.0047884034,1442826,102,-748,3123,10503
68524094,3978,0,0.23562102,-0.83599687,-10.017546,0.0035048085,-0.0028634293,-0.016325919,64.096954,156.9064,0.0047884034,1442826,-305,129,2526,10504
68624068,3949,0,-0.04036857,-0.09926474,-9.180725,0.0009898938,-0.0011014116,-0.028700588,64.091415,156.9064,0.0047884034,1442826,-1100,569,2897,10502
68728094,3975,0,0.041321687,1.2965245,-9.483438,-0.010077154,0.001933069,-0.04465384,64.0831,156.9064,0.0047884034,1442826,-18,66,2343,10499
68832094,3976,0,0.009160592,0.6426604,-10.18096,0.009872198,-0.0043415683,-0.039727665,64.094185,156.9064,0.0047884034,1442826,1183,-292,827,10503
68933698,3937,0,0.25520217,-0.5749481,-10.096704,0.010288071,-0.0049906,-0.041298956,64.08864,156.9064,0.0047884034,1442826,896,1,2376,10501
69033692,3957,0,-0.14719543,-1.1350754,-10.637542,-0.0034562885,-0.0054360745,-0.05892407,64.132965,156.9064,0.0047884034,1442826,53,-807,1481,10517
69133693,3909,0,-0.33353925,-0.8959512,-10.207997,-0.0078059165,0.012364131,-0.03149435,64.099724,156.9064,0.0047884034,1442826,-778,169,1956,10505
69237692,3977,0,-0.2469591,1.0071265,-9.374966,-0.0032008348,0.010153298,-0.035091266,64.091415,156.9064,0.0047884034,1442826,-302,-266,3799,10502
69337698,3980,0,0.35500792,1.9995949,-9.119302,-0.0066504595,0.0070312778,-0.045110952,64.11357,156.9064,0.0047884034,1442826,-82,129,921,10510
69441721,4029,0,0.4843879,0.43501934,-10.206933,-0.015242452,-0.008363115,-0.05961784,64.135735,156.9064,0.0047884034,1442826,64,237,537,10518
69541692,3994,0,0.7174127,-0.40988654,-10.177726,0.010291381,-0.007951366,-0.032948446,64.11634,156.9064,0.0047884034,1442826,490,-204,1750,10511
69641692,3994,0,-0.14206184,-1.0383884,-10.569363,-0.009925248,-0.008201392,-0.045504678,64.135735,156.9064,0.0047884034,1442826,-362,-296,2871,10518
69745692,4000,0,-0.72161084,-0.41202354,-9.6452675,-0.014795154,0.0064480607,-0.05162101,64.138504,156.9064,0.0047884034,1442826,-500,-583,2209,10519
69847293,4002,0,0.043500908,0.61618865,-9.180348,-0.005785414,0.015427746,-0.034139857,64.12466,156.9064,0.0047884034,1442826,169,790,823,10514
69947292,4001,0,0.55895233,1.8462186,-8.997144,0.005611695,0.004514829,-0.018523715,64.135735,156.9064,0.0047884034,1442826,342,263,3376,10518
70047347,4055,0,-0.26199943,1.8278208,-9.797487,0.0012576241,-0.00021668011,-0.047833987,64.138504,156.9064,0.0047884034,1442826,350,-56,2718,10519
70151325,4034,0,0.15081342,0.14133652,-10.810654,0.006865199,-0.0056935553,-0.05645679,64.18005,156.9064,0.0047884034,1442826,1062,-500,524,10534
70251301,4010,0,0.40204394,-0.8872237,-10.189128,-0.009434356,0.0051390072,-0.025035135,64.18836,156.9064,0.0047884034,1442826,1307,117,3340,10537
70355291,3987,0,-0.9840935,-0.944303,-10.243231,-0.015336228,0.017675977,-0.04050003,64.19391,156.9064,0.0047884034,1442826,-358,-291,936,10539
70459298,4007,0,-0.14197831,1.1548454,-9.189023,-0.007826073,0.016211737,-0.04153982,64.18559,156.9064,0.0047884034,1442826,337,-441,2680,10536
70559331,4040,0,0.3884243,1.6044425,-8.76926,0.0037262104,-0.0030374685,-0.019973263,64.171745,156.9064,0.0047884034,1442826,-970,539,3135,10531
70663314,3996,0,1.1252288,0.4473796,-9.804793,0.0027130176,-0.006217927,-0.03152633,64.19113,156.9064,0.0047884034,1442826,654,1065,1702,10538
70764918,4006,0,0.28227356,-0.5266591,-9.881419,0.009326504,-0.009113842,-0.012354291,64.174515,156.9064,0.0047884034,1442826,796,-359,1330,10532
70868922,4010,0,-0.018968398,-0.6164936,-10.23022,0.004756275,-0.0035370379,-0.04655642,64.19391,156.9064,0.0047884034,1442826,186,-461,-964,10539
70968954,4042,0,-0.7590885,0.12108611,-9.829584,0.0059143878,0.006870931,-0.032235906,64.19113,156.9064,0.0047884034,1442826,-274,-963,2196,10538
71068912,3981,0,-0.118257806,0.58569115,-9.236917,-0.0019244049,0.015977979,-0.034122888,64.171745,156.9064,0.0047884034,1442826,21,146,2992,10531
71172937,4019,0,-0.44715455,1.0839326,-9.365084,0.003817446,-0.0007532153,-0.037378985,64.19391,156.9064,0.0047884034,1442826,-808,-624,4350,10539
71272912,3994,0,-0.018788707,0.32603034,-9.512042,-0.012516054,0.0005262692,-0.049597394,64.213295,156.9064,0.0047884034,1442826,17,-170,3452,10546
71372951,4039,0,0.46001005,-0.33336028,-9.458038,-0.0074719526,0.004129882,-0.037660845,64.216064,156.9064,0.0047884034,1442826,857,828,4152,10547
71476959,4042,0,-0.18369304,-0.2637286,-9.831684,0.00361297,0.0072687995,-0.04204601,64.22437,156.9064,0.0047884034,1442826,129,-518,2754,10550
71576912,3994,0,-0.6634667,0.13114011,-9.330053,0.0013825534,0.012381806,-0.036918525,64.23546,156.9064,0.0047884034,1442826,-345,-52,4017,10554
71682527,4036,0,0.69052553,0.85208696,-9.462731,-0.0032051364,-0.0030915707,-0.026041787,64.22992,156.9064,0.0047884034,1442826,10,28,1148,10552
71786522,4030,0,0.02219603,-0.013087061,-10.315566,-0.0105831325,-0.007876126,-0.057999168,64.27147,156.9064,0.0047884034,1442826,392,-518,799,10567
71886493,3965,0,-0.12989254,-0.12414284,-9.946403,-0.007015874,0.001596506,-0.052080456,64.257614,156.9064,0.0047884034,1442826,1042,-439,3180,10562
71986499,3970,0,0.033475075,-0.45045593,-10.003066,0.0070955744,0.004328663,-0.033286907,64.22992,156.9064,0.0047884034,1442826,-815,-616,1011,10552
72090520,4014,0,0.06223421,0.71304524,-9.090138,-0.0033093935,0.004744315,-0.020458218,64.28255,156.9064,0.0047884034,1442826,189,650,2849,10571
72190504,4012,0,-0.1592749,1.0928015,-9.515477,-0.008501542,-0.0018506099,-0.04676199,64.257614,156.9064,0.0047884034,1442826,-831,22,1057,10562
72290550,4052,0,0.21962848,0.92784613,-9.019218,-0.0034363808,0.0018151005,-0.04050003,64.26593,156.9064,0.0047884034,1442826,261,-19,4242,10565
72394516,4025,0,0.3693578,-0.8780905,-9.957117,-0.0017688328,-0.013245696,-0.027404632,64.288086,156.9064,0.0047884034,1442826,-640,166,3235,10573
72496119,4000,0,-0.23131253,-0.92493945,-9.752829,-0.006978281,0.006173196,-0.035633072,64.26038,156.9064,0.0047884034,1442826,539,529,2234,10563
72596068,3949,0,-0.6271421,-0.15120769,-9.836277,-0.003774085,0.004314752,-0.04539797,64.28255,156.9064,0.0047884034,1442826,-739,-1258,1558,10571
72696095,4024,0,0.0011969728,0.584895,-9.450532,0.010628961,0.007842875,-0.04974212,64.27147,156.9064,0.0047884034,1442826,-588,-41,2272,10567
72800092,3973,0,-0.044352084,0.6670572,-9.180926,-0.008985238,-0.0034140642,-0.0465755,64.28255,156.9064,0.0047884034,1442826,-775,-234,3009,10571
72900107,3988,0,-0.14364223,0.021669572,-9.978353,-0.0051501715,-0.005756445,-0.038677037,64.29917,156.9064,0.0047884034,1442826,338,-665,2546,10577
73004132,4006,0,0.6227612,-1.1431849,-10.274056,-0.005155996,-0.0119182095,-0.037575427,64.31025,156.9064,0.0047884034,1442826,-1209,386,1949,10581
73104068,4000,0,-0.5424231,-0.8333045,-9.8852215,-0.0065288465,0.007634564,-0.04888185,64.27701,156.9064,0.0047884034,1442826,-90,-222,1534,10569
73208119,4043,0,0.026428513,0.90225124,-9.403249,0.0045166425,0.008559766,-0.04263939,64.27701,156.9064,0.0047884034,1442826,575,-377,1720,10569
73312108,4040,0,0.45966572,0.6088299,-9.541472,-0.0027567386,0.0025874057,-0.0473875,64.26593,156.9064,0.0047884034,1442826,706,309,3041,10565
73413735,4001,0,0.027142975,-0.45147616,-9.972587,0.0025289492,-0.007069666,-0.052995905,64.31025,156.9064,0.0047884034,1442826,-154,-270,3088,10581
73513694,3959,0,0.4979991,-1.1631681,-10.465535,-0.0011710688,-0.0063024703,-0.031375125,64.296394,156.9064,0.0047884034,1442826,515,-243,200,10576
73613718,3984,0,-0.03156116,-1.1510587,-10.3299055,0.0020785346,-0.009558378,-0.029334977,64.34349,156.9064,0.0047884034,1442826,-883,337,2907,10593
73717692,4000,0,-0.3423961,0.69243205,-9.484911,-0.0011628341,0.00048100838,-0.034817964,64.33795,156.9064,0.0047884034,1442826,-598,-512,2464,10591
73817692,3967,0,-0.16307212,1.276909,-9.600098,-0.004094491,-0.00076024776,-0.070535325,64.31025,156.9064,0.0047884034,1442826,-446,-385,1729,10581
73921692,3984,0,0.9090201,0.34141895,-9.941342,0.0014614293,-0.007581092,-0.044338457,64.329636,156.9064,0.0047884034,1442826,384,678,2213,10588
74021692,3987,0,0.4105313,-0.36922494,-9.893559,-0.0027365983,0.0034494675,-0.043811504,64.326866,156.9064,0.0047884034,1442826,124,722,2649,10587
74121692,4000,0,-0.04971367,-0.8088314,-10.097943,-0.007085472,0.003053102,-0.03624996,64.32133,156.9064,0.0047884034,1442826,481,-259,997,10585
74225692,3994,0,-0.49871975,0.29143432,-9.76423,0.00767311,0.0067812633,-0.03481097,64.37673,156.9064,0.0047884034,1442826,-99,-829,-313,10605
74323291,3994,0,-0.25049236,0.5360656,-9.545022,0.0048167952,0.00046501006,-0.044024743,64.36565,156.9064,0.0047884034,1442826,-596,-128,3707,10601
74427301,4006,0,0.4553271,1.2783494,-9.406596,0.0101548955,-0.0038991794,-0.023878284,64.36288,156.9064,0.0047884034,1442826,1,329,3550,10600
74527291,4000,0,0.619678,0.8178934,-9.53854,0.007062204,-0.009403278,-0.042789586,64.38227,156.9064,0.0047884034,1442826,786,19,3939,10607
74631341,4049,0,0.20294872,-0.5940092,-10.298561,-0.0052625528,-0.002765215,-0.043325026,64.37396,156.9064,0.0047884034,1442826,-85,150,3057,10604
74731298,3992,0,0.024983661,-0.9347981,-9.816051,-0.00087000197,0.010640595,-0.042587228,64.36011,156.9064,0.0047884034,1442826,-109,648,3420,10599
74835329,4031,0,-0.1407715,0.88505554,-9.114999,0.00855978,0.014914186,-0.028575901,64.35734,156.9064,0.0047884034,1442826,654,-556,1122,10598
74935292,4001,0,0.28128028,1.3077478,-8.821869,0.008090217,0.0036795738,-0.01780853,64.3795,156.9064,0.0047884034,1442826,232,-46,3964,10606
75035298,3984,0,0.48025388,1.1417267,-9.257255,0.0066398736,-0.00029711402,-0.02661563,64.4072,156.9064,0.0047884034,1442826,796,618,3955,10616
75135294,4002,0,0.4840754,0.9037768,-10.056174,0.0043653036,-0.008370021,-0.036655515,64.4072,156.9064,0.0047884034,1442826,718,507,3458,10616
75236891,4000,0,0.27198133,-0.5701182,-10.461018,-0.004543361,-0.008711565,-0.048520077,64.38227,156.9064,0.0047884034,1442826,-305,51,714,10607
75340920,4029,0,-0.4442407,-0.52244216,-10.009871,-0.009077063,0.007520185,-0.039686766,64.37673,156.9064,0.0047884034,1442826,-1101,-355,1600,10605
75440891,3986,0,-0.5105438,0.40428704,-9.400056,-0.0029678808,0.014326589,-0.028935453,64.401665,156.9064,0.0047884034,1442826,510,-373,3529,10614
75544918,3989,0,-0.0700492,1.4261999,-9.7854595,0.007030409,0.0066534597,-0.030625543,64.445984,156.9064,0.0047884034,1442826,296,-389,72,10630
75644926,4029,0,0.14819904,0.8240375,-10.221105,-0.004286348,-0.0056769038,-0.036181442,64.42382,156.9064,0.0047884034,1442826,189,-420,1959,10622
75744891,3966,0,0.48397627,-0.32685712,-10.477202,-0.005153088,-0.0030680029,-0.051691517,64.440445,156.9064,0.0047884034,1442826,280,310,874,10628
75848897,3993,0,-0.21222661,-0.5730461,-10.23703,0.004256168,0.0021521514,-0.035278626,64.41551,156.9064,0.0047884034,1442826,358,-730,-206,10619
75952891,3955,0,0.21924715,1.1302884,-9.093678,0.005819873,0.0020107487,-0.033877045,64.41828,156.9064,0.0047884034,1442826,-366,488,2419,10620
76054492,3991,0,0.565975,2.0294845,-9.340489,0.0016321029,-0.0024050355,-0.020129101,64.42105,156.9064,0.0047884034,1442826,1113,620,2564,10621
76158505,4013,0,0.80767715,0.47746348,-9.771771,-0.00046521824,-0.006427768,-0.045691375,64.45983,156.9064,0.0047884034,1442826,-17,209,2367,10635
76258528,4036,0,0.8950419,-0.36922854,-9.947182,0.0014271146,-0.010297983,-0.055600867,64.42659,156.9064,0.0047884034,1442826,130,532,2589,10623
76358492,4001,0,0.07683402,-0.95993716,-10.296319,0.00835923,-0.0055356487,-0.031445812,64.437675,156.9064,0.0047884034,1442826,1427,-385,1350,10627
76462492,4000,0,-0.11391989,-0.23057282,-9.674576,0.014782051,0.006855491,-0.00814269,64.443214,156.9064,0.0047884034,1442826,505,-4,1489,10629
76562492,4001,0,-0.26556125,1.0645381,-9.816224,0.010214853,0.012398805,-0.042117365,64.434906,156.9064,0.0047884034,1442826,-58,-480,-646,10626
