timestamp,integral_dt,error_count,x,y,z,x_integral,y_integral,z_integral,temperature,range_m_s2,scaling,device_id,x_raw,y_raw,z_raw,temperature_raw
29489291,4200,0,-0.1327562,0.17092332,-9.676287,-0.0037952086,0.0019147183,-0.043341942,48.0,78.0,0.0023928226,1114658,109,-43,-3344,9812
29590091,4200,0,-0.22134133,0.86332667,-9.22913,-0.003616743,0.000906908,-0.03471496,48.0,78.0,0.0023928226,1114658,295,97,-3027,9822
29691965,5274,0,-0.16512866,-0.11364412,-10.136464,0.0017111357,0.008854875,-0.048669174,47.875,78.0,0.0023928226,1114658,-282,555,-3603,2049
29794861,4220,0,-0.54901683,-0.54748875,-9.532458,-0.010528486,-0.00085947866,-0.027789494,48.0,78.0,0.0023928226,1114658,999,20,-2826,8193
29892496,4205,0,0.19364694,2.7025905,-9.16893,0.0093876915,0.010826133,-0.03705529,47.875,78.0,0.0023928226,1114658,668,854,-2159,8192
29998582,5291,0,0.73988026,2.895356,-8.88548,0.004326856,0.0034570354,-0.05223409,48.125,78.0,0.0023928226,1114658,1359,-594,-4754,-6
30099405,4215,0,0.21165311,2.32259,-9.078224,-0.0031765653,0.0012145261,-0.04286165,48.0,78.0,0.0023928226,1114658,1423,100,-3052,-6
30196991,5250,0,0.12973858,1.7594754,-9.437942,6.9831905e-05,0.006793516,-0.04604899,47.875,78.0,0.0023928226,1114658,307,96,-3205,9824
30299890,6300,0,-0.20002893,0.3047718,-9.605017,-0.001439161,-0.0073189535,-0.05955963,48.0,78.0,0.0023928226,1114658,1143,1094,-5159,-6
30403841,4193,0,0.2734007,0.5606692,-9.854062,0.016036524,0.009141954,-0.050302304,47.875,78.0,0.0023928226,1114658,861,2556,-3071,8193
30501490,4199,0,-1.851108,-0.90990454,-10.052597,-0.005535356,-0.007396482,-0.044700984,48.0,78.0,0.0023928226,1114658,-842,1799,-2036,9831
30605459,5259,0,-1.5466142,-0.19686878,-9.927561,0.009269306,0.00897499,-0.050924443,48.0,78.0,0.0023928226,1114658,-176,2010,-3307,2049
30706241,4200,0,1.4946243,1.5389849,-9.686901,0.013207408,0.023166094,-0.048775177,48.0,78.0,0.0023928226,1114658,216,607,-2402,8193
30808149,4259,0,-0.056518372,-1.8821001,-9.646396,0.01855039,0.0077227107,-0.047924537,48.0,78.0,0.0023928226,1114658,-3451,2630,-5063,9844
30908924,4225,0,1.7187498,0.07906499,-10.18311,0.023862796,0.01455756,-0.042523365,47.875,78.0,0.0023928226,1114658,714,-881,-3409,9846
31009736,4245,0,-0.5504198,1.0702521,-10.055216,-0.031382013,0.0021772338,-0.05565554,48.125,78.0,0.0023928226,1114658,2061,-129,-3168,9294
31111541,4188,0,-0.6657702,-0.07982999,-9.236554,0.040190045,-0.0005613959,-0.04553661,48.0,78.0,0.0023928226,1114658,-644,4552,-3556,8193
31213390,5247,0,-4.291272,-0.10849629,-8.829617,0.004763747,-0.014132214,-0.032601178,48.0,78.0,0.0023928226,1114658,729,7955,-3466,-7
31315346,5355,0,0.50699735,-0.50965846,-8.812487,0.040249452,-0.004482043,-0.065228716,48.0,78.0,0.0023928226,1114658,-507,1165,-4081,9853
31416140,4299,0,-0.58871937,0.19679716,-10.411833,-0.07236958,0.006976473,-0.058355596,48.0,78.0,0.0023928226,1114658,215,-3026,-2155,9862
31517908,4125,0,-1.5760576,0.26066107,-8.658061,-0.03781715,-0.003964764,-0.005167449,48.0,78.0,0.0023928226,1114658,422,3027,-3241,-7
31622891,4167,0,1.3657757,0.768733,-9.723414,0.04066036,-0.010015565,-0.03745608,48.0,78.0,0.0023928226,1114658,491,-410,-2064,9865
31720541,4200,0,1.0950505,0.57680804,-11.8525505,0.039680634,-0.002548418,-0.058555447,48.125,78.0,0.0023928226,1114658,-331,-1502,920,9296
31821341,4182,0,-1.7328991,0.23827657,-9.2266865,0.021049624,0.0032078526,-0.07793325,48.0,78.0,0.0023928226,1114658,481,6135,-5385,8193
31923191,4171,0,-0.2264882,1.6117213,-9.950337,0.043993473,-0.008182032,-0.031403955,47.875,78.0,0.0023928226,1114658,1012,2971,-2389,8193
32026091,4199,0,0.9916493,0.66580683,-10.544802,-0.036895018,0.009643646,-0.03996039,48.0,78.0,0.0023928226,1114658,-472,-2189,-780,8193
32127955,4215,0,0.32798144,0.3175532,-9.496656,0.02916796,-0.008215814,-0.07109029,48.125,78.0,0.0023928226,1114658,1484,1338,-8733,2049
32230841,4200,0,0.12048219,0.48504514,-10.438548,-0.00638429,0.0075132046,-0.022977302,47.875,78.0,0.0023928226,1114658,1342,995,-3846,8193
32326391,4200,0,-0.43601835,0.52781856,-11.686257,0.0022365355,0.0058734743,-0.04488851,48.0,78.0,0.0023928226,1114658,1383,2472,-3501,9883
32434542,5251,0,0.24438827,-0.51665515,-10.852268,0.0071651223,-0.00039994597,-0.019900346,48.0,78.0,0.0023928226,1114658,-1500,-836,-4740,9288
32533255,4215,0,0.21264088,-0.19994581,-10.990668,0.019180344,0.001789656,-0.087994106,48.0,78.0,0.0023928226,1114658,2137,2530,-5341,-7
32634059,4218,0,-0.40181842,-0.62509143,-11.087555,0.0066378717,0.020443311,-0.0166186,48.0,78.0,0.0023928226,1114658,244,1031,-4382,9308
32735920,6330,0,-0.87794024,0.01411972,-10.3203,-0.007046278,0.021075709,-0.054977216,48.0,78.0,0.0023928226,1114658,-201,3436,-6406,2049
32837762,5272,0,0.48004973,1.1586592,-9.817204,-0.009492,0.0074952287,-0.025000399,48.0,78.0,0.0023928226,1114658,-1716,-844,-4487,9895
32939590,5243,0,0.64778066,0.698344,-11.408556,0.032354433,-0.010796757,-0.03017759,48.0,78.0,0.0023928226,1114658,1064,1078,1126,16960
33042567,4277,0,0.46490768,-0.37433657,-10.935541,0.018928908,-0.017396502,-0.04411386,48.0,78.0,0.0023928226,1114658,2749,395,-5327,9902
33142240,4199,0,0.17693293,-0.3412511,-9.557387,-0.0030516572,0.0014885565,-0.016062338,48.0,78.0,0.0023928226,1114658,1918,-572,-8171,8192
33243045,4204,0,-0.404472,0.23950268,-10.606034,0.008640438,0.014079237,-0.08307638,47.875,78.0,0.0023928226,1114658,-860,791,-6045,8193
33346999,4209,0,-0.9793468,1.3568013,-8.351565,0.00044834957,0.005427384,-0.05364307,48.125,78.0,0.0023928226,1114658,896,4588,-8860,9900
33447791,4188,0,0.63099605,0.101701975,-10.844107,0.016573837,-0.009302686,-0.014719849,48.0,78.0,0.0023928226,1114658,325,-75,-2249,9910
33551741,4200,0,-0.27366105,-1.2352718,-9.796304,-0.002804992,-0.010201727,-0.03776427,48.125,78.0,0.0023928226,1114658,1528,2188,-6525,0
33653596,4206,0,-1.2035316,-0.060462616,-10.1318035,0.021015106,0.0071355877,-0.073939465,48.125,78.0,0.0023928226,1114658,319,2633,-3967,-6
33754411,4215,0,-0.10565109,1.3713573,-8.587558,0.029718844,0.00023281512,-0.03813835,48.125,78.0,0.0023928226,1114658,1435,2817,-7924,8192
33856241,4101,0,1.0281385,1.6539032,-10.435264,0.031247506,-0.0037727098,-0.04310429,48.125,78.0,0.0023928226,1114658,2600,-1136,166,9925
33960198,4200,0,1.449138,-1.0726818,-10.660837,-0.00856055,-0.007801362,-0.049537897,48.125,78.0,0.0023928226,1114658,1784,-4594,-2403,8192
34060991,4201,0,1.0087718,-1.3385599,-10.159576,0.007980959,-0.004373081,-0.010536836,48.125,78.0,0.0023928226,1114658,1237,-3755,-1938,9917
34161833,4243,0,-0.039515514,-0.36726916,-11.075941,0.024936868,0.009096526,-0.03247675,48.125,78.0,0.0023928226,1114658,-130,122,984,9924
34263641,4157,0,0.9207205,1.0175093,-9.251703,0.008610381,0.011668175,-0.051575992,48.25,78.0,0.0023928226,1114658,-990,-1366,-2405,2048
34362345,4175,0,-1.1582466,1.727701,-9.834265,0.014865124,0.010887775,-0.056531932,48.25,78.0,0.0023928226,1114658,1562,5448,-1286,8193
34464195,4205,0,-0.896916,-0.24934386,-9.090498,-0.008391814,-0.0061796615,-0.053863104,48.0,78.0,0.0023928226,1114658,-80,3971,-7629,9936
34568198,4258,0,-2.47175,-1.02607,-10.866577,-0.0039792107,-0.008275778,-0.03849972,48.25,78.0,0.0023928226,1114658,1056,4672,-1099,8192
34668982,4241,0,0.3496569,0.00748098,-8.368065,-0.040745396,0.01368833,-0.002366415,48.125,78.0,0.0023928226,1114658,-917,-3480,-3370,-7
34768690,5249,0,-2.184262,1.2212135,-7.9118543,-0.018537093,0.0033133267,-0.02476704,48.25,78.0,0.0023928226,1114658,409,4200,-2525,-7
34870599,5308,0,1.4983405,0.7967949,-9.454348,0.01605986,-0.008397476,-0.045641843,48.0,78.0,0.0023928226,1114658,1968,-2885,821,-7
34975541,4143,0,0.2349603,-0.6562403,-8.733011,0.031747546,-0.004018828,-0.020331323,48.125,78.0,0.0023928226,1114658,-514,1432,1273,8193
35075347,5272,0,0.3401121,-0.69838905,-8.99057,-0.044164017,0.016842818,-0.05291183,48.0,78.0,0.0023928226,1114658,-2452,-3749,-870,9952
35173990,4184,0,0.8569622,1.0033424,-8.771874,-0.046495352,0.017565627,-0.016822258,48.0,78.0,0.0023928226,1114658,582,-5353,-221,-7
35280140,4271,0,1.1041592,0.46027663,-9.444849,-0.0049336925,-0.01745359,-0.015586121,48.0,78.0,0.0023928226,1114658,2828,-3381,-1580,9945
35380986,4346,0,-1.8295953,-0.8121636,-9.223753,-0.033666357,0.0020285011,-0.03794922,48.125,78.0,0.0023928226,1114658,-962,4400,1617,9956
35482698,4137,0,0.048616864,-0.5196752,-8.646316,0.050395973,0.009607221,-0.059697695,48.125,78.0,0.0023928226,1114658,-615,1033,-7092,9964
35580346,5255,0,1.0244935,0.27669314,-9.9138,0.030745124,0.0045622885,-0.05560496,48.0,78.0,0.0023928226,1114658,1800,-1386,803,8193
35685341,4182,0,0.51255256,1.1426926,-8.480571,0.03748187,-0.0034840405,-0.009935547,48.125,78.0,0.0023928226,1114658,1710,2,-5728,8193
35787197,4194,0,-1.9592006,-0.23034716,-8.789251,0.009882051,-0.0016913926,-0.060737148,48.0,78.0,0.0023928226,1114658,305,7378,-5143,-6
35888027,4236,0,0.88626903,-1.0961547,-9.5045395,-0.04659918,-0.010020511,-0.03120369,48.0,78.0,0.0023928226,1114658,599,-4839,-2863,-6
35989841,4148,0,-0.9281147,-0.6230389,-9.534153,0.041054823,-0.0007813693,-0.08492947,48.0,78.0,0.0023928226,1114658,1136,3933,-5941,8193
36091691,5119,0,-1.0218936,1.0231807,-9.114227,-0.011225531,0.01718414,-0.011397032,48.0,78.0,0.0023928226,1114658,-1176,2948,-74,0
36188340,4193,0,-0.78894204,1.3808053,-8.98501,0.039444093,0.010061548,-0.03817819,48.25,78.0,0.0023928226,1114658,-390,3877,-3188,-6
36294341,4183,0,-0.6920746,0.0077868826,-9.469197,0.015552765,-0.0060844515,-0.04389887,48.25,78.0,0.0023928226,1114658,2149,5179,-4751,8193
36391991,5250,0,-1.5776197,-0.60911447,-10.137558,0.0361916,-0.0060392097,-0.047135588,48.125,78.0,0.0023928226,1114658,2342,7504,-2043,2049
36496991,4201,0,-1.6022083,-0.14418483,-9.21347,-0.039912798,0.013815319,-0.041958235,48.125,78.0,0.0023928226,1114658,-738,901,-5225,10002
36597791,4201,0,-1.1409162,1.0749377,-9.16901,0.044661194,0.009185313,-0.01709969,48.0,78.0,0.0023928226,1114658,545,6132,-1817,10004
36697540,4199,0,0.6642535,1.5657843,-9.791125,-0.02049649,0.0033006775,-0.043346327,48.0,78.0,0.0023928226,1114658,983,-3794,-2535,10005
36799391,4200,0,-2.892672,-0.10517548,-9.389701,-0.032950237,-0.01074442,-0.010380725,48.125,78.0,0.0023928226,1114658,-237,4772,583,9324
36900209,4218,0,-1.4882644,-1.2808588,-8.687763,0.02331328,0.0020860846,-0.051375657,48.125,78.0,0.0023928226,1114658,877,5930,-9575,10002
37002040,4182,0,0.27861202,-1.0030293,-10.422767,-0.016371507,-0.010057499,-0.023283103,48.0,78.0,0.0023928226,1114658,-2079,-3504,-2520,-7
37102841,4181,0,0.116010346,0.50397974,-10.6026945,0.03177504,0.009216442,-0.028895376,48.125,78.0,0.0023928226,1114658,97,1881,-1422,8193
37206791,4200,0,-0.2291857,1.6747153,-8.457313,0.03535577,0.0009745209,-0.045255672,48.0,78.0,0.0023928226,1114658,-721,2625,-9735,10029
37308682,4228,0,0.09817008,0.05488074,-9.354463,-0.037958384,-0.012816854,-0.021016268,48.125,78.0,0.0023928226,1114658,713,-1818,-6627,10020
37409472,4202,0,0.601507,-0.87076145,-10.76649,0.04119251,-0.017521571,-0.032714088,48.125,78.0,0.0023928226,1114658,2909,2725,-3816,16960
37511340,5272,0,-1.4697603,-1.558315,-10.449601,-0.033033583,0.004743168,-0.03248935,48.125,78.0,0.0023928226,1114658,135,2842,-2062,10036
37613159,5269,0,0.9872454,0.19971013,-10.468516,-0.006742533,0.0011476245,-0.031044835,48.125,78.0,0.0023928226,1114658,187,-3955,-810,10023
37713987,4243,0,-0.00834509,2.3369977,-10.798302,0.022252291,0.009327776,-0.059508305,48.125,78.0,0.0023928226,1114658,1188,2815,-361,8192
37815794,4166,0,-1.1760961,0.9312522,-10.18628,-0.03302588,-0.0035358004,-0.0500799,48.125,78.0,0.0023928226,1114658,-211,3110,-2560,2048
37917716,4276,0,2.0732667,-0.6986995,-11.174945,-0.011090989,-0.009480285,-0.043596398,48.25,78.0,0.0023928226,1114658,2841,-6160,-258,10025
38022641,6300,0,0.21424508,-1.4341933,-12.015903,0.026789652,0.0034135096,-0.067551665,48.25,78.0,0.0023928226,1114658,-520,-2564,1733,10037
38122407,4217,0,-2.6531873,-0.09067996,-11.33538,-0.007799189,0.00970625,-0.06093027,48.125,78.0,0.0023928226,1114658,-624,6047,-1387,2048
38221090,4150,0,0.18085617,0.7515334,-10.316785,0.0020554077,0.017110288,-0.04930988,48.25,78.0,0.0023928226,1114658,-895,-2054,-3564,-7
38325041,4079,0,0.7078492,1.6797338,-9.853081,0.04463933,0.0015648971,-0.086175375,48.25,78.0,0.0023928226,1114658,943,3498,-5486,8193
38425841,4076,0,-0.5181887,0.047962785,-9.33563,-0.040150166,-0.0028676013,-0.04617402,48.125,78.0,0.0023928226,1114658,1479,-305,-6918,8193
38527691,4176,0,2.0252955,-1.4203924,-10.554575,-0.0014652835,-0.010203565,-0.050577465,48.125,78.0,0.0023928226,1114658,316,-4109,-5237,8193
39236440,5250,0,-0.5879358,-0.022979185,-7.1439066,0.08163052,0.009635159,-0.07057607,48.0,78.0,0.0023928226,1114658,-1035,5555,-7657,10070
39339397,4235,0,-0.010007049,0.23592472,-7.899638,0.05247953,-0.0057615438,-0.040486567,48.125,78.0,0.0023928226,1114658,1769,2628,-5144,-6
39439091,4200,0,0.6560277,0.16075854,-8.285946,0.042627987,-0.00034900778,-0.035932325,48.25,78.0,0.0023928226,1114658,2435,258,-6790,-6
39543052,5261,0,2.0464933,-0.025900312,-10.756179,-0.034352582,0.0014500292,-0.03472233,48.25,78.0,0.0023928226,1114658,1313,-6170,4181,8193
39641771,4231,0,0.64818156,-0.045806784,-9.435875,-0.029327672,0.004815322,-0.00028010644,48.125,78.0,0.0023928226,1114658,-1771,-5244,-2723,10084
39741491,5250,0,1.302584,0.8703853,-9.669675,-0.03579063,0.013956239,-0.055217013,48.125,78.0,0.0023928226,1114658,-2320,-5037,-2624,8192
39846567,4277,0,-0.5898518,1.1619779,-10.38258,0.03578114,0.005266927,-0.07521121,48.0,78.0,0.0023928226,1114658,1883,6692,-850,10093
39948341,4156,0,1.0358523,-0.40541077,-10.850783,-0.0010481443,-0.013087727,-0.06644468,48.25,78.0,0.0023928226,1114658,1390,-4012,-4114,8193
40049159,4212,0,-1.242505,-1.5980027,-10.129309,-0.04357645,0.008312023,-0.05795121,48.25,78.0,0.0023928226,1114658,-1093,194,-7096,10099
40153091,4144,0,0.42085212,0.41090864,-11.409491,0.007536934,0.009594825,-0.04470465,48.125,78.0,0.0023928226,1114658,-934,-3108,3513,10101
40252965,4325,0,-0.027231066,1.7834108,-9.644149,-0.042287562,0.020947266,-0.04528617,48.125,78.0,0.0023928226,1114658,474,-2427,-2611,10089
40355741,4200,0,0.7574054,1.9176162,-10.444941,0.046064083,-0.0035844648,-0.07094281,48.125,78.0,0.0023928226,1114658,1508,1273,-2328,-6
40457601,4210,0,0.86536056,-0.31955218,-11.042515,-0.047746174,-0.012419858,-0.031126523,48.0,78.0,0.0023928226,1114658,2971,-2961,-1243,-6
40559482,4136,0,-0.24183512,-1.5975631,-11.309736,0.022172876,-0.011469174,-0.060438536,48.25,78.0,0.0023928226,1114658,2854,1879,-3602,16961
40661311,5159,0,0.25684342,-0.6585128,-11.355278,-0.04100122,0.016889963,-0.028273527,48.125,78.0,0.0023928226,1114658,619,-3815,1859,2049
40760038,4247,0,-1.9036251,0.2700003,-9.282758,-0.031149575,0.007902741,-0.050628312,48.125,78.0,0.0023928226,1114658,-825,2401,-7147,16960
40861846,4153,0,0.12802674,2.1580567,-9.328114,0.02761026,0.007907326,-0.04612385,48.125,78.0,0.0023928226,1114658,1141,-387,-3235,8193
40965795,4142,0,-2.0215042,1.2673807,-7.014035,-0.005250525,-0.0035017026,-0.036886975,48.125,78.0,0.0023928226,1114658,1091,5264,-9967,2049
41069763,5272,0,2.2219727,-1.0758442,-10.675573,0.00037243974,-0.013506275,-0.021001607,48.25,78.0,0.0023928226,1114658,-258,-4610,-1992,10133
41170574,4233,0,-1.7064526,-1.3360548,-10.210621,-0.020895878,-0.0020396977,-0.054266907,48.25,78.0,0.0023928226,1114658,-292,3944,-2180,10112
41272391,4183,0,1.1198337,0.36725765,-9.647558,0.021056667,0.0068740537,-0.042355694,48.25,78.0,0.0023928226,1114658,-982,-4393,-3483,10135
41375341,4248,0,-1.2803575,1.930522,-9.181028,0.015603759,0.012466655,-0.028475747,48.25,78.0,0.0023928226,1114658,197,6757,-1883,10120
41477143,4177,0,0.7577766,1.3434349,-10.539973,-0.029213328,0.0017901107,-0.046565343,48.25,78.0,0.0023928226,1114658,2618,-4454,-634,-6
41578991,4200,0,-0.73201615,-1.2244654,-9.548411,0.044295542,-0.00664838,-0.05252589,48.25,78.0,0.0023928226,1114658,204,6121,-6709,8193
41679791,4200,0,0.34720927,-1.2664568,-10.907367,-0.049804173,-0.005461226,-0.031736087,48.25,78.0,0.0023928226,1114658,1075,-3970,-721,-6
41781745,4303,0,0.12396628,-1.2021148,-9.9478,0.03875689,0.004250328,-0.056461833,48.125,78.0,0.0023928226,1114658,-1024,-1436,-5705,10143
41883491,4168,0,-2.2178652,1.638379,-9.809162,0.006922693,0.007957776,-0.049312703,48.125,78.0,0.0023928226,1114658,-55,7717,-1474,2048
41984291,4143,0,1.5429015,1.7774688,-9.370549,-0.0180088,0.0007294194,-0.025422927,48.25,78.0,0.0023928226,1114658,947,-4509,-3605,10154
42086159,4218,0,0.40740427,1.7381439,-9.710355,0.042465277,-0.0051293904,-0.07336034,48.125,78.0,0.0023928226,1114658,2603,3461,-4737,10146
42187991,5250,0,0.60595673,-0.48835486,-9.392498,-0.043639354,-0.011262941,-0.019108854,48.125,78.0,0.0023928226,1114658,1603,-3075,-2837,-7
42288811,4221,0,0.44566143,-1.0301028,-10.554718,0.02874131,0.004904178,-0.080521025,48.125,78.0,0.0023928226,1114658,21,793,-3182,2049
42390641,4028,0,-0.9668216,0.22006305,-9.363604,-0.045817293,0.000801082,-0.015716251,48.125,78.0,0.0023928226,1114658,117,-198,-1258,2048
42495641,4186,0,1.5817429,1.6990314,-9.53613,-0.0055851047,0.002178964,-0.05322309,48.25,78.0,0.0023928226,1114658,-209,-4252,-2024,10151
42594341,4183,0,-0.64481527,1.3380507,-9.7367735,-0.037172038,0.008387704,-0.0348418,48.125,78.0,0.0023928226,1114658,1574,307,-916,8193
42699348,4189,0,1.9091618,-0.7799398,-10.252924,-0.006389292,-0.0054956614,-0.054583415,48.125,78.0,0.0023928226,1114658,361,-6043,-4578,8193
42801191,4200,0,0.27999353,-1.6762382,-10.206935,0.023065621,-0.001671184,-0.046933703,48.125,78.0,0.0023928226,1114658,936,-94,-3816,9337
42900948,4193,0,-1.9927171,0.021119297,-8.890972,-0.030977052,0.011649377,-0.0425869,48.125,78.0,0.0023928226,1114658,134,2701,-7469,10174
42999642,4182,0,-0.76669586,-0.4652281,-10.401875,0.05242536,0.0025341036,-0.055972293,48.125,78.0,0.0023928226,1114658,75,4983,-1156,16960
43103591,4173,0,-0.23087437,2.2745178,-8.677657,0.019090667,0.006121392,-0.076472655,48.125,78.0,0.0023928226,1114658,1323,2841,-9392,2048
43203407,5316,0,-1.0604743,1.9336315,-10.061138,-0.034176297,0.006626391,-0.05108936,48.375,78.0,0.0023928226,1114658,1704,112,-2008,8193
43306240,6299,0,1.1929123,0.40800765,-9.800909,-0.02859534,-0.015878567,-0.033528086,48.25,78.0,0.0023928226,1114658,763,-3080,-6891,-7
43408140,5299,0,1.1446724,-1.1369275,-11.646597,0.022799622,0.007335164,-0.052549433,48.25,78.0,0.0023928226,1114658,476,-1769,2229,10172
43509940,5249,0,-0.71059847,-0.7201315,-10.381662,0.03187288,0.00472904,-0.037155602,48.375,78.0,0.0023928226,1114658,-86,2409,-617,10190
43615991,4199,0,0.34274364,1.8624818,-9.999709,-0.009929417,0.0020569747,-0.019473463,48.125,78.0,0.0023928226,1114658,1505,-2966,72,-7
43714691,6300,0,-0.50156134,1.7328699,-9.902698,0.03844063,0.004073659,-0.074093685,48.125,78.0,0.0023928226,1114658,2680,495,-2599,9341
43816542,4195,0,0.9535559,-0.18160567,-10.208589,0.038709957,-0.0101244915,-0.027135395,48.125,78.0,0.0023928226,1114658,911,2392,-988,10196
43920491,4200,0,0.43615243,-0.63776964,-10.512441,-0.008525243,0.001961295,-0.038661595,48.25,78.0,0.0023928226,1114658,628,-1804,-454,10202
44021326,4235,0,0.49390444,-0.0052897977,-10.859666,-0.00094463694,-0.006865722,-0.039626494,48.25,78.0,0.0023928226,1114658,-674,-3016,3692,10192
44123158,4217,0,0.6015941,1.5589051,-9.013252,0.0028753746,-0.008177717,0.0046670716,48.25,78.0,0.0023928226,1114658,72,-3109,-3933,8192
44222890,4199,0,0.8657189,1.565465,-9.897324,0.0018949514,-0.008450504,-0.03492225,48.25,78.0,0.0023928226,1114658,815,-1957,-1528,-7
44326841,4200,0,1.058448,-0.7634204,-10.5672865,-0.025595479,-0.00024002876,-0.048221022,48.25,78.0,0.0023928226,1114658,-940,-2677,-1787,8193
44426630,4240,0,1.30782,-0.71489865,-10.868252,0.00486834,0.013966943,-0.04548612,48.25,78.0,0.0023928226,1114658,403,-3578,-1683,-7
44527400,4210,0,0.0823408,-0.14640069,-11.0267315,-0.0074824416,0.019906607,-0.019906165,48.25,78.0,0.0023928226,1114658,904,-814,1147,10208
44631375,4218,0,-0.8938324,1.6766828,-8.405435,-0.009020025,0.012202437,-0.027312461,48.125,78.0,0.0023928226,1114658,770,4488,-6431,8193
44733191,4171,0,-0.64276505,1.7034619,-10.606472,0.0041589886,4.5102264e-05,-0.0793783,48.25,78.0,0.0023928226,1114658,2146,5366,-2801,10223
44837154,5219,0,1.0227313,-1.052576,-10.646878,0.020017684,-0.019769246,-0.0760727,48.25,78.0,0.0023928226,1114658,699,-470,-3345,-7
44938990,5222,0,0.3444431,-1.7242408,-11.543522,0.026503503,-0.009395873,-0.09185123,48.25,78.0,0.0023928226,1114658,1403,-79,-1244,10222
45040969,5378,0,-0.8276806,-0.055692356,-9.783324,0.036101557,0.0049931263,-0.048142955,48.25,78.0,0.0023928226,1114658,497,486,-2610,10230
45141748,4307,0,0.529945,2.1062512,-10.272907,0.023840638,0.015457564,-0.07865351,48.125,78.0,0.0023928226,1114658,995,801,-4476,10232
45243491,4131,0,-0.48254514,1.6097734,-9.394955,0.031849105,0.0026091647,-0.038733467,48.25,78.0,0.0023928226,1114658,1181,5098,-3989,2048
45345342,4182,0,-1.0108654,-0.6472561,-9.30403,0.01608981,-0.0107776625,-0.055757686,48.25,78.0,0.0023928226,1114658,-839,5152,-8101,8193
45442990,5246,0,2.0023427,0.11154423,-10.340826,0.0052890754,-0.014967369,-0.056339722,48.25,78.0,0.0023928226,1114658,957,-3642,-1776,-7
45547990,4199,0,0.6008734,-0.94809556,-10.150269,-0.017764373,0.00016270777,-0.008884377,48.25,78.0,0.0023928226,1114658,-403,-2996,-1011,-7
45647783,4237,0,0.18918529,-0.08163989,-9.174759,0.028278308,0.008087448,-0.06880813,48.375,78.0,0.0023928226,1114658,-210,692,-8160,10242
45749590,5249,0,-1.3082483,2.413446,-9.244885,0.006989963,0.026256902,-0.052999124,48.25,78.0,0.0023928226,1114658,-209,4391,-3793,2049
45855641,4200,0,0.80766225,0.39697117,-10.894392,0.028680732,-0.012404641,-0.06524065,48.125,78.0,0.0023928226,1114658,3421,331,-1107,2048
45954341,4171,0,0.36003676,-0.647561,-10.202554,-0.028740266,-0.011174899,-0.009377299,48.375,78.0,0.0023928226,1114658,1874,-1136,-2130,8193
46060391,4145,0,-1.2516626,0.3091069,-9.32054,0.0010620808,0.0111231655,-0.037908316,48.375,78.0,0.0023928226,1114658,1499,4528,-5585,-7
46158041,5250,0,-0.24399137,-0.30452695,-10.75264,0.033826426,0.016677532,-0.078231096,48.25,78.0,0.0023928226,1114658,-1924,687,-1155,10251
46259891,5250,0,-1.2310097,1.3864658,-9.103373,0.0024063822,0.0036934675,-0.047659736,48.25,78.0,0.0023928226,1114658,-1617,4696,-1580,-7
46360691,4200,0,0.5469223,1.80965,-8.519523,-0.032754526,0.0013294752,-0.049292,48.25,78.0,0.0023928226,1114658,1259,-3642,-9019,-7
46462575,4234,0,1.1777043,0.62585837,-10.611969,0.005271539,-0.018888861,-0.029528575,48.25,78.0,0.0023928226,1114658,2376,-3851,-2689,10264
46565484,4243,0,1.466167,-1.1246641,-10.585904,0.0136736855,-0.004966214,-0.061589673,48.25,78.0,0.0023928226,1114658,568,-3198,-4105,8192
46665243,4214,0,-1.1084484,-1.3061265,-10.306242,0.016006496,0.004367086,-0.073349155,48.25,78.0,0.0023928226,1114658,231,4308,-942,10267
46766033,4223,0,-1.1033541,-0.15620334,-9.380252,-0.015957149,0.014200176,-0.011638637,48.25,78.0,0.0023928226,1114658,-740,3175,-2319,10273
46872148,4301,0,-0.3895312,2.3524206,-9.345931,0.027814675,0.0031912897,-0.051026102,48.25,78.0,0.0023928226,1114658,2861,2968,-3785,10282
46973891,4186,0,-0.7845119,-0.064494856,-8.887041,-0.011981968,-0.004795189,-0.030222598,48.375,78.0,0.0023928226,1114658,658,4966,-6890,8192
47075754,4213,0,1.2901987,-0.99476075,-10.8436985,-0.021160778,0.000596518,-0.032718975,48.25,78.0,0.0023928226,1114658,1982,-4462,1803,2048
47176540,4185,0,-1.562499,-1.8515584,-10.232092,0.02911981,0.004057341,-0.03693523,48.25,78.0,0.0023928226,1114658,593,5000,-1865,10285
47278390,4200,0,-1.900803,-0.055032726,-9.560798,-0.021091072,0.010252227,-0.068388365,48.375,78.0,0.0023928226,1114658,-1050,5336,-3092,-6
47382341,4183,0,-1.9188205,1.1650635,-8.2657995,-0.011334269,0.005014896,-0.04411259,48.25,78.0,0.0023928226,1114658,-1306,4862,-7983,8193
47481065,6325,0,0.76259124,2.2024965,-9.243132,0.011384911,0.005315888,-0.06635835,48.25,78.0,0.0023928226,1114658,1331,-3931,-6561,-6
47582890,4199,0,0.95999336,0.7675489,-11.214476,0.032084953,-0.010474878,-0.02790619,48.125,78.0,0.0023928226,1114658,2313,-368,-1871,-7
47684762,5268,0,0.7585209,-1.248669,-11.829192,0.018114908,-0.004627442,-0.08956874,48.375,78.0,0.0023928226,1114658,1107,-516,-2324,9360
47787641,4197,0,0.2637811,-0.64342904,-10.384282,-0.019738311,0.008171979,-0.039690964,48.25,78.0,0.0023928226,1114658,-1317,-2695,-1868,10290
47887421,4231,0,1.0637914,1.1344581,-11.128356,0.016712705,0.013264717,-0.062417023,48.375,78.0,0.0023928226,1114658,672,-2716,2583,10303
47989241,4184,0,0.9417496,1.500243,-9.257443,0.023983616,0.0005601146,-0.028662639,48.375,78.0,0.0023928226,1114658,1137,-1737,-3824,8193
48095379,4289,0,1.3991007,-0.42244235,-10.705021,-0.022309504,0.0029606707,-0.035486817,48.25,78.0,0.0023928226,1114658,2790,-5033,-1613,9364
48195040,5249,0,0.2728171,-1.4218292,-11.646192,0.030890526,-0.01180321,-0.060175166,48.25,78.0,0.0023928226,1114658,1966,662,1277,8192
48300140,4300,0,-0.1353222,-0.085855156,-9.608235,-0.02380721,0.01765251,-0.019111283,48.25,78.0,0.0023928226,1114658,-1592,-2722,-5808,10305
48399809,4217,0,0.87476486,1.3043971,-9.776039,0.023080733,0.0010779263,-0.059438664,48.25,78.0,0.0023928226,1114658,-460,-1412,-5360,2048
48499542,4162,0,0.37676474,2.0103626,-9.798092,0.022015112,0.0069997567,-0.06683706,48.125,78.0,0.0023928226,1114658,1038,1934,-4174,16960
48604541,4200,0,1.0845904,-0.6260485,-10.573616,-0.036607977,-0.006619434,-0.0062291496,48.25,78.0,0.0023928226,1114658,-650,-3233,768,2048
48702202,4212,0,0.75776976,-0.7507302,-10.943159,0.033535425,-0.017365862,-0.026014574,48.25,78.0,0.0023928226,1114658,3295,254,-1286,8193
48804140,4300,0,0.9634008,-0.85573745,-9.701296,0.0065794853,-0.011710606,-0.052890398,48.375,78.0,0.0023928226,1114658,1018,-3519,-5173,10329
48904937,4296,0,-0.7278679,0.06127712,-9.367609,0.018922376,-0.001329885,-0.025820564,48.375,78.0,0.0023928226,1114658,752,2109,-5341,9370
49006691,4149,0,0.36523467,1.5851732,-9.157445,-0.015353558,0.0014625681,-0.049991388,48.375,78.0,0.0023928226,1114658,1485,-2895,-5994,10327
49110641,4125,0,-0.8626034,0.65614134,-9.718472,0.016015368,-0.013967741,-0.040589932,48.25,78.0,0.0023928226,1114658,630,4189,-3785,-6
49216702,4211,0,0.12991104,-1.3057549,-10.216463,0.006649732,-0.0030713882,-0.020233396,48.375,78.0,0.0023928226,1114658,-162,161,-22,8193
49313291,4200,0,-0.9139081,-0.56792945,-10.545946,0.01789531,0.00567216,-0.040755864,48.375,78.0,0.0023928226,1114658,707,4544,852,10336
49419407,4228,0,-0.73048615,1.5344796,-8.500947,-0.021587722,0.0011845843,-0.028599158,48.5,78.0,0.0023928226,1114658,-424,735,-4393,8193
49521191,4169,0,0.24144034,0.7757213,-9.074312,-0.02290646,-0.002792407,-0.060089387,48.375,78.0,0.0023928226,1114658,-372,-964,-7717,-6
49618841,5251,0,2.025839,0.7335452,-9.983012,-0.0026185855,-0.016111452,-0.036146175,48.125,78.0,0.0023928226,1114658,717,-4665,-1535,8193
49723841,4194,0,-0.080166675,-1.3211113,-8.966557,-0.033671424,0.013053541,-0.05242193,48.375,78.0,0.0023928226,1114658,-438,-677,-9055,8193
49824641,4179,0,-0.087303236,-0.6106953,-9.303105,-0.04181517,0.012797218,-0.04610366,48.375,78.0,0.0023928226,1114658,-2770,-1745,-4864,10345
49925441,4200,0,0.5997463,0.2858704,-8.361676,-0.015676923,0.006804879,-0.03931986,48.375,78.0,0.0023928226,1114658,-2252,-1739,-5894,-7
50026240,4199,0,-0.30978206,0.7610245,-8.989532,-0.03175337,-0.0075936,-0.04988481,48.375,78.0,0.0023928226,1114658,-1477,-894,-6509,-7
50128141,4250,0,0.21056472,-0.08101038,-9.349139,-0.0049538175,-0.0034064702,-0.05738291,48.375,78.0,0.0023928226,1114658,351,1251,-6634,10348
50228948,4257,0,-0.2947895,-1.3293537,-10.012542,-0.044273473,-0.00287039,-0.062347617,48.25,78.0,0.0023928226,1114658,-1388,513,-4557,10357
50330741,4174,0,-0.3263111,-1.210814,-9.787616,-0.032306373,0.0073312717,-0.066447645,48.375,78.0,0.0023928226,1114658,-2706,-627,-6007,10353
50431557,4190,0,-0.43861935,0.38793793,-9.324762,-0.028038299,0.014482118,-0.04060866,48.125,78.0,0.0023928226,1114658,-1719,-627,-4935,10352
50535532,4134,0,-0.21401742,1.1724592,-9.825915,-0.027916433,0.011160962,-0.042266913,48.25,78.0,0.0023928226,1114658,725,3230,-3084,2048
50641545,5252,0,-0.038775206,-0.80008686,-10.769039,0.041622926,-0.019099692,-0.054351453,48.25,78.0,0.0023928226,1114658,2389,3996,-3333,9396
50743411,5253,0,-1.0686723,-1.2726091,-10.103299,0.0062695346,-0.0076328916,-0.055206273,48.375,78.0,0.0023928226,1114658,-372,3094,-2877,10369
50846290,4199,0,0.24885133,0.7752679,-9.1749115,0.03658549,0.01007034,-0.038454834,48.25,78.0,0.0023928226,1114658,840,3036,-4794,8192
50948144,5253,0,-1.35242,1.2839184,-8.571762,0.021471608,0.0131820245,-0.05712334,48.25,78.0,0.0023928226,1114658,552,5955,-6041,8192
51048971,4230,0,-0.767094,0.40467748,-8.906121,-0.011671827,-0.0020742237,-0.053079747,48.25,78.0,0.0023928226,1114658,347,4334,-6077,10363
51150827,4236,0,-1.1561944,-0.68949485,-8.86665,-0.0050923983,-0.005976744,-0.043316815,48.5,78.0,0.0023928226,1114658,187,4975,-7665,2049
51256951,4279,0,-0.01685491,-0.22137366,-11.291476,0.03403659,0.0051416014,-0.055905104,48.25,78.0,0.0023928226,1114658,87,2152,3621,10398
51357748,4308,0,0.026162982,1.4741124,-10.541957,0.020523913,0.014074386,-0.069862574,48.375,78.0,0.0023928226,1114658,-195,2227,-341,10393
51459519,4153,0,-0.14383009,1.8192093,-10.291898,0.04092577,0.009573565,-0.038000073,48.375,78.0,0.0023928226,1114658,1456,4909,297,16961
52477991,4192,0,0.8437961,2.0401964,-10.370258,-0.013983786,0.004184153,-0.053158216,48.375,78.0,0.0023928226,1114658,-374,-3327,-744,8192
52584116,5325,0,0.010584888,-0.6641759,-9.150637,-0.049592864,-0.017861953,-0.027366886,48.25,78.0,0.0023928226,1114658,1605,-2099,-6128,9389
52686960,4220,0,-0.48453295,-1.6042516,-9.582478,-0.05000438,0.0042873803,-0.06339837,48.25,78.0,0.0023928226,1114658,-2596,-2285,-6549,-7
52788796,4205,0,0.24447045,0.21223581,-9.651975,-0.032647017,0.024702327,-0.04882721,48.375,78.0,0.0023928226,1114658,-1424,-2945,-3762,10422
52890641,5251,0,1.329655,1.4844066,-10.177307,0.0010675137,0.010459447,-0.038468067,48.375,78.0,0.0023928226,1114658,34,-2856,1653,-7
52992491,5116,0,1.4108726,1.3246238,-11.217526,0.009293894,-0.0042955736,-0.0385575,48.375,78.0,0.0023928226,1114658,1662,-2473,2881,-7
53092241,4074,0,0.9194277,0.095264874,-10.828804,0.041144468,-0.0017025084,-0.042076815,48.5,78.0,0.0023928226,1114658,2077,1493,-1628,10431
53195158,4217,0,-0.4462095,-1.4783028,-10.661089,0.029144147,-4.6104513e-05,-0.02837806,48.375,78.0,0.0023928226,1114658,-65,2336,-552,-7
53295940,4183,0,-1.3037062,-0.2127129,-9.907141,0.0034072238,0.01225729,-0.04315139,48.375,78.0,0.0023928226,1114658,63,4281,-2122,-7
53397794,4204,0,-0.29107982,1.5541662,-8.351283,0.011660565,0.020061145,-0.04596655,48.375,78.0,0.0023928226,1114658,-47,4649,-6387,9387
53498605,4215,0,-0.69503075,1.6582793,-8.266496,-0.025300536,0.008895994,-0.05112227,48.375,78.0,0.0023928226,1114658,-970,2681,-7891,10429
53600441,4200,0,-0.2787937,0.58758825,-9.127444,0.027422503,-0.0001292091,-0.07308854,48.25,78.0,0.0023928226,1114658,753,4269,-7384,10435
53704409,4171,0,-0.071300335,-1.0971763,-10.955009,0.03818026,-0.009972004,-0.041545767,48.5,78.0,0.0023928226,1114658,747,1264,-648,-7
53805214,4174,0,0.17727824,-0.1792323,-10.694356,0.025767155,-0.00678941,-0.0507813,48.375,78.0,0.0023928226,1114658,1130,394,-395,-7
53909158,4218,0,1.2361872,1.3322432,-8.784028,-0.010122237,0.004693452,-0.003758947,48.375,78.0,0.0023928226,1114658,-346,-4421,-4122,10436
54010991,4188,0,-0.15044937,0.9296958,-9.0631485,-0.03525046,-4.9794675e-05,-0.005344736,48.625,78.0,0.0023928226,1114658,1233,-352,-3886,8192
54111791,4176,0,0.4344991,-0.58239204,-9.567408,-0.0174207,-0.007192543,-0.010639923,48.5,78.0,0.0023928226,1114658,648,-1357,-3039,0
54213740,4257,0,-0.6740882,-1.147063,-9.251114,-0.03466011,-0.0016234601,-0.04983127,48.25,78.0,0.0023928226,1114658,43,165,-7179,10447
54314493,4253,0,-1.0716858,-0.14808883,-9.136431,0.002088384,0.012480282,-0.045807652,48.375,78.0,0.0023928226,1114658,-149,4614,-6280,10444
54414191,4200,0,-0.21130924,0.85307574,-8.492184,-0.0014109967,0.015313767,-0.031936552,48.5,78.0,0.0023928226,1114658,-384,2391,-4998,8192
54514990,4199,0,0.5540563,1.4306146,-8.93167,-0.008965041,0.0012063717,-0.050322536,48.25,78.0,0.0023928226,1114658,454,-1388,-5781,-7
54616964,4323,0,0.23211835,1.0803423,-9.961633,0.019907746,-0.005460065,-0.02558486,48.375,78.0,0.0023928226,1114658,2259,1968,-2222,10452
54721840,4123,0,-0.0020222892,-0.972799,-9.2695465,-0.024929294,-0.008398754,-0.071854636,48.375,78.0,0.0023928226,1114658,219,-1320,-10162,8193
54821654,4263,0,-0.2594422,-0.8322482,-8.78839,-0.015342745,0.003101075,-0.039949633,48.375,78.0,0.0023928226,1114658,-438,2275,-5374,0
54927642,4188,0,0.63076764,1.2493613,-10.445728,0.002496443,0.0027502007,-0.058483124,48.25,78.0,0.0023928226,1114658,-182,-3944,1030,10466
55028441,4193,0,0.33380145,-0.030810686,-10.162845,-0.025538262,-0.010976764,-0.056658268,48.375,78.0,0.0023928226,1114658,-2125,-1452,-1934,10466
55129241,4177,0,0.6356952,-1.3043547,-9.461495,-0.0034188794,-0.015275388,-0.034580454,48.5,78.0,0.0023928226,1114658,-1371,-308,-4181,9386
55231090,4200,0,1.1018647,-1.064655,-9.5256605,-0.038346753,-0.003931739,-0.05236167,48.375,78.0,0.0023928226,1114658,-747,-3497,-6890,10475
55330841,4200,0,-0.9879767,-0.78593934,-8.959884,-0.026409993,0.004264115,-0.021208305,48.25,78.0,0.0023928226,1114658,-702,1358,-4843,8193
55435841,4162,0,-0.48561054,1.6519192,-10.121171,-0.0054585175,0.020198032,-0.07301884,48.375,78.0,0.0023928226,1114658,-902,3265,-1454,8193
55535592,4177,0,-1.70216,1.3117912,-10.018001,0.0006720059,0.0016516898,-0.049461827,48.375,78.0,0.0023928226,1114658,413,6454,-1695,2048
55638543,4253,0,-0.56062204,-0.5641514,-10.212039,0.009608668,-0.006045486,-0.04251466,48.375,78.0,0.0023928226,1114658,837,4680,-4398,10477
55740341,4157,0,-0.9801513,-0.7395905,-9.742267,0.011378707,0.008042267,-0.07408934,48.25,78.0,0.0023928226,1114658,-307,4392,-8861,8193
55842205,4215,0,-1.5577596,0.21446851,-9.993088,-0.0017710552,0.012470514,-0.05825534,48.375,78.0,0.0023928226,1114658,-505,5118,-1361,-7
55943019,4229,0,-0.40562776,0.90778285,-9.513378,-0.033146583,0.0013760886,-0.0141188875,48.375,78.0,0.0023928226,1114658,-352,-367,-2376,-7
56041807,4317,0,1.2498676,1.5625528,-9.87487,0.02447214,1.0658292e-05,-0.014622178,48.5,78.0,0.0023928226,1114658,39,-2416,-1570,-7
56143541,4174,0,0.31669453,0.7682756,-9.7604265,0.027203312,-0.00016890968,-0.067337275,48.375,78.0,0.0023928226,1114658,158,3645,-4435,2048
56248541,4200,0,-0.45152667,-1.556508,-10.419639,0.03789176,-0.003606309,-0.027803615,48.375,78.0,0.0023928226,1114658,39,3406,-1240,-7
56350390,4199,0,-1.7878543,-1.3234807,-9.679721,0.013310821,0.0060444777,-0.07572657,48.5,78.0,0.0023928226,1114658,-538,4988,-4079,8192
56453291,4199,0,-0.40975395,1.3996272,-8.462191,0.019311726,0.014049627,-0.04679876,48.375,78.0,0.0023928226,1114658,-942,4022,-6473,10507
56553051,4116,0,-0.34822503,2.0485919,-9.213287,-0.025030922,0.01197196,-0.032268036,48.375,78.0,0.0023928226,1114658,-159,-216,-1139,-7
56653848,4108,0,0.5067422,2.2515056,-9.879525,0.035480928,-0.0038249865,-0.020599155,48.5,78.0,0.0023928226,1114658,1547,648,-1488,8193
56753591,4200,0,-1.0010172,0.44321552,-9.299589,-0.014754594,0.0017903667,-0.08024105,48.25,78.0,0.0023928226,1114658,-658,3035,-6878,2049
56856491,4200,0,-0.23973462,-1.4091464,-9.481806,-0.051107246,-0.0120959915,-0.017622048,48.375,78.0,0.0023928226,1114658,85,-1663,-5472,9400
56958340,4179,0,1.1365017,-0.6154138,-10.791206,-0.029639324,0.0023017358,-0.033355825,48.5,78.0,0.0023928226,1114658,-70,-4802,372,8193
57064391,4184,0,0.74682087,1.108377,-9.987886,-0.010545062,0.010074605,-0.047774695,48.375,78.0,0.0023928226,1114658,-282,-3538,-683,-7
57166240,4199,0,0.5900311,1.9658501,-9.3375435,0.0291907,-0.009060328,-0.062420297,48.5,78.0,0.0023928226,1114658,1115,25,-6611,2048
57267040,4199,0,-0.6625903,0.6272037,-10.010429,-0.02854496,-0.014977293,-0.026407761,48.5,78.0,0.0023928226,1114658,1448,3222,-698,10524
57367851,4210,0,1.8165212,-0.7068934,-11.159386,0.0035733227,-0.0008733966,-0.062369876,48.25,78.0,0.0023928226,1114658,446,-3643,-433,8193
57469747,5306,0,-1.5170398,-1.73336,-8.967834,0.024625344,0.0051232358,-0.047953065,48.5,78.0,0.0023928226,1114658,-1326,5862,-5853,10526
57572591,4200,0,-1.1240966,0.5111855,-9.492874,-0.05547014,0.0022693612,-0.009361716,48.375,78.0,0.0023928226,1114658,-918,-2219,-3250,-7
57674517,4277,0,0.8278468,1.2965728,-10.251849,-0.019692462,0.00089932175,-0.038929194,48.375,78.0,0.0023928226,1114658,-1012,-4056,-1295,10533
57774190,4200,0,-1.059861,1.6639868,-8.937697,-0.0042876857,0.008191544,-0.044854727,48.5,78.0,0.0023928226,1114658,31,5505,-7598,8192
57874990,4200,0,1.5808402,0.27438855,-10.417073,-0.012056016,-0.018815743,-0.0044364347,48.5,78.0,0.0023928226,1114658,1431,-5223,-2495,8192
57977913,4148,0,-0.77199954,-1.2026769,-11.243773,0.035552707,-0.00073492154,-0.03898156,48.375,78.0,0.0023928226,1114658,1885,4181,-418,-7
58079741,4197,0,0.24785101,-0.7044954,-9.90547,-0.04452174,0.006859505,-0.03521566,48.375,78.0,0.0023928226,1114658,195,-4856,-3463,16961
58183691,4189,0,1.8735064,1.1184591,-9.682242,0.039008863,0.012402871,-0.06372159,48.5,78.0,0.0023928226,1114658,-490,-1999,-4057,8193
58288691,4200,0,-0.0411058,1.0277598,-9.97371,0.035355337,-0.009620183,-0.09257451,48.375,78.0,0.0023928226,1114658,1701,4331,-3961,8193
58385291,4194,0,1.8367411,1.4796106,-11.11087,0.020613387,-0.016007248,-0.06677988,48.5,78.0,0.0023928226,1114658,3593,-2175,123,10533
58487158,4218,0,-1.3397775,-1.207193,-9.807981,-0.043418746,-0.0033287664,-0.07497448,48.5,78.0,0.0023928226,1114658,401,1060,-4729,2048
58593191,4179,0,-1.1429145,-0.1802642,-9.936541,-0.040212583,0.013228274,-0.030344341,48.375,78.0,0.0023928226,1114658,-557,-753,-448,10541
58691891,4200,0,-2.1757278,0.051119212,-8.479679,0.009018933,0.012927911,-0.019379724,48.5,78.0,0.0023928226,1114658,-1266,5056,-7064,0
58793766,5273,0,2.0325294,1.6237922,-10.191264,0.030200558,-6.7489746e-05,-0.035619948,48.375,78.0,0.0023928226,1114658,1,-3506,-518,10549
58895609,5268,0,0.13429914,2.0853803,-9.425168,0.0369624,0.0031385464,-0.08946679,48.5,78.0,0.0023928226,1114658,2453,4702,-6720,8193
58998493,5244,0,-0.8081647,-1.3621246,-9.215495,-0.03885256,-0.0076623876,-0.047758862,48.375,78.0,0.0023928226,1114658,266,1433,-7499,10546
59100358,5268,0,1.411755,-1.0459713,-11.228267,0.016124126,-0.008996008,-0.057104953,48.375,78.0,0.0023928226,1114658,2235,-3699,-711,8193
59199041,4201,0,-0.73136824,-0.45120025,-9.373342,-0.023986304,0.008270694,0.0036371471,48.5,78.0,0.0023928226,1114658,153,1051,-4635,8192
59305091,5248,0,0.08838657,1.5859143,-9.376123,-0.05679181,0.011830679,-0.041825324,48.375,78.0,0.0023928226,1114658,929,-2478,-1938,10562
59401756,5299,0,-1.6266513,1.9499266,-8.946462,0.0045572305,0.014385615,-0.07268351,48.5,78.0,0.0023928226,1114658,-389,6047,-4108,9430
59503541,5251,0,0.28458548,0.8337619,-9.12573,-0.039910097,-0.018383361,-0.021757323,48.375,78.0,0.0023928226,1114658,2277,-2692,-5043,2048
59606525,4285,0,1.6455369,-0.7842151,-10.77019,-0.034958288,-0.014095204,-0.03001867,48.375,78.0,0.0023928226,1114658,3326,-6146,-2258,10565
59706190,4200,0,0.064644314,-1.4370384,-9.813739,0.027793858,-0.002984211,-0.04013939,48.375,78.0,0.0023928226,1114658,936,539,-5247,8193
59804940,5299,0,-0.31467125,-1.463136,-9.260439,-0.03543301,0.014753381,-0.03928502,48.5,78.0,0.0023928226,1114658,-1363,308,-5406,10564
59913041,5240,0,-0.8302286,1.6770377,-8.297408,0.0076479316,0.007828302,-0.07546471,48.5,78.0,0.0023928226,1114658,974,4559,-8039,8193
60009740,4300,0,0.9366549,1.7544457,-9.380907,0.008550353,0.00017557526,-0.023419388,48.5,78.0,0.0023928226,1114658,-259,-1254,-420,10575
60113602,4210,0,1.5687796,-0.028711425,-11.417611,0.004460143,-0.0031365347,-0.028916078,48.5,78.0,0.0023928226,1114658,1458,-3860,590,2049
60214390,4193,0,1.0174394,-1.2204593,-10.825781,0.012678884,-0.013621068,-0.032464564,48.5,78.0,0.0023928226,1114658,1362,-1249,-770,-7
60316241,4093,0,-0.12648703,-0.9313941,-9.894837,0.018723994,-0.000115245966,-0.057268847,48.5,78.0,0.0023928226,1114658,561,33,-6920,10599
60419158,4218,0,1.0070894,0.9906723,-11.025892,0.01658604,0.0044841017,-0.02571164,48.5,78.0,0.0023928226,1114658,1272,-2786,-169,8192
60520991,4191,0,0.9361261,1.9743288,-9.699353,0.013257336,0.002078094,-0.0012050495,48.5,78.0,0.0023928226,1114658,133,-1342,-1091,10582
60620741,4200,0,0.9082733,0.312443,-9.900846,0.023154065,-0.006624635,-0.054004453,48.5,78.0,0.0023928226,1114658,917,-20,-3521,-7
60720491,4200,0,-0.7546482,-0.62088054,-9.029349,0.0058866553,-0.011189244,-0.0606595,48.5,78.0,0.0023928226,1114658,-89,4256,-8526,10595
60825491,4200,0,0.64670634,-0.28577974,-10.890954,0.035799675,0.0070943,-0.032716297,48.5,78.0,0.0023928226,1114658,500,707,-2904,-7
60926290,4199,0,-1.4217043,0.1882004,-9.627903,0.013809463,0.012503446,-0.04616768,48.5,78.0,0.0023928226,1114658,-803,5094,-4114,-7
61030283,4243,0,0.19355524,1.7054856,-10.792163,0.020717015,0.009539276,-0.06434977,48.625,78.0,0.0023928226,1114658,1614,1956,-129,10598
61132147,4256,0,-0.21968262,0.36266991,-9.768162,0.03205823,-0.003117708,-0.040166225,48.375,78.0,0.0023928226,1114658,1441,5679,-3352,10587
61232961,4270,0,-1.0718681,-0.88690925,-9.463823,-0.032937095,-0.015442281,-0.028558245,48.375,78.0,0.0023928226,1114658,1362,2050,-6425,10608
61336961,4320,0,-1.8490576,-1.1016594,-9.626024,-0.012313401,0.0065805255,-0.08397262,48.5,78.0,0.0023928226,1114658,-1776,3870,-5274,10610
61435553,4132,0,-0.21395585,-0.18592797,-9.346056,-0.04221024,0.015314386,-0.022294683,48.375,78.0,0.0023928226,1114658,-800,-2362,-2389,2048
61539512,4176,0,0.18256661,1.079703,-9.551226,-0.029667556,0.0050407783,-0.04904326,48.5,78.0,0.0023928226,1114658,-214,1066,789,16962
61640291,4137,0,0.4172027,1.576696,-10.299781,-0.0076521384,0.0036656242,-0.02450886,48.375,78.0,0.0023928226,1114658,1417,-1478,-334,-7
61742167,4226,0,1.612533,-0.54364103,-11.700762,-0.016443359,-0.0043555265,-0.014380855,48.5,78.0,0.0023928226,1114658,1207,-3331,1961,8193
61841891,4151,0,0.58641475,-1.1641014,-11.516539,0.033784978,-0.0009395022,-0.056181934,48.5,78.0,0.0023928226,1114658,993,-400,-623,10621
61942690,4197,0,-1.041883,-0.77347076,-11.708168,0.01812351,0.005354626,-0.046671413,48.375,78.0,0.0023928226,1114658,1291,3224,1773,8193
62046641,4148,0,2.1191442,0.7854581,-9.94107,0.012011983,-0.0026218027,-0.021634752,48.5,78.0,0.0023928226,1114658,209,-4104,-1634,8192
62150591,5250,0,1.5180773,1.5266016,-8.5154085,-0.019060304,-0.0043800925,-0.05008649,48.5,78.0,0.0023928226,1114658,271,-4384,-8530,10621
62253490,4183,0,-0.77966404,-1.1824995,-9.763485,-0.024050212,-9.4767005e-05,-0.067179106,48.5,78.0,0.0023928226,1114658,-820,919,-6006,10626
62355368,5277,0,-0.66913056,-0.9405213,-10.24947,-0.05115642,-0.008329798,-0.062911235,48.5,78.0,0.0023928226,1114658,79,-2485,-4442,8193
62456155,4214,0,0.6185692,0.21643518,-9.650802,-0.0053375117,0.006045769,-0.028846765,48.625,78.0,0.0023928226,1114658,825,-3869,-3928,10631
62554841,6300,0,-1.1253436,0.3769714,-9.9412985,0.0238375,0.020211715,-0.09580125,48.375,78.0,0.0023928226,1114658,414,3381,-1439,8193
62658791,4200,0,0.42054504,1.8829737,-9.347794,0.01774605,-0.0078424625,-0.043649238,48.5,78.0,0.0023928226,1114658,2779,-925,-1674,10628
62759600,4187,0,-0.05878498,0.69111603,-9.13988,0.046887547,0.0025575152,-0.074245006,48.625,78.0,0.0023928226,1114658,745,5141,-10481,2048
62861484,5293,0,-1.0550485,-0.7184542,-10.50561,0.022113556,-0.007894665,-0.049087472,48.625,78.0,0.0023928226,1114658,1234,4473,-1829,10635
62964353,4201,0,-0.7325127,-0.92733294,-8.770186,-0.0164285,0.0055488246,-0.041085597,48.625,78.0,0.0023928226,1114658,-730,3025,-8253,-7
63064147,4256,0,0.3907043,-0.6116815,-10.441605,-0.003495215,0.018143225,-0.045331627,48.5,78.0,0.0023928226,1114658,-2595,-3819,-3913,10633
63168140,5338,0,0.9234929,1.44545,-8.758028,0.019242253,0.0042969803,-0.024965998,48.375,78.0,0.0023928226,1114658,982,-2306,521,10645
63266764,4188,0,-0.30565557,1.8176227,-9.005071,-0.04102217,-0.004490275,-0.030623635,48.375,78.0,0.0023928226,1114658,466,424,-4877,-7
63367553,4175,0,1.2213099,1.4525236,-9.401915,0.01892975,-0.005741435,-0.0397808,48.75,78.0,0.0023928226,1114658,61,-1533,-5656,2048
63471491,4152,0,0.9611072,-1.081062,-10.078293,0.016183222,-0.017010408,0.0012657174,48.5,78.0,0.0023928226,1114658,859,-1890,-2517,10648
63573341,4178,0,-1.1968372,-1.1360136,-10.148168,0.03378839,0.010446447,-0.061320905,48.5,78.0,0.0023928226,1114658,-389,3898,-4444,8193
63674159,4218,0,-0.94899386,0.30798858,-9.787862,-0.04466642,0.017934484,-0.042156443,48.5,78.0,0.0023928226,1114658,-275,-799,-1599,9422
63773891,4175,0,2.2938166,0.7523892,-9.258808,0.022154035,-0.0059321825,-0.01119157,48.5,78.0,0.0023928226,1114658,235,-2117,-2968,9447
63877841,5250,0,1.2833457,2.267985,-10.100716,0.028574483,0.0018510314,-0.07671408,48.375,78.0,0.0023928226,1114658,1285,-1230,-2707,8193
63976541,4200,0,-0.26977992,1.0996842,-9.91881,-0.020823272,-0.0018942739,-0.037482228,48.5,78.0,0.0023928226,1114658,1219,1060,-5390,10662
64077341,4182,0,1.632154,-0.65198326,-10.201258,-0.030248431,-0.022214068,-0.022834834,48.5,78.0,0.0023928226,1114658,986,-4132,-3659,8193
64179195,5254,0,-1.7440256,-1.2280972,-10.4889765,0.004151971,-0.0017505285,-0.07780292,48.625,78.0,0.0023928226,1114658,935,5917,-2223,-7
64282104,4214,0,0.47685087,-0.75154924,-10.051955,-0.03587279,0.015290139,-0.008162947,48.5,78.0,0.0023928226,1114658,-874,-1447,-5791,10650
64383940,5248,0,0.5568404,1.5190854,-10.906032,0.04125048,0.011559323,-0.06412691,48.5,78.0,0.0023928226,1114658,-126,1378,3642,8192
64485806,5265,0,-0.61625177,1.3814416,-8.24737,-0.002678749,-0.0030916487,-0.03319767,48.625,78.0,0.0023928226,1114658,787,3926,-8212,10668
64586591,4187,0,1.7999952,-0.065832116,-10.754316,0.005122607,-0.0023021316,-0.04777381,48.5,78.0,0.0023928226,1114658,249,-4392,-630,10671
64689546,4222,0,-1.2428497,-1.3707709,-9.755729,0.020125264,-0.0036673276,-0.046853896,48.5,78.0,0.0023928226,1114658,-239,4006,-4164,16962
64791352,4194,0,-0.9598546,0.0989146,-10.096062,-0.038119677,0.014592506,-0.032379817,48.5,78.0,0.0023928226,1114658,217,1675,241,8193
64892164,4224,0,-0.3521484,1.1192421,-9.534739,0.054330453,0.0054979874,-0.03171404,48.5,78.0,0.0023928226,1114658,-936,3379,-3272,10670
64993991,4192,0,-1.1340358,1.5881629,-8.25624,-0.02525884,0.005220825,-0.05306211,48.5,78.0,0.0023928226,1114658,-849,3431,-7106,2049
65094791,4200,0,1.3366463,0.63482994,-10.546605,-0.011892853,-0.0033388627,-0.06676238,48.5,78.0,0.0023928226,1114658,-607,-3510,-115,2049
65196650,5245,0,-1.7576605,-0.39018762,-9.241616,-0.0038239218,-0.0045426157,-0.065091535,48.5,78.0,0.0023928226,1114658,1141,6728,-2770,-7
65298517,5276,0,1.1074289,-1.0711572,-9.756253,0.025093308,0.010532977,-0.06270945,48.625,78.0,0.0023928226,1114658,-1192,-1678,-3959,10671
65399360,4270,0,-1.3550711,0.016838098,-8.082147,-0.008366094,0.004219653,-0.0474656,48.375,78.0,0.0023928226,1114658,-1054,3981,-9409,10683
65505341,4186,0,-1.0322175,1.4660976,-9.177502,-0.003420937,0.0017808808,-0.077160604,48.5,78.0,0.0023928226,1114658,699,6184,-3632,8193
65606145,4191,0,1.2482709,1.1193235,-9.650053,-0.023056744,-0.0073431525,-0.042996217,48.625,78.0,0.0023928226,1114658,2792,-4093,-4767,2049
65707990,4200,0,0.7382679,-0.4642663,-11.091253,0.035037436,-0.0021100924,-0.04945306,48.625,78.0,0.0023928226,1114658,1904,3133,2024,8192
65809862,5270,0,-1.0570139,-1.2120588,-10.061152,0.007593351,0.0056977943,-0.04116867,48.5,78.0,0.0023928226,1114658,-242,2882,-3218,8193
65908541,4198,0,0.56832725,-0.61874485,-10.130486,-0.028347148,0.007146776,-0.010500896,48.5,78.0,0.0023928226,1114658,-2246,-3176,623,9447
66009342,4183,0,0.6322899,0.5236507,-9.366234,0.015349808,-0.0016200035,-0.06675865,48.75,78.0,0.0023928226,1114658,27,-1691,-6648,8193
66826245,5252,0,1.0279386,-0.7533804,-10.357367,-0.04455334,-0.019951832,-0.04828396,48.625,78.0,0.0023928226,1114658,2581,-4376,-3464,-7
66927040,4199,0,1.0338374,-1.4108962,-10.040496,-0.020426784,-0.005329983,-0.0151814865,48.5,78.0,0.0023928226,1114658,-570,-4732,-2032,-7
67030990,5244,0,0.36461124,-0.0029864244,-9.792543,-0.02835763,0.006103309,-0.05437974,48.5,78.0,0.0023928226,1114658,-1756,-3300,-3132,-7
67131806,4211,0,0.84288555,1.533244,-10.600117,-0.0037778488,0.008234622,-0.052438833,48.5,78.0,0.0023928226,1114658,-120,-4027,-394,0
67233778,4306,0,1.773642,0.80203635,-12.634544,0.012726299,-0.0029795687,-0.054077055,48.625,78.0,0.0023928226,1114658,1869,-2436,2002,10718
67332340,4182,0,-0.8338627,0.13314675,-10.198393,0.0051871845,-0.0012108665,-0.058009643,48.625,78.0,0.0023928226,1114658,1027,4712,-3484,8193
67434191,5211,0,0.10014397,-1.0552361,-10.595436,-0.031492013,0.0034689358,-0.03000142,48.5,78.0,0.0023928226,1114658,220,5,354,8193
67537091,6300,0,0.26138654,-0.7781639,-10.501924,-0.030459484,0.01370488,-0.013140615,48.5,78.0,0.0023928226,1114658,-1030,450,-1695,10721
67641041,4064,0,-1.2679094,1.4832591,-8.378572,-0.018079666,0.0089098755,-0.048359536,48.5,78.0,0.0023928226,1114658,-1597,3115,-7715,10713
67741841,4050,0,0.32689503,1.6761969,-9.317676,-0.040279638,0.0024466973,-0.038949955,48.5,78.0,0.0023928226,1114658,2155,-1140,-4016,8193
67843698,4204,0,1.3881079,-0.09319909,-10.651057,-0.032286696,-0.009154428,-0.034400433,48.625,78.0,0.0023928226,1114658,1696,-3090,574,-7
67947641,4200,0,0.56651795,-1.1262162,-8.81036,-0.039660018,-0.0038613589,-0.016463876,48.625,78.0,0.0023928226,1114658,69,-3269,-7829,10720
68048442,4201,0,0.349835,-0.49987218,-9.216876,0.0033084375,0.006437387,-0.029519808,48.625,78.0,0.0023928226,1114658,-628,-2675,-5162,10730
68150315,5274,0,0.771141,1.3216395,-9.842492,0.0052394704,-0.0031742232,-0.06840705,48.5,78.0,0.0023928226,1114658,33,-2062,-4742,0
68252171,5281,0,1.0720946,1.2460065,-10.723702,0.0072047855,-0.02216387,-0.069739595,48.5,78.0,0.0023928226,1114658,2594,-3478,-851,10734
68350841,4200,0,-0.11663281,0.41973367,-11.350441,0.034417998,-0.009832994,-0.08000905,48.75,78.0,0.0023928226,1114658,3057,3537,-890,8193
68453753,4196,0,1.7136731,-1.2443473,-11.610537,-0.008950354,-0.010623632,-0.019332007,48.625,78.0,0.0023928226,1114658,-246,-4314,3450,10744
68555609,4170,0,-0.94519585,-0.17990051,-10.127033,-0.005368041,0.010915383,-6.7362096e-05,48.625,78.0,0.0023928226,1114658,-266,2767,168,10749
68658516,4188,0,0.9323824,1.5758393,-9.51244,0.020905389,0.0027020785,-0.0509336,48.625,78.0,0.0023928226,1114658,2172,-438,-2619,10746
68758240,4200,0,0.42868596,1.3730258,-9.506552,-0.0031880483,-0.0043093264,-0.087628104,48.5,78.0,0.0023928226,1114658,382,-53,-9035,8192
68860166,5325,0,-0.07977555,0.03771628,-9.997384,0.0061913244,-0.013287569,-0.02947341,48.5,78.0,0.0023928226,1114658,830,1185,-818,10747
68962990,4152,0,0.73635644,-0.7450456,-9.0563,-0.0041077174,-0.008199352,-0.0342554,48.5,78.0,0.0023928226,1114658,2008,-824,-6347,8192
69062740,4172,0,0.35100195,-0.47926944,-10.544696,0.019397773,0.0033658356,-0.07960442,48.5,78.0,0.0023928226,1114658,1655,413,-4534,-7
69169844,4096,0,-0.35101935,1.4190865,-9.808754,0.037462622,0.003758859,-0.05603024,48.5,78.0,0.0023928226,1114658,1019,4028,394,-7
69269590,5241,0,0.41364008,1.4837476,-8.853212,0.035814587,-0.012292828,-0.052630603,48.625,78.0,0.0023928226,1114658,2477,1455,-4218,8192
69372490,4189,0,0.59572566,-0.7967292,-9.627109,-0.038323108,-0.005056896,-0.022204783,48.5,78.0,0.0023928226,1114658,-880,-1863,-2211,-7
69472241,4080,0,-1.3594513,-0.98697144,-10.749908,-0.0284012,0.010085388,-0.06336439,48.5,78.0,0.0023928226,1114658,-136,3318,-3982,10763
69575157,4182,0,0.015376134,-0.6399879,-9.901631,0.029146647,-0.0029410522,-0.06531046,48.5,78.0,0.0023928226,1114658,-1040,1137,-6324,2049
69673841,4078,0,0.3468562,1.1146716,-10.03555,0.042383436,0.0010904853,-0.051371306,48.625,78.0,0.0023928226,1114658,2235,966,-2163,8193
69777825,4235,0,-0.3495401,2.093892,-9.8205,-0.008860292,0.009642101,-0.029850308,48.625,78.0,0.0023928226,1114658,1872,1954,-47,2049
69879640,4199,0,-0.048101097,-0.084934674,-8.191731,0.0021487498,-0.012378512,-0.06771644,48.625,78.0,0.0023928226,1114658,-398,3881,-6723,16962
69985776,5335,0,-0.4111651,-1.7570447,-9.834371,0.0020404372,-0.0029938803,-0.032398622,48.5,78.0,0.0023928226,1114658,-2629,486,-2462,10775
70084392,4181,0,0.85581183,-0.08666525,-10.525354,0.010336327,0.011160582,-0.002353001,48.75,78.0,0.0023928226,1114658,-909,-2505,765,9471
70188341,4201,0,-0.18299705,1.6792486,-10.392963,-0.0036122464,0.004046025,-0.060626782,48.625,78.0,0.0023928226,1114658,1895,1283,43,8193
70293341,4182,0,0.80676585,0.4510704,-9.968554,0.0018137328,0.0010257844,-0.03913726,48.625,78.0,0.0023928226,1114658,1656,109,-1938,8193
70393091,4105,0,0.19573727,-1.0407896,-8.594878,-0.005743476,-0.007685384,-0.035000548,48.625,78.0,0.0023928226,1114658,1251,850,-8655,10768
70498091,4199,0,-0.38647696,-0.79412466,-10.021689,-0.014154159,0.0086438395,0.00018051598,48.625,78.0,0.0023928226,1114658,-564,770,805,10780
70599940,4200,0,-1.0269386,1.5557055,-9.129379,0.036003564,0.00012734222,-0.03505856,48.5,78.0,0.0023928226,1114658,1407,5888,-5195,16962
70702841,4180,0,1.0474346,1.032487,-10.6309185,-0.028711116,0.0045521455,-0.029029131,48.75,78.0,0.0023928226,1114658,344,-5628,582,8193
70802591,4201,0,0.05496215,-0.15133376,-8.741512,-0.02979368,-0.0029019662,-0.0264139,48.75,78.0,0.0023928226,1114658,402,286,-6411,2048
70903391,4201,0,-1.0510983,-0.76227665,-10.554824,0.010939075,0.0012008969,-0.064037114,48.625,78.0,0.0023928226,1114658,1115,5962,-2950,10787
71007378,4220,0,0.34992054,-0.11425133,-9.6609955,-0.011923233,0.01314338,-0.045887988,48.75,78.0,0.0023928226,1114658,15,-3701,-4559,8193
71108194,4254,0,-0.20961502,0.8346393,-9.037114,-0.021094369,0.012211637,-0.044572767,48.625,78.0,0.0023928226,1114658,183,1685,-5118,8192
71209991,4200,0,-0.9536745,0.9521014,-10.134483,-0.0029309415,0.019707471,-0.02888148,48.5,78.0,0.0023928226,1114658,-416,2508,-482,-7
71313941,4189,0,1.3846049,-0.82545704,-9.471066,0.01526107,-0.01288841,-0.03854675,48.5,78.0,0.0023928226,1114658,-1103,-2493,-1926,10778
71416927,4286,0,0.74968255,-0.16939622,-11.526181,-0.005738915,-0.0011119524,-0.076205194,48.625,78.0,0.0023928226,1114658,2657,-2465,-108,9499
71515541,4188,0,0.51905394,-0.5355153,-10.413231,0.01537554,0.01782954,-0.0006933189,48.625,78.0,0.0023928226,1114658,-1239,651,1595,10803
71617391,4200,0,1.1480942,0.44644335,-10.33221,0.018827742,-0.006456803,-0.0062304987,48.625,78.0,0.0023928226,1114658,-1269,-552,2124,-7
71721341,4172,0,1.062889,-0.014158244,-9.72013,0.0003872547,-0.007208872,-0.05105488,48.5,78.0,0.0023928226,1114658,-2317,-2627,-3439,8193
71822163,4222,0,1.1618092,0.040983483,-9.980902,0.028947039,-0.010238563,-0.08994583,48.5,78.0,0.0023928226,1114658,770,427,-5776,8193
71924035,4245,0,-0.33477223,-0.3575542,-9.966088,0.035100743,0.0045869574,-0.10134464,48.75,78.0,0.0023928226,1114658,967,2829,-7812,-7
72025855,5256,0,-0.89784503,0.56157404,-10.711969,0.02547106,0.0050194003,-0.0885701,48.625,78.0,0.0023928226,1114658,2959,3469,-3332,2049
72126641,4148,0,-0.48632014,1.0442164,-11.349201,-0.012550392,0.006625288,-0.06275271,48.625,78.0,0.0023928226,1114658,1788,-29,3646,2049
72227441,4096,0,1.2818534,1.0296865,-11.362888,-0.0066285837,0.003495155,-0.048412222,48.625,78.0,0.0023928226,1114658,2248,-3543,3597,10807
72327190,4181,0,-0.55940026,0.24634887,-11.553236,0.0023817555,-0.0014190169,-0.052074563,48.75,78.0,0.0023928226,1114658,-875,2267,1597,8193
72429041,5216,0,0.11557541,-0.80065423,-10.453687,-0.008967014,0.012762251,-0.048205182,48.625,78.0,0.0023928226,1114658,-2171,51,-2025,10809
72531985,4245,0,1.3321757,0.47103453,-9.659853,-0.0061821556,0.02351262,-0.088116065,48.625,78.0,0.0023928226,1114658,1403,-907,-6620,0
72634841,4195,0,0.94550574,0.9362017,-10.989788,-0.02241488,0.0028681413,-0.045393974,48.625,78.0,0.0023928226,1114658,2006,-4424,1457,8193
72736691,4200,0,0.56977,0.14086793,-10.127635,0.020946052,-0.0025636833,-0.01836267,48.625,78.0,0.0023928226,1114658,-314,599,-299,8193
72833291,4200,0,1.0037675,0.033303633,-10.153926,-0.002787967,-0.0132635925,-0.037244458,48.625,78.0,0.0023928226,1114658,1687,-2721,699,9503
72935162,4222,0,-0.01658218,-0.8940373,-11.120914,0.016509164,-0.014024461,0.014593264,48.625,78.0,0.0023928226,1114658,-69,1593,2990,8192
73038041,4200,0,1.0790673,0.73642474,-11.153152,-0.0053874524,0.009708218,0.017808955,48.625,78.0,0.0023928226,1114658,534,-135,791,10813
73138841,5250,0,-1.1915802,0.049234875,-8.096128,0.0134420525,0.0165419,-0.032839708,48.5,78.0,0.0023928226,1114658,-1472,3202,-10593,8193
73241819,6378,0,1.0350722,1.503349,-8.058222,-0.02826753,-0.0008494688,-0.091131985,48.625,78.0,0.0023928226,1114658,3777,-1962,-7386,-7
73345749,4258,0,1.0958875,-1.3175137,-8.98831,-0.010367838,0.0019724777,-0.013594246,48.625,78.0,0.0023928226,1114658,-2992,-1092,-4776,10821
73445441,5226,0,-0.47797278,-0.7600465,-8.324124,-0.033714622,-0.003493162,-0.010717397,48.625,78.0,0.0023928226,1114658,-1941,1537,-4517,10826
73548341,6257,0,1.1878533,0.7373234,-8.070392,-0.011074158,0.0075125606,-0.057891008,48.625,78.0,0.0023928226,1114658,600,-1047,-7056,8193
73645990,4155,0,-0.7425077,1.5132936,-9.437193,0.019986091,-0.000215487,0.0049568303,48.625,78.0,0.0023928226,1114658,1238,3276,-6797,-7
73746791,4200,0,-0.57747334,0.9782643,-9.849817,-0.0066602104,-0.0062306155,0.0061746254,48.75,78.0,0.0023928226,1114658,1401,2125,-3625,-7
73852951,4310,0,-0.47617394,-1.1832417,-10.39132,0.02307473,-0.012109385,-0.061387725,48.75,78.0,0.0023928226,1114658,-243,3021,-1677,10836
73950516,5275,0,0.4037598,-0.007433141,-9.36515,-0.038424443,0.001895285,-0.035552986,48.625,78.0,0.0023928226,1114658,420,-1081,-8691,10834
74055491,4135,0,-0.73104286,0.9908533,-10.323181,0.010145953,-0.003914877,-0.078809395,48.625,78.0,0.0023928226,1114658,-579,3393,-1894,-7
74157341,4179,0,-0.20815076,0.828098,-10.878111,0.018563125,-0.011269364,-0.077389464,48.75,78.0,0.0023928226,1114658,612,2457,-44,8193
74254990,4200,0,-1.4565983,1.0410727,-9.140352,-0.028060881,0.01188383,-0.056553204,48.625,78.0,0.0023928226,1114658,-68,4253,-7801,-7
74359989,4199,0,0.2898413,-0.59808654,-9.63406,0.016284999,-0.0068923645,-0.039206665,48.5,78.0,0.0023928226,1114658,2645,2037,-7421,-7
74461841,4100,0,0.20926273,-0.19984752,-9.070983,0.027686447,0.021988953,-0.06636188,48.625,78.0,0.0023928226,1114658,-1641,2286,-8637,8193
74563697,5181,0,0.6670767,1.1796564,-9.784107,0.030471276,0.006479049,-0.058378775,48.625,78.0,0.0023928226,1114658,1705,1949,-3856,8193
74669774,4233,0,-0.2544887,-0.11854642,-11.333258,-0.011694704,-0.0067162835,-0.065722756,48.625,78.0,0.0023928226,1114658,263,387,703,10845
74766372,4208,0,1.0829586,-0.52081364,-9.381902,-0.00046084094,-0.0029233783,-0.040053375,48.625,78.0,0.0023928226,1114658,-1044,-2637,-6137,2049
74868215,4225,0,1.6855649,-0.28556997,-10.443582,-0.012156984,-0.005281037,-0.014876928,48.625,78.0,0.0023928226,1114658,731,-3483,-480,10849
74972220,5329,0,0.15777613,-0.27812493,-8.073707,-0.031868875,0.012202752,-0.038270094,48.625,78.0,0.0023928226,1114658,-1146,-1128,-9306,10868
75072990,4249,0,0.9372769,0.90547264,-9.479784,-0.0044223764,0.016238477,-0.036169793,48.5,78.0,0.0023928226,1114658,-1886,-2163,-2910,10857
75174791,4200,0,1.6466485,0.78451747,-11.040894,0.011798161,-0.0033876284,-0.049532797,48.875,78.0,0.0023928226,1114658,636,-3083,3691,9516
75275591,4200,0,0.34796768,0.15898019,-11.285727,0.03784298,-0.028706338,-0.02918254,48.75,78.0,0.0023928226,1114658,2819,512,2210,10848
76403339,5299,0,0.30216557,-0.2584457,-10.299019,-0.029826716,0.002068562,-0.026601395,48.5,78.0,0.0023928226,1114658,-2854,-2255,2725,10882
76504168,4278,0,-0.4558392,1.3062121,-10.127881,0.014793824,0.00884447,-0.06933808,48.75,78.0,0.0023928226,1114658,2540,3845,-3967,10885
76605940,4171,0,-0.042562954,0.20510449,-8.500205,-0.0043508774,-0.0026032028,-0.021742245,48.75,78.0,0.0023928226,1114658,-130,-52,-8699,-7
