timestamp,integral_dt,error_count,x,y,z,x_integral,y_integral,z_integral,temperature,range_m_s2,scaling,device_id,x_raw,y_raw,z_raw,temperature_raw
85201623,4000,0,-0.07500936,0.05771796,-9.995514,0.004180497,-0.0025536588,-0.038385674,66.62881,156.9064,0.0047884034,1442850,-125,243,-1968,11418
85301623,4000,0,-0.6431567,0.47670153,-10.008721,0.0028368607,-0.00293903,-0.037985098,66.639885,156.9064,0.0047884034,1442850,-138,356,-2010,11422
85401623,4000,0,0.30176404,-0.874707,-10.0544195,-0.0051637813,0.004376336,-0.040299684,66.62604,156.9064,0.0047884034,1442850,244,-316,-1991,11417
85505634,4011,0,-0.21146785,-1.0439814,-10.631689,0.007518481,-0.004129914,-0.044319045,66.603874,156.9064,0.0047884034,1442850,-355,121,-1623,11409
85605623,4000,0,0.3876756,0.11971776,-10.100262,-0.007954212,-0.009253994,-0.041931957,66.63158,156.9064,0.0047884034,1442850,744,509,-2565,11419
85705623,4000,0,0.10591496,0.6961264,-9.833454,-0.008755219,-0.0034840424,-0.046994377,66.637115,156.9064,0.0047884034,1442850,503,428,-2404,11421
85809668,4045,0,-0.01516793,-0.63341105,-10.033669,0.00154751,-0.009712784,-0.03317914,66.65374,156.9064,0.0047884034,1442850,-116,406,-1985,11427
85909623,3991,0,-0.29119372,-1.1729953,-9.893786,0.0036118897,-0.008003944,-0.041227728,66.639885,156.9064,0.0047884034,1442850,-207,-20,-1836,11422
86013623,3989,0,-0.39747742,-0.5736125,-9.913819,-0.0052337446,0.0075924313,-0.035660926,66.63158,156.9064,0.0047884034,1442850,237,-605,-2125,11419
86117630,3971,0,0.38561305,1.0882512,-10.056013,0.016476382,0.004566496,-0.04068943,66.637115,156.9064,0.0047884034,1442850,-220,101,-2088,11421
86217623,4000,0,-0.062651955,0.8049127,-9.9485445,0.003060685,-0.0067712464,-0.046026863,66.62881,156.9064,0.0047884034,1442850,263,855,-2267,11418
86321623,4000,0,0.05406246,-1.4449016,-10.131182,0.011614263,-0.00022925879,-0.03804858,66.60942,156.9064,0.0047884034,1442850,146,-506,-1756,11411
86421622,3999,0,-0.066559516,0.59844184,-9.948646,-0.0017169947,0.010283102,-0.04433373,66.62327,156.9064,0.0047884034,1442850,-10,29,-1946,11416
86521623,3979,0,-0.43567628,-0.49508172,-10.014058,-0.015561101,-0.011048347,-0.03390082,66.598335,156.9064,0.0047884034,1442850,771,362,-2319,11407
86625652,4029,0,-0.78264606,-0.07423249,-10.313994,-0.0065624267,-0.016181681,-0.03417202,66.65097,156.9064,0.0047884034,1442850,408,426,-962,11426
86725639,4016,0,0.6765974,0.78653765,-10.221784,-0.0013544539,-0.005445468,-0.04414515,66.66205,156.9064,0.0047884034,1442850,277,714,-1937,11430
86825629,4007,0,1.6290629,0.7256381,-10.00057,-0.0033547427,0.0009556248,-0.043286357,66.65097,156.9064,0.0047884034,1442850,1125,-117,-2321,11426
86929637,4014,0,-1.5290769,-1.768956,-9.678865,-0.0012473802,-0.013514093,-0.04592841,66.634346,156.9064,0.0047884034,1442850,-686,-695,-1940,11420
87029638,4015,0,0.97699386,0.8879539,-10.141837,0.012632839,0.017005019,-0.038415477,66.66205,156.9064,0.0047884034,1442850,88,-173,-1949,11430
87133629,3959,0,0.09855574,-0.9604873,-9.503887,0.02106193,0.03216531,-0.03723831,66.634346,156.9064,0.0047884034,1442850,-728,-1941,-2743,11420
87237645,4022,0,0.1508492,-0.5454891,-9.681275,0.020332474,0.012889321,-0.03688226,66.637115,156.9064,0.0047884034,1442850,-894,-632,-2231,11421
87337623,3993,0,1.5112381,-0.7558111,-9.022975,0.026902206,0.011163471,-0.039043218,66.65374,156.9064,0.0047884034,1442850,605,-843,-2642,11427
87441623,3988,0,-0.41530704,0.73104316,-10.290438,-0.016832335,0.009204942,-0.049989358,66.637115,156.9064,0.0047884034,1442850,471,360,-2168,11421
87541631,4008,0,0.23005778,0.951192,-10.266685,-0.022315612,0.008135971,-0.03900808,66.637115,156.9064,0.0047884034,1442850,1349,229,-1721,11421
87641623,3999,0,-1.3931363,1.3802302,-10.906626,-0.038579375,-0.0014427026,-0.04219883,66.6482,156.9064,0.0047884034,1442850,985,1199,-1214,11425
87745623,4001,0,0.24865942,-1.1552523,-9.262776,0.02076479,0.0016460237,-0.050167274,66.67036,156.9064,0.0047884034,1442850,-505,-712,-2967,11433
87845623,4000,0,0.57724386,0.95720726,-10.96073,-0.049539533,0.0072680884,-0.04051312,66.66759,156.9064,0.0047884034,1442850,2911,45,-972,11432
87949622,3999,0,2.0998378,-0.17003319,-10.881408,-0.010656452,0.009634029,-0.060557872,66.65374,156.9064,0.0047884034,1442850,2389,-876,-1831,11427
88054447,4785,0,2.32479,-0.0831196,-9.667006,0.045662012,0.014061896,-0.073051214,66.64543,156.9064,0.0047884034,1442850,698,-1277,-3376,11424
88155223,4001,0,1.227781,-1.0619498,-9.550931,0.017206917,-0.0013012417,-0.0516564,66.65651,156.9064,0.0047884034,1442850,633,-33,-2651,11428
88255222,3999,0,2.7324026,-0.0051141283,-10.680893,-0.044851758,-0.007871026,-0.04113636,66.6482,156.9064,0.0047884034,1442850,4186,806,-1279,11425
88355237,4014,0,-2.2643588,-0.8366985,-8.299104,0.057788167,0.0067156125,-0.04168729,66.67867,156.9064,0.0047884034,1442850,-3851,-1169,-3930,11436
88459234,4004,0,1.3451083,0.7981187,-10.472145,0.04462055,0.002471902,-0.045952108,66.67867,156.9064,0.0047884034,1442850,164,477,-2252,11436
88559223,4000,0,-2.2840283,-1.2854856,-9.090819,0.0138981,-0.013202812,-0.028756823,66.66759,156.9064,0.0047884034,1442850,-3292,-221,-2589,11432
88663229,4006,0,-1.5081037,0.40304238,-10.137664,0.051094934,0.0043115085,-0.042139612,66.65651,156.9064,0.0047884034,1442850,-3889,-317,-2496,11428
88767226,3997,0,-2.6271114,-0.39086166,-8.754481,0.02156979,-0.005278595,-0.046760492,66.65097,156.9064,0.0047884034,1442850,-3906,-382,-3202,11426
88867223,4000,0,-1.6398531,0.033545963,-10.630692,-0.032825243,-0.0058604665,-0.019779313,66.67036,156.9064,0.0047884034,1442850,-361,326,-1353,11433
88971229,4007,0,-0.19199269,0.40568915,-9.438561,-0.07738795,-0.0019147759,-0.043066256,66.67313,156.9064,0.0047884034,1442850,2736,94,-2814,11434
89071237,3996,0,2.3947887,-0.104852155,-11.542402,0.008871432,0.017665565,-0.050514095,66.66759,156.9064,0.0047884034,1442850,2531,-70,-408,11432
89171272,4049,0,1.5325859,-0.2868549,-9.507891,0.035817765,-0.0062564793,-0.043548316,66.68698,156.9064,0.0047884034,1442850,1258,-126,-2236,11439
89275223,4000,0,2.5834858,1.232634,-10.724317,-0.010978841,-0.0021119313,-0.012453619,66.639885,156.9064,0.0047884034,1442850,3495,594,-652,11422
89375223,4000,0,1.3421113,0.814125,-11.620055,-0.033697855,0.0076398547,-0.028361358,66.639885,156.9064,0.0047884034,1442850,2915,655,-517,11422
89475223,3984,0,-1.3424585,0.1881263,-10.701183,-0.029484957,0.0038187671,-0.020238189,66.67036,156.9064,0.0047884034,1442850,-108,419,-1933,11433
89579254,4031,0,0.7480986,-0.010175333,-9.564248,-0.037545547,-0.00033955695,-0.04832975,66.65651,156.9064,0.0047884034,1442850,2824,-523,-3154,11428
89679223,3951,0,0.4217328,1.655765,-10.993034,-0.0050273323,0.005252957,-0.02947998,66.67867,156.9064,0.0047884034,1442850,1078,735,236,11436
89783223,4000,0,0.77180815,0.5716067,-10.2967415,0.005998431,-0.007623001,-0.0062464396,66.70914,156.9064,0.0047884034,1442850,1288,664,-17,11447
89887223,4000,0,-0.78470576,0.25727314,-8.835618,-0.008540382,-0.01182825,-0.017487137,66.66205,156.9064,0.0047884034,1442850,166,-443,-2748,11430
89987223,3997,0,2.4446564,1.6886598,-8.937829,0.04201259,0.0076579577,-0.028979203,66.67313,156.9064,0.0047884034,1442850,1499,115,-1160,11434
90091223,4000,0,-0.47824758,1.1300503,-8.958392,0.015775017,-0.005185904,-0.045168296,66.69252,156.9064,0.0047884034,1442850,-2491,278,-4176,11441
90191243,4020,0,0.55041033,-0.39788017,-10.654473,-0.03975688,-0.009953082,-0.022031672,66.69529,156.9064,0.0047884034,1442850,1108,-86,-1815,11442
90291223,4000,0,0.91367185,0.12709944,-10.413261,-0.01829228,0.0031576199,-0.018318214,66.69529,156.9064,0.0047884034,1442850,2530,834,1,11442
90395223,4000,0,-0.54322946,0.24183412,-8.571351,-0.033470515,-0.013327135,-0.021778293,66.66482,156.9064,0.0047884034,1442850,156,272,-2688,11431
90495263,4034,0,0.3799646,-0.34878635,-10.13846,0.019881949,-0.0045198454,-0.033338785,66.69806,156.9064,0.0047884034,1442850,626,-298,-1537,11443
90595235,4012,0,-1.378901,-0.29916006,-9.469319,0.014163862,-0.013501194,-0.02435014,66.70083,156.9064,0.0047884034,1442850,-2370,-407,-2216,11444
90699223,4000,0,0.8931654,0.19528314,-9.157683,0.002371582,-0.0018211016,-0.04050626,66.67867,156.9064,0.0047884034,1442850,53,-575,-2063,11436
90799223,4000,0,0.35822272,0.51910394,-10.635105,-0.0015817713,-0.0015757704,-0.03689058,66.66759,156.9064,0.0047884034,1442850,-113,-14,-1758,11432
90903223,4000,0,-0.7194609,-0.24815646,-9.606328,0.0033940643,0.00044835568,-0.03158296,66.69252,156.9064,0.0047884034,1442850,-797,-332,-2534,11441
91007223,4000,0,0.5925811,0.799586,-11.021053,-0.0011364896,0.0074762064,-0.0533987,66.67036,156.9064,0.0047884034,1442850,852,458,277,11433
91107223,3998,0,-0.13643068,0.73581266,-10.477899,-0.0063781817,-0.0071160793,-0.0064889067,66.7036,156.9064,0.0047884034,1442850,-178,934,340,11445
91211223,4000,0,0.38343674,-0.11681385,-9.6945915,-0.0044427086,-0.0044736806,-0.039137065,66.70637,156.9064,0.0047884034,1442850,942,56,-2926,11446
91311223,4000,0,-1.3702139,1.1240777,-9.800591,0.006354592,0.009450459,-0.067869805,66.68144,156.9064,0.0047884034,1442850,-2182,-210,-3737,11437
91412823,4000,0,-0.28373003,0.90216756,-10.005236,0.0074120243,-0.0058534285,-0.046737608,66.69529,156.9064,0.0047884034,1442850,193,1158,-1995,11442
91512823,4000,0,-1.5027236,0.7408253,-10.20878,0.011773425,-0.0024298963,-0.06586118,66.68144,156.9064,0.0047884034,1442850,-2052,-327,-4542,11437
91616823,4000,0,-1.786623,-0.2619333,-9.357357,0.007201469,-0.014782019,-0.07386836,66.68144,156.9064,0.0047884034,1442850,-2138,-399,-3922,11437
91716823,3984,0,-0.20181827,0.21813738,-10.272149,-0.03144092,0.010593421,-0.05913006,66.68421,156.9064,0.0047884034,1442850,553,66,-1809,11438
91816823,3994,0,0.40169582,0.70132345,-10.687591,-0.01598155,-0.0015437865,-0.018183008,66.67867,156.9064,0.0047884034,1442850,1766,209,-323,11436
91920845,4022,0,-0.7506219,0.49740452,-9.81638,0.025134496,0.0026329309,-0.03595912,66.68698,156.9064,0.0047884034,1442850,-2436,560,-920,11439
92020829,4006,0,-0.14857003,-0.5538073,-9.335772,0.03363693,-0.012586551,-0.02583402,66.70637,156.9064,0.0047884034,1442850,-1070,869,-4046,11446
92124834,4004,0,0.68814963,0.3867133,-10.746209,-0.01490568,-0.002312915,-0.017933715,66.70637,156.9064,0.0047884034,1442850,2487,494,-161,11446
92224823,4000,0,-0.21097472,1.3138582,-11.136845,-0.0066124788,0.0062331352,-0.022711942,66.69529,156.9064,0.0047884034,1442850,983,912,826,11442
92324872,4049,0,-0.08907033,1.1226599,-10.785554,-0.0015097628,0.0013117918,-0.030568164,66.675896,156.9064,0.0047884034,1442850,587,244,492,11435
92428823,4001,0,1.0754699,-0.6645443,-9.284474,-0.018946972,-0.011590898,-0.007469002,66.70637,156.9064,0.0047884034,1442850,2455,678,-2426,11446
92528823,4000,0,-0.17360635,-0.72150564,-9.864283,-0.03363017,-0.0030055647,-0.063000515,66.69252,156.9064,0.0047884034,1442850,1379,-240,-2514,11441
92628834,4011,0,-0.28414583,0.19717899,-9.940807,-0.025627023,0.007369972,-0.0024576243,66.711914,156.9064,0.0047884034,1442850,637,602,-111,11448
92732869,4026,0,1.3501682,1.2351478,-9.698894,-0.0017637359,-0.0067236917,-0.009785378,66.711914,156.9064,0.0047884034,1442850,2460,416,-817,11448
92832823,4000,0,0.46585888,0.81120807,-8.621897,0.009527089,-0.012265032,-0.053036667,66.7313,156.9064,0.0047884034,1442850,-221,-98,-4206,11455
92936860,4037,0,0.016693018,-1.0439725,-9.928505,0.016573545,-0.0032013496,0.0066305073,66.68975,156.9064,0.0047884034,1442850,290,398,-772,11440
93040823,4000,0,0.93337286,-0.41844362,-9.256639,0.000912711,-0.00083730835,-0.02975911,66.69252,156.9064,0.0047884034,1442850,2206,20,-2252,11441
93140823,4001,0,-0.91659415,2.1616726,-9.181166,0.031352375,0.008543131,-0.01578166,66.711914,156.9064,0.0047884034,1442850,-2134,601,-1562,11448
93244823,3995,0,-0.45790756,0.37106642,-9.3422785,0.025514863,-0.013855066,-0.03537254,66.70637,156.9064,0.0047884034,1442850,-1428,369,-3460,11446
93344823,3988,0,-0.14732482,-1.051022,-8.836089,-0.015590766,-0.011568212,-0.0220293,66.70637,156.9064,0.0047884034,1442850,245,593,-3493,11446
93444823,3994,0,0.87408805,-1.660652,-10.496306,-0.029313695,-0.0017026997,-0.005516006,66.711914,156.9064,0.0047884034,1442850,2836,-389,-266,11448
93548823,4000,0,0.3191859,0.56232315,-8.562931,-0.006642268,0.017016217,-0.048770465,66.711914,156.9064,0.0047884034,1442850,1420,-1234,-4507,11448
93648823,4000,0,0.79992586,1.565806,-9.622065,-0.0023564203,0.0007129705,-0.052105434,66.711914,156.9064,0.0047884034,1442850,1065,252,-3623,11448
93748830,3968,0,-1.148121,0.7538785,-9.916004,-0.026756445,0.0015644978,-0.065804556,66.71745,156.9064,0.0047884034,1442850,-683,20,-2654,11450
93852855,4026,0,-0.87478536,-1.7346058,-9.147099,0.013114667,-0.005225882,-0.0702651,66.68698,156.9064,0.0047884034,1442850,-1925,-96,-3828,11439
93952823,4000,0,0.5883731,-0.7710678,-8.778434,0.002245767,-0.0015036575,-0.03777248,66.711914,156.9064,0.0047884034,1442850,678,56,-3929,11448
94056830,4007,0,-0.02684239,0.9631589,-9.94558,-0.0271268,0.0108006885,-0.037892036,66.73684,156.9064,0.0047884034,1442850,1399,-492,-1798,11457
94160832,4009,0,-0.07487137,0.29907054,-10.781943,0.037613973,-0.002855422,-0.05073187,66.69529,156.9064,0.0047884034,1442850,-806,720,-1493,11442
94260823,4000,0,-0.5604502,-1.0310671,-11.47596,0.010516511,-0.0065246173,-0.07474359,66.67036,156.9064,0.0047884034,1442850,-1549,-600,-1612,11433
94364823,4001,0,-1.1951321,-1.2617075,-11.762233,-0.025385177,-0.0001601975,-0.055620797,66.70914,156.9064,0.0047884034,1442850,-389,-239,-1787,11447
94464867,4044,0,-0.5849597,0.028948529,-11.359948,0.020385135,0.0070272274,-0.0043307636,66.72299,156.9064,0.0047884034,1442850,-607,-536,1132,11452
94564823,3989,0,0.59424084,1.1157929,-11.357236,0.019976981,0.010412615,-0.059662566,66.72022,156.9064,0.0047884034,1442850,826,328,-394,11451
94666441,3994,0,-0.04228058,1.8753757,-11.51666,-0.0123863155,-0.010146612,-0.06227014,66.74238,156.9064,0.0047884034,1442850,502,1265,-633,11459
94770423,4000,0,-0.2942576,-0.6011156,-9.369921,-0.01035083,-0.0021259575,-0.011863551,66.71745,156.9064,0.0047884034,1442850,-109,21,-4551,11450
94874423,4000,0,0.36420277,-1.4216979,-11.06789,0.0073480606,-0.0036354389,-0.08535832,66.72853,156.9064,0.0047884034,1442850,866,702,-2778,11454
94974423,3966,0,-1.7169104,-0.5726083,-10.04035,-0.011046539,0.013441969,-0.044946477,66.74238,156.9064,0.0047884034,1442850,-872,-1029,-3130,11459
95078423,4000,0,-0.6577351,1.3597972,-10.418326,-0.03317507,0.0025167442,-0.03608603,66.74515,156.9064,0.0047884034,1442850,517,-108,-971,11460
95178423,4000,0,-0.75754076,0.77932227,-11.52248,0.019343186,-0.006144723,-0.050197534,66.7313,156.9064,0.0047884034,1442850,-1506,195,949,11455
95278448,4025,0,0.27343902,0.62594676,-11.0574,0.03523188,0.00089569204,-0.058773994,66.69529,156.9064,0.0047884034,1442850,-1240,945,-2211,11442
95382423,3994,0,-0.69399285,-1.6773534,-9.27089,-0.0059476197,-0.0056958226,-0.05399274,66.71468,156.9064,0.0047884034,1442850,-649,-91,-4200,11449
95482423,4000,0,-0.1326722,-1.0079122,-9.345175,-0.000955401,0.008402858,-0.04573527,66.759,156.9064,0.0047884034,1442850,435,-604,-4324,11465
95586447,4024,0,-1.3862045,1.1013502,-9.97948,-0.0036359087,0.012244132,-0.0036358146,66.711914,156.9064,0.0047884034,1442850,-1339,-79,-1213,11448
95690423,3987,0,-0.3147269,-0.02639451,-9.352817,-0.02692642,-0.01176253,-0.028365783,66.74515,156.9064,0.0047884034,1442850,279,-154,-2833,11460
95790457,4034,0,-0.24215582,-1.3417877,-10.101691,0.02450701,-0.006025277,-0.07597629,66.73407,156.9064,0.0047884034,1442850,-1135,-604,-3634,11456
95894453,4030,0,-0.87425286,-0.9962457,-11.21368,0.009943748,-0.010519864,-0.026738482,66.73407,156.9064,0.0047884034,1442850,-1064,466,-215,11456
95994429,4006,0,0.16643368,0.4221284,-8.03564,0.020583846,0.012149552,-0.017285202,66.73407,156.9064,0.0047884034,1442850,-132,72,-5091,11456
96094423,3976,0,-0.430149,1.3834187,-9.559852,-0.028280327,0.007217981,-0.042334832,66.73961,156.9064,0.0047884034,1442850,1224,-613,-1303,11458
96198423,3988,0,0.5999802,0.2987143,-10.832655,0.004440685,-0.019065332,-0.0438433,66.750694,156.9064,0.0047884034,1442850,1179,661,208,11462
96298423,4000,0,0.15385175,-1.5300657,-9.473507,-0.013103353,-0.01840391,-0.012015759,66.74238,156.9064,0.0047884034,1442850,-18,60,-1613,11459
96398448,4025,0,-0.24705696,-2.1915555,-10.470636,-0.028319377,-0.007963462,-0.10304541,66.76454,156.9064,0.0047884034,1442850,315,-510,-3873,11467
96502423,4000,0,-0.19259354,-0.036751945,-8.403562,-0.00093522517,0.0069870735,-0.022326602,66.750694,156.9064,0.0047884034,1442850,870,-17,-5802,11462
96602423,4000,0,-1.0665483,1.3379952,-10.736973,0.0054600267,0.012674035,-0.07519714,66.7313,156.9064,0.0047884034,1442850,-894,351,-1193,11455
96706447,4024,0,-0.30741683,0.8742966,-8.967141,-0.0139847975,-0.009912032,-0.07228401,66.747925,156.9064,0.0047884034,1442850,-359,-47,-4822,11461
96810423,3987,0,0.3065291,-1.0808234,-10.085217,-0.007852754,-0.008624362,-0.023199761,66.75623,156.9064,0.0047884034,1442850,856,976,-2935,11464
96914440,4017,0,-0.32667422,-0.45346826,-9.920344,0.01007584,0.014177697,-0.031079961,66.76454,156.9064,0.0047884034,1442850,156,-179,-2657,11467
97014448,4025,0,-0.35775635,0.7897856,-11.006021,-0.0031795304,0.008204962,-0.07091023,66.75346,156.9064,0.0047884034,1442850,-77,151,-786,11463
97118423,3993,0,-0.47433048,1.4058566,-8.630806,-0.0073612044,-0.0044204053,-0.04309944,66.74515,156.9064,0.0047884034,1442850,180,64,-5143,11460
97218423,4000,0,-0.17616585,0.101496674,-11.221966,-0.0033352908,-0.0023471648,-0.048299983,66.73961,156.9064,0.0047884034,1442850,-304,276,-567,11458
97322449,4026,0,1.1360941,-1.7564158,-9.493766,-0.01601722,-0.009246539,-0.031056864,66.73407,156.9064,0.0047884034,1442850,2150,-62,-4618,11456
97426426,4003,0,-1.1349474,-0.6590216,-9.979365,0.009689691,0.014970005,0.0038604857,66.74515,156.9064,0.0047884034,1442850,-1476,-947,-946,11460
97526441,4018,0,0.2825298,1.0225562,-10.00099,0.011899881,-0.001107842,-0.018064128,66.77008,156.9064,0.0047884034,1442850,1364,97,-1140,11469
97630447,4024,0,0.34380284,1.0035917,-10.769701,0.02553295,0.0033336948,-0.08239133,66.747925,156.9064,0.0047884034,1442850,-324,-333,-1711,11461
97730423,3991,0,-0.12235713,0.11521499,-10.757679,-0.025160244,-0.0011402683,-0.05469902,66.77562,156.9064,0.0047884034,1442850,207,623,-2485,11471
97832029,4007,0,0.35305285,-1.1717108,-11.657816,0.023006907,-0.016213607,-0.010443237,66.747925,156.9064,0.0047884034,1442850,-106,577,666,11461
97932023,4000,0,0.36096174,-0.49136913,-9.075825,-0.0012783324,0.007881172,-0.028536316,66.74238,156.9064,0.0047884034,1442850,1444,497,-4540,11459
98036023,4000,0,-0.067090385,1.207909,-9.414226,0.010061443,0.0030919188,-0.028444985,66.76731,156.9064,0.0047884034,1442850,385,-63,-453,11468
98140029,4006,0,-0.5520554,0.10016243,-6.328895,-0.054152884,-0.01889331,-0.008419599,66.759,156.9064,0.0047884034,1442850,1400,697,-1415,11465
98240040,4017,0,1.878729,-0.42234513,-7.9605956,-0.035159033,0.017672544,-0.06751723,66.76731,156.9064,0.0047884034,1442850,3573,-876,-1213,11468
98344031,4008,0,-1.2925973,-0.23532917,-7.0211864,0.027576536,0.001129552,-0.04214703,66.81441,156.9064,0.0047884034,1442850,-1749,-184,-3272,11485
98444023,4000,0,-0.85421044,1.1521484,-8.231306,-0.015013426,-0.017634485,-0.033218026,66.747925,156.9064,0.0047884034,1442850,-1207,262,-2809,11461
98544023,4000,0,-1.762889,0.93549895,-7.9796195,0.009724364,-0.019100184,-0.018139642,66.75623,156.9064,0.0047884034,1442850,-1992,553,-3610,11464
98648023,3997,0,-0.6462231,-0.47313988,-10.362227,0.038735352,0.0034261153,-0.038166035,66.783936,156.9064,0.0047884034,1442850,-1508,-235,810,11474
98748023,3989,0,0.09818827,-1.0248642,-8.999982,0.026933465,0.0040028584,-0.040406182,66.76731,156.9064,0.0047884034,1442850,120,-317,-3718,11468
98848031,4008,0,0.54534614,-0.26742157,-9.861626,-0.00025179936,0.0013084844,-0.002880752,66.76731,156.9064,0.0047884034,1442850,2386,495,-2713,11468
98952048,4025,0,-0.91785115,1.2182308,-9.960091,0.006694982,0.004633747,-0.03424958,66.74238,156.9064,0.0047884034,1442850,-1155,-52,-1860,11459
99052037,4012,0,1.1431134,1.8179363,-9.209616,-0.0015873853,0.0057351165,-0.008012867,66.73961,156.9064,0.0047884034,1442850,1925,706,-2950,11458
99156023,4000,0,0.94045395,-0.415987,-11.306089,0.027760588,-0.0004552396,-0.080974676,66.747925,156.9064,0.0047884034,1442850,-551,-157,-996,11461
99256065,4036,0,0.5104555,-1.0803171,-11.292753,-0.022792269,0.01054981,-0.035268366,66.73684,156.9064,0.0047884034,1442850,984,-480,-914,11457
99356023,3992,0,-0.43463582,-0.48373103,-11.107454,0.0064908145,0.010871147,-0.06543533,66.75346,156.9064,0.0047884034,1442850,-138,298,-2124,11463
99460023,3989,0,-0.3569409,0.82075644,-9.220336,-0.017041469,0.004205685,-0.020685377,66.74515,156.9064,0.0047884034,1442850,612,-309,-4377,11460
99560029,4006,0,0.12180473,1.685747,-9.442799,0.013569688,0.0029378626,-0.06989637,66.750694,156.9064,0.0047884034,1442850,-595,113,-4429,11462
99660040,4017,0,0.8770626,0.9487749,-11.152482,0.0044955867,-0.006713109,-0.05088497,66.73961,156.9064,0.0047884034,1442850,758,170,-503,11458
99764063,4040,0,0.56083965,-1.4649309,-11.322684,0.009606244,-0.008141046,-0.060414754,66.73961,156.9064,0.0047884034,1442850,1054,188,-2713,11458
99864023,4000,0,0.12573199,-0.9001288,-10.779841,-0.004785075,-0.0035644195,-0.036515474,66.77008,156.9064,0.0047884034,1442850,695,822,-4474,11469
99968023,4000,0,-0.75447655,0.6541693,-10.548859,-0.015508507,0.017296478,-0.04377242,66.750694,156.9064,0.0047884034,1442850,315,-432,-2025,11462
100068023,4000,0,-0.0018690638,1.4490471,-10.002948,0.00047964108,0.007659157,-0.05384957,66.759,156.9064,0.0047884034,1442850,-213,543,-1444,11465
100168031,4008,0,-1.5564626,0.6338202,-9.777603,-0.0015862333,-0.01043793,-0.031450555,66.7313,156.9064,0.0047884034,1442850,-2139,246,-1838,11455
100272029,4006,0,-1.55538,-1.8781466,-9.888506,0.0027936217,-0.009091377,-0.07164478,66.7036,156.9064,0.0047884034,1442850,-2588,-699,-2593,11445
100372023,4000,0,1.3120317,-0.9115315,-10.275809,-0.021997102,0.004284646,-0.054581657,66.747925,156.9064,0.0047884034,1442850,2785,628,-1629,11461
100476023,4000,0,1.2394062,0.55004734,-8.9853735,0.0130647905,0.011459069,-0.007822143,66.72853,156.9064,0.0047884034,1442850,2004,-67,-1510,11454
100580023,4000,0,1.2787982,1.9233574,-9.986679,0.01816654,0.01112371,-0.06504793,66.76177,156.9064,0.0047884034,1442850,1489,486,-1596,11466
100680023,3982,0,-1.2688272,0.8157575,-9.714143,-0.01424559,-0.0037599942,-0.026144542,66.750694,156.9064,0.0047884034,1442850,-2361,579,-1500,11462
100784025,3994,0,-1.5976881,-2.3621428,-10.029462,-0.023658313,-0.011348406,-0.06675439,66.75346,156.9064,0.0047884034,1442850,-1350,-220,-2026,11463
100884023,4000,0,1.0053484,-1.8289082,-9.839232,-0.018424042,-0.000977604,-0.012647413,66.77285,156.9064,0.0047884034,1442850,2360,-13,-2050,11470
100984023,4000,0,-0.54614496,-1.272983,-10.256147,0.030926725,0.0038341703,-0.05830541,66.76731,156.9064,0.0047884034,1442850,-1008,-502,-2224,11468
101085622,4000,0,-1.2146249,0.6779067,-8.938678,0.009104956,0.018853467,-0.060034283,66.789474,156.9064,0.0047884034,1442850,-1694,-1056,-3358,11476
101189629,4006,0,-1.0778493,1.4954153,-8.333151,0.0021491055,0.0041295965,-0.052186035,66.76731,156.9064,0.0047884034,1442850,-1679,-987,-5101,11468
101293623,4000,0,0.7177985,-1.0063931,-8.862818,-0.028169282,-0.019295823,-0.054340035,66.76731,156.9064,0.0047884034,1442850,1790,650,-6279,11468
101393623,3997,0,0.4080526,-1.5310374,-10.696872,0.044906028,0.00095958845,-0.020776505,66.73407,156.9064,0.0047884034,1442850,-1089,-124,-808,11456
101497629,4006,0,-2.1088734,-1.4237934,-9.708503,0.012834026,0.00070082396,-0.018888034,66.783936,156.9064,0.0047884034,1442850,-2501,-552,-1102,11474
101597639,4017,0,0.9040354,0.13150944,-9.618627,0.018862741,0.027899897,-0.06630765,66.75623,156.9064,0.0047884034,1442850,1773,-1343,-1818,11464
101697623,4001,0,-1.1616288,1.7293236,-9.614895,-0.019214693,-0.0003736163,-0.00585387,66.76731,156.9064,0.0047884034,1442850,-235,60,-1015,11468
101801630,4007,0,1.3106778,1.3415054,-10.6066,-0.011812897,0.0026491098,-0.023907464,66.786705,156.9064,0.0047884034,1442850,2627,643,843,11475
101901631,4008,0,-1.4998367,-0.59148616,-9.285114,0.009299487,-0.006066094,-0.029242672,66.75623,156.9064,0.0047884034,1442850,-2665,-49,-3869,11464
102005622,3957,0,-1.0268085,-2.0985136,-9.583806,-0.026253363,-0.009971331,-0.03101282,66.76454,156.9064,0.0047884034,1442850,-562,-942,-2297,11467
102109630,4007,0,-0.7684464,1.0098472,-9.492169,-0.02160754,0.00033493686,0.00020846394,66.792244,156.9064,0.0047884034,1442850,-204,26,-150,11477
102209629,4003,0,-0.27439457,1.2555969,-9.581859,0.037732795,0.0074955164,-0.07406661,66.77285,156.9064,0.0047884034,1442850,-976,-542,-2943,11470
102309623,3993,0,0.070972815,1.4746579,-9.775601,-0.035197638,-0.0003425728,-0.003965951,66.786705,156.9064,0.0047884034,1442850,1133,241,-794,11475
102413622,3987,0,0.31495237,-0.77958965,-11.178773,-0.030517997,-0.014306435,-0.020819457,66.759,156.9064,0.0047884034,1442850,1469,524,900,11465
102513657,4034,0,0.58673096,-1.8734215,-10.279047,0.030508088,-0.0024736733,-0.057104312,66.79501,156.9064,0.0047884034,1442850,-366,-92,-3371,11478
102613623,3994,0,-0.14584276,-1.8417348,-10.337508,-0.041759983,-0.01254684,-0.015464636,66.77008,156.9064,0.0047884034,1442850,1918,27,-2008,11469
102717623,4000,0,-0.083092965,0.2312699,-10.068308,-0.02865204,-0.0009509186,-0.033025518,66.792244,156.9064,0.0047884034,1442850,1144,-580,-1299,11477
102817623,4000,0,-0.12653911,1.8017311,-9.39548,0.02781237,0.012807784,-0.04981377,66.783936,156.9064,0.0047884034,1442850,332,-203,-2832,11474
102921623,3994,0,1.4347639,2.09338,-9.3801365,0.008675875,0.001777313,-0.053150363,66.783936,156.9064,0.0047884034,1442850,1803,928,-4353,11474
103021623,3994,0,-0.268706,-0.07304482,-9.810119,0.031192746,-0.007469351,-0.032279287,66.81163,156.9064,0.0047884034,1442850,-1492,68,-2736,11484
103125646,4023,0,1.1304201,-1.9021301,-9.880238,0.023423526,0.004084917,-0.023853358,66.77839,156.9064,0.0047884034,1442850,898,-201,-2501,11472
103837632,4009,0,-0.11734623,0.3826979,-8.559224,0.00142861,-0.0019500599,0.0006648144,66.783936,156.9064,0.0047884034,1442850,554,-128,-2897,11474
103937623,4000,0,0.14585519,1.2798923,-8.806404,-0.021428946,0.005808079,-0.04659601,66.80886,156.9064,0.0047884034,1442850,1849,153,-3237,11483
104041624,4001,0,-0.41054904,0.6849205,-9.526575,0.022854075,-0.0116061745,-0.037827075,66.80332,156.9064,0.0047884034,1442850,-1727,882,-2108,11481
104141661,4038,0,0.059102446,-0.57898957,-10.067757,-0.0016846871,-0.018490974,-0.044941746,66.81718,156.9064,0.0047884034,1442850,-7,767,-1648,11486
104243223,3994,0,-0.2268599,-1.7876878,-9.839484,0.021474998,-0.005017117,-0.01952535,66.80609,156.9064,0.0047884034,1442850,-835,-256,-1178,11482
104343238,4015,0,-0.91554946,-1.0472616,-10.058477,0.00020069093,-0.0023915647,-0.041553706,66.81441,156.9064,0.0047884034,1442850,-355,-406,-1462,11485
104447239,4016,0,-0.49618167,0.75596905,-9.07035,0.01074732,0.014247249,-0.028583465,66.789474,156.9064,0.0047884034,1442850,70,-31,-2498,11476
104547229,3966,0,-0.3468654,1.5419989,-10.166568,-0.01587075,-0.0010635592,-0.03875145,66.79778,156.9064,0.0047884034,1442850,-411,239,-1704,11479
104651223,4000,0,1.9442785,-0.4370372,-9.682499,0.0061341883,-0.013036741,-0.04771191,66.80609,156.9064,0.0047884034,1442850,1967,608,-2455,11482
104751223,3958,0,-0.089331016,-1.3653934,-10.579006,-0.020694207,0.0035982467,-0.04677791,66.786705,156.9064,0.0047884034,1442850,148,-219,-1877,11475
104851223,4000,0,0.10735599,-1.1699516,-9.996979,-0.012550324,0.007897456,-0.060382854,66.822716,156.9064,0.0047884034,1442850,893,-385,-3561,11488
104955223,4000,0,-0.34528533,0.46607417,-9.647427,0.021454368,0.0068596182,-0.032454543,66.828255,156.9064,0.0047884034,1442850,-692,-1206,-1178,11490
105055223,4000,0,1.0256722,1.0163996,-8.996154,-0.003020374,-0.00828128,-0.060883056,66.81163,156.9064,0.0047884034,1442850,1942,-124,-3696,11484
105155223,3957,0,0.480578,1.1337284,-9.705227,0.0080332635,0.0011899812,-0.038589135,66.825485,156.9064,0.0047884034,1442850,2,-53,-1755,11489
105259252,4029,0,-0.1421834,-1.075366,-10.094391,-0.018466352,-0.017018441,-0.025326319,66.80055,156.9064,0.0047884034,1442850,216,946,-2278,11480
105359223,4000,0,-0.9611205,-1.9173553,-9.191114,0.01074679,0.0023804696,-0.036707636,66.81441,156.9064,0.0047884034,1442850,-1023,-744,-3762,11485
105463223,4000,0,-0.2135916,0.45940578,-10.030199,0.008052094,0.009321835,0.0005790007,66.828255,156.9064,0.0047884034,1442850,576,2,-103,11490
105567223,4000,0,-1.0013775,1.3248492,-9.762037,0.008266993,0.0023551446,-0.08501036,66.864265,156.9064,0.0047884034,1442850,-1882,320,-2933,11503
105667223,4000,0,1.1467644,0.37337255,-10.279653,0.026033621,-0.007283275,-0.08113497,66.84764,156.9064,0.0047884034,1442850,247,1265,-2166,11497
105771223,4000,0,1.0323104,-1.979259,-9.274711,-0.009265661,-0.0038985158,-0.032096118,66.83379,156.9064,0.0047884034,1442850,2134,113,-4507,11492
105871262,4032,0,-0.57794535,-1.0518981,-10.780961,-0.023221914,0.0062671183,-0.03534728,66.80332,156.9064,0.0047884034,1442850,723,409,-1287,11481
105971260,4031,0,0.5818251,0.17632394,-9.149326,-0.007126721,0.009449182,0.0033203112,66.83379,156.9064,0.0047884034,1442850,1458,244,-2690,11492
106075223,4000,0,-0.44699267,1.9202366,-9.717981,0.029892609,0.009196071,-0.043642864,66.83379,156.9064,0.0047884034,1442850,-1382,733,-2223,11492
106175223,4000,0,-0.6859048,1.1115465,-9.886736,0.0071359966,-0.001279351,-0.024594408,66.8421,156.9064,0.0047884034,1442850,-1597,634,-1912,11495
106275228,4005,0,0.36253005,-0.17317486,-9.538518,0.011228102,-0.0002093499,-0.08067629,66.81718,156.9064,0.0047884034,1442850,-520,435,-4517,11486
106379223,3994,0,0.33921534,-1.7479128,-10.015728,0.01879118,0.0038642348,-0.018292103,66.83656,156.9064,0.0047884034,1442850,625,-114,-2725,11493
106479223,4000,0,-0.9236433,-0.7186564,-11.923681,0.004204159,0.010617447,-0.061936438,66.85042,156.9064,0.0047884034,1442850,-580,-525,711,11498
106583229,4006,0,0.15567946,1.1312429,-9.280932,-0.030937403,0.010324335,-0.04651777,66.825485,156.9064,0.0047884034,1442850,1672,-739,-2500,11489
106687223,3994,0,-1.2978348,0.50737077,-9.542871,-0.00060404,-0.0100803925,-0.026481904,66.864265,156.9064,0.0047884034,1442850,-1783,283,-3170,11503
106787228,4005,0,-0.13720089,-0.2738236,-10.060957,-0.008006575,-0.0062478026,-0.0794697,66.85873,156.9064,0.0047884034,1442850,-451,245,-3357,11501
106891223,3962,0,-1.0074321,-1.8047369,-10.339813,0.014100672,0.006719213,-0.056247223,66.831024,156.9064,0.0047884034,1442850,-939,-922,-4077,11491
106991223,4000,0,-1.2831194,-0.51276964,-11.414157,-0.0018493384,0.002200341,-0.047819965,66.825485,156.9064,0.0047884034,1442850,-1450,-419,443,11489
107091223,4000,0,-0.42373872,1.4705139,-8.08552,0.014906613,0.0057259477,-0.030910037,66.83933,156.9064,0.0047884034,1442850,-415,137,-4879,11494
107195223,4000,0,1.561747,1.6526575,-10.08481,0.031233322,-0.0006107907,-0.018363375,66.867035,156.9064,0.0047884034,1442850,803,1093,-715,11504
107295230,4005,0,0.9632503,-0.8140199,-10.055428,0.0054182056,-0.0062382836,-0.040191878,66.83656,156.9064,0.0047884034,1442850,1318,-215,-2661,11493
107396823,4000,0,1.4289018,-0.85877717,-11.214787,0.0044767214,0.00612102,-0.004768372,66.85042,156.9064,0.0047884034,1442850,2066,262,-224,11498
107496837,3972,0,0.76874405,-1.2878548,-10.147766,-0.014020574,-0.0038028336,-0.02180207,66.8421,156.9064,0.0047884034,1442850,1913,-643,-103,11495
107600870,4047,0,0.42143008,1.0704055,-9.611453,-0.007401662,0.009630908,-0.05525095,66.85042,156.9064,0.0047884034,1442850,906,-354,-2800,11498
107700823,3994,0,-0.50968736,1.3106805,-9.468952,-0.016070694,-0.0056715854,-0.0049061654,66.83933,156.9064,0.0047884034,1442850,133,566,-2284,11494
107804823,4000,0,0.75429463,-0.10701482,-10.390278,0.012689661,-0.012378691,-0.09106665,66.87811,156.9064,0.0047884034,1442850,-88,146,-2534,11508
107904823,4000,0,-0.07394701,-1.1111465,-11.423339,0.032383643,-0.0050715776,-0.03289084,66.867035,156.9064,0.0047884034,1442850,-1533,494,1216,11504
108004829,3999,0,-0.69679236,-1.7887474,-10.090159,0.03159874,0.006300031,-0.020217843,66.87534,156.9064,0.0047884034,1442850,-792,-68,-2128,11507
108108823,3992,0,-0.438295,0.30348715,-10.442664,0.007343457,0.020537628,-0.03311627,66.869804,156.9064,0.0047884034,1442850,-209,-799,-452,11505
108208823,4000,0,0.17529964,1.3110677,-10.251063,-0.0058828397,0.012704628,-0.036999036,66.867035,156.9064,0.0047884034,1442850,1027,-95,369,11504
108308823,4000,0,-0.7349258,1.0779246,-10.088267,-0.028016826,-0.009842485,-0.005890257,66.903046,156.9064,0.0047884034,1442850,622,635,-660,11517
108412823,4000,0,-0.059608493,-0.9068082,-10.572593,-0.004247201,-0.009637232,-0.104681514,66.869804,156.9064,0.0047884034,1442850,-704,-322,-2930,11505
108512833,4004,0,-0.6378571,-1.0615324,-11.544202,-0.005586616,-0.008431963,-0.054621287,66.81995,156.9064,0.0047884034,1442850,-547,1060,-1146,11487
108616862,4039,0,0.19096373,-0.70696384,-8.642335,0.0027063885,0.007117397,-0.03347914,66.85042,156.9064,0.0047884034,1442850,1168,-313,-4391,11498
108720823,4000,0,-1.3382885,1.3542053,-9.787651,0.01288832,0.0019142292,-0.0356668,66.89751,156.9064,0.0047884034,1442850,-2464,-758,-960,11515
108820823,4000,0,0.14535186,0.9969467,-8.594252,-0.004908487,-0.016070005,-0.045130357,66.85042,156.9064,0.0047884034,1442850,430,784,-4100,11498
108924830,4007,0,1.3699014,-1.2519298,-10.991717,0.022921942,-0.0061224527,-0.06826723,66.88366,156.9064,0.0047884034,1442850,1023,285,-1203,11510
109024823,3990,0,-0.460526,-1.7087066,-11.478885,0.01924328,-0.0028388654,-0.02586494,66.85873,156.9064,0.0047884034,1442850,36,537,162,11501
109124823,4000,0,-2.0227354,-1.6380643,-10.357586,0.015092846,-0.002106559,-0.014863608,66.87534,156.9064,0.0047884034,1442850,-1897,-505,-575,11507
109228834,4012,0,-0.5452466,1.4404588,-10.27377,0.0063710315,0.015486939,-0.046005458,66.872574,156.9064,0.0047884034,1442850,-31,169,-666,11506
109328823,4000,0,0.29002452,2.2170084,-10.201045,-0.004095592,0.00819123,-0.01486206,66.8892,156.9064,0.0047884034,1442850,1633,738,423,11512
109428830,4001,0,0.25887766,0.5685316,-9.439121,-0.019728705,0.001946913,-0.015303797,66.861496,156.9064,0.0047884034,1442850,1556,130,-2701,11502
109532832,4007,0,0.017695002,-1.4210149,-11.055181,-0.022845926,-0.011277697,-0.0494863,66.87811,156.9064,0.0047884034,1442850,-90,466,-647,11508
109632861,4038,0,-1.043249,-1.8045561,-9.918095,0.013263144,-0.0019277199,-0.03458434,66.872574,156.9064,0.0047884034,1442850,-1336,-849,-2958,11506
109736823,3994,0,-0.6500737,0.29291576,-9.617502,-0.0022501948,0.009099152,0.0073389206,66.8892,156.9064,0.0047884034,1442850,-358,-268,-1057,11512
109840823,4000,0,-0.43324864,1.2791636,-10.98178,0.005307783,0.005294442,-0.05146797,66.89197,156.9064,0.0047884034,1442850,-246,725,-866,11513
109940823,4000,0,1.1012744,0.49647325,-10.247654,0.020142622,-0.0053753015,-0.008567034,66.8892,156.9064,0.0047884034,1442850,1227,1005,-746,11512
110044823,4001,0,-0.66704816,-1.2418345,-10.121629,0.008856544,-0.004017429,-0.054584317,66.85319,156.9064,0.0047884034,1442850,-1476,193,-2096,11499
110144823,4000,0,-0.729131,-0.9493713,-11.519001,-0.0037233233,-0.003929812,-0.049734127,66.861496,156.9064,0.0047884034,1442850,-415,161,234,11502
110244823,4000,0,-0.557938,-0.31921512,-9.856977,0.019400887,0.0030536405,0.0036553666,66.89751,156.9064,0.0047884034,1442850,-470,-666,-174,11515
110348823,4000,0,-1.1052926,1.5918975,-10.385153,0.0062907557,0.0022959714,-0.0665599,66.908585,156.9064,0.0047884034,1442850,-2141,464,-1423,11519
110448823,4000,0,1.0924324,0.914279,-9.928578,0.029123262,-0.013371807,-0.031296484,66.91967,156.9064,0.0047884034,1442850,536,1593,-2556,11523
110550423,4000,0,0.17837843,-1.2127601,-10.012635,-0.00891385,-0.011018918,-0.041081093,66.95291,156.9064,0.0047884034,1442850,456,351,-3342,11535
110650448,4025,0,0.9398857,-1.4643354,-9.812252,-0.0029447107,0.00081519585,-0.05042316,66.900276,156.9064,0.0047884034,1442850,1249,533,-3560,11516
110754423,4000,0,-1.004258,-0.78911364,-9.730738,0.012875942,-0.011245659,-0.03184341,66.91967,156.9064,0.0047884034,1442850,-1337,-538,-1950,11523
110854423,4000,0,1.0043539,0.85070074,-8.857022,0.016655711,-0.0060988804,-0.031062521,66.87811,156.9064,0.0047884034,1442850,1564,426,-3196,11508
110958487,4064,0,-1.4906436,0.6601721,-9.483758,-0.0026843492,-0.0015923219,-0.068131275,66.8892,156.9064,0.0047884034,1442850,-1497,-496,-2407,11512
111058430,4001,0,-0.44889924,0.10355187,-10.51358,-0.019557977,-0.0126469545,-0.09138788,66.89474,156.9064,0.0047884034,1442850,-108,203,-2159,11514
111158423,3960,0,-0.88038814,-1.1847097,-11.357092,0.0017142207,-0.012945957,-0.056821823,66.903046,156.9064,0.0047884034,1442850,-1906,360,-357,11517
111262423,4000,0,-0.42754123,-1.4119195,-9.533576,-0.033565883,0.0110508185,-0.041738857,66.900276,156.9064,0.0047884034,1442850,1416,-1311,-2969,11516
111362464,4041,0,-1.4134609,0.3473346,-9.940718,0.0073003042,0.012085393,-0.070558436,66.91412,156.9064,0.0047884034,1442850,-1947,-1247,-2024,11521
111462454,4031,0,0.46171108,1.3020765,-10.416692,0.014289888,0.0020099385,-0.060667783,66.88366,156.9064,0.0047884034,1442850,152,76,-688,11510
111566423,3990,0,0.52736163,0.6227041,-8.437569,0.003403447,0.006957366,-0.022830326,66.903046,156.9064,0.0047884034,1442850,832,-169,-4693,11517
111666431,4008,0,0.3128935,-0.6295747,-9.095588,-0.022495454,-0.012995757,-0.056519188,66.91412,156.9064,0.0047884034,1442850,564,-508,-4592,11521
111770458,4024,0,-0.10657957,-1.4909049,-11.070136,0.024247019,0.0022973586,-0.015177305,66.93075,156.9064,0.0047884034,1442850,413,376,-410,11527
111874423,4000,0,-1.419208,0.8067796,-9.3884945,0.010437659,0.01086933,-0.04655731,66.947365,156.9064,0.0047884034,1442850,-1974,-400,-2110,11533
111974434,4011,0,-0.4136315,1.5203696,-10.468742,-0.0057664085,0.004828737,-0.058645602,66.905815,156.9064,0.0047884034,1442850,-761,47,10,11518
112078447,4024,0,1.3201467,0.19574481,-9.618109,-0.0035353873,-0.006806155,-0.057974555,66.911354,156.9064,0.0047884034,1442850,2056,482,-3066,11520
112178423,4000,0,0.62687963,-0.8380767,-11.169253,0.0046798335,0.006969026,-0.046751913,66.905815,156.9064,0.0047884034,1442850,505,165,119,11518
112278423,3976,0,1.1355071,-1.2607211,-11.091501,-0.008300699,-0.012930748,-0.03121554,66.944595,156.9064,0.0047884034,1442850,2044,-63,4,11532
112382423,3998,0,-0.34302002,0.49018806,-9.55213,-0.02104572,0.0124781,-0.07210466,66.911354,156.9064,0.0047884034,1442850,637,-632,-3033,11520
112482423,4000,0,-0.43934658,1.700975,-10.005481,-0.0233397,0.004527649,-0.00827633,66.95291,156.9064,0.0047884034,1442850,943,757,44,11535
112582448,4025,0,0.9081999,1.8879021,-8.700571,-0.004968377,0.00066799205,-0.03549336,66.92521,156.9064,0.0047884034,1442850,2601,527,-3969,11525
112686423,4000,0,-0.54267776,-0.4638812,-9.028575,-0.009149069,-0.012309035,-0.009373799,66.89474,156.9064,0.0047884034,1442850,-657,242,-1998,11514
112786423,3975,0,0.3592536,-1.7448902,-9.5803,-0.03382446,-0.0020843293,-0.05334122,66.900276,156.9064,0.0047884034,1442850,1457,-495,-3657,11516
112890426,4003,0,-0.37990654,0.12932013,-9.025481,-0.0057946406,0.009300584,-0.020191219,66.89474,156.9064,0.0047884034,1442850,219,-717,-4248,11514
112994423,3954,0,0.5321685,1.858286,-10.341223,0.025311766,0.012034939,-0.032430742,66.91412,156.9064,0.0047884034,1442850,-604,11,-549,11521
113094431,4008,0,0.61558056,0.3961268,-9.824616,0.0014148066,-0.010361592,-0.06604477,66.93352,156.9064,0.0047884034,1442850,643,-447,-3231,11528
113198447,4024,0,0.90790826,-2.4312193,-9.495879,-0.026155792,-0.014288565,-0.030525379,66.900276,156.9064,0.0047884034,1442850,1773,-636,-3278,11516
113298423,4000,0,-0.23897085,-1.3779887,-10.372562,-0.005735667,-0.0038414008,-0.036027253,66.905815,156.9064,0.0047884034,1442850,638,469,-1767,11518
113398423,3938,0,0.43357906,-0.7326068,-9.162111,-0.0047440017,0.007392514,-0.0069973697,66.93906,156.9064,0.0047884034,1442850,1263,-248,-1440,11530
113502453,4030,0,-0.2685322,1.3394767,-8.815884,0.002034577,0.0056611383,-0.008704514,66.93629,156.9064,0.0047884034,1442850,-862,248,-2619,11529
113602422,3991,0,-1.2150469,0.88085014,-8.975626,-0.025471868,-0.0073199184,-0.04649371,66.911354,156.9064,0.0047884034,1442850,-975,-269,-4284,11520
113704035,4012,0,-0.8341184,0.067318864,-9.462098,-0.0019506003,-0.018674657,-0.0376238,66.905815,156.9064,0.0047884034,1442850,-249,1312,-3719,11518
113804023,4000,0,-0.76668066,-1.5075704,-9.589808,-0.0024284702,-0.00044026593,-0.073779054,66.92798,156.9064,0.0047884034,1442850,-1355,-247,-4267,11526
113908023,4000,0,-1.4214512,-0.95275426,-10.176215,0.004317599,0.013095395,-0.043191034,66.944595,156.9064,0.0047884034,1442850,-826,-403,-1955,11532
114008023,4000,0,-0.32833582,0.3715813,-10.526318,0.014882609,0.011619059,-0.049992595,66.950134,156.9064,0.0047884034,1442850,-176,-58,-685,11534
114108063,4023,0,-0.83404815,1.7208129,-8.833772,0.022443874,0.0014806472,-0.039728846,66.93906,156.9064,0.0047884034,1442850,-1348,-196,-4563,11530
114212048,4025,0,0.60119754,0.7187757,-9.511589,0.004011851,-0.0139956325,-0.009765552,66.93352,156.9064,0.0047884034,1442850,760,439,-2019,11528
114312023,4000,0,0.78582716,-0.634122,-11.209967,0.019921988,-0.0015900758,-0.0752161,66.93352,156.9064,0.0047884034,1442850,-36,269,-203,11528
114412029,4006,0,0.06133739,-1.8958031,-10.405173,0.028784487,-0.0068917163,-0.021811584,66.947365,156.9064,0.0047884034,1442850,-254,-92,-2683,11533
114516023,3984,0,0.025130136,-1.1931671,-10.635473,-0.0063780313,0.002770525,-0.020736106,66.89474,156.9064,0.0047884034,1442850,1459,-1214,-1304,11514
114616023,4000,0,0.5180387,0.48678118,-10.670429,0.012806413,0.008122326,-0.051507477,66.96122,156.9064,0.0047884034,1442850,1110,-108,-278,11538
114720040,4017,0,0.9492485,1.9837719,-9.318681,-0.003528034,-0.001287655,-0.05779505,66.91412,156.9064,0.0047884034,1442850,2151,1405,-2325,11521
114820029,4006,0,-0.48843664,0.7488725,-9.967434,0.028303761,-0.002210637,-0.016283525,66.93629,156.9064,0.0047884034,1442850,-1717,618,-1189,11529
114920023,4000,0,-0.6735744,-0.5033666,-10.434906,-0.02471996,-0.016544715,-0.059719745,66.944595,156.9064,0.0047884034,1442850,-308,992,-1813,11532
115024060,4037,0,-0.3168067,-2.0135643,-10.86306,-0.035498716,-0.010424078,-0.063064925,66.944595,156.9064,0.0047884034,1442850,267,302,21,11532
115124065,4042,0,0.03549841,-1.666178,-10.371378,-0.010012135,0.01348166,-0.07526349,66.941826,156.9064,0.0047884034,1442850,1822,-1195,-1920,11531
115228023,3998,0,-0.025102457,1.3610513,-10.382746,-0.017668666,0.004761488,-0.060989637,66.980606,156.9064,0.0047884034,1442850,1840,-87,-597,11545
115328023,4000,0,-0.13524126,2.2633922,-9.675777,0.017208016,0.007406438,-0.08781375,66.93906,156.9064,0.0047884034,1442850,-532,215,-2191,11530
115428026,4003,0,-0.15213954,0.98335695,-8.292793,-0.026566003,-0.006183584,-0.043074273,66.99169,156.9064,0.0047884034,1442850,655,384,-4652,11549
115532043,3995,0,1.0390661,-0.9572396,-9.671855,-0.021135192,-0.007621483,-0.060219795,66.96399,156.9064,0.0047884034,1442850,2329,591,-4023,11539
115632023,3993,0,-0.80901295,-2.331632,-9.213571,0.027290642,-0.0013488041,-0.040219933,66.95568,156.9064,0.0047884034,1442850,-1459,-388,-4568,11536
115732023,4000,0,1.0691614,-1.388373,-10.073338,-0.016375355,0.0029148683,-0.014931697,66.947365,156.9064,0.0047884034,1442850,2722,-842,-1085,11533
115836039,4007,0,0.32127607,0.73111665,-8.748493,0.01665476,0.012512383,-0.0412419,66.947365,156.9064,0.0047884034,1442850,1765,-549,-4724,11533
115936023,3980,0,-0.9761745,1.4285197,-8.267728,0.0060841194,0.0056788865,-0.031058483,66.93906,156.9064,0.0047884034,1442850,-1698,-717,-5467,11530
116040023,4000,0,-1.0227761,0.09718622,-9.661011,-0.023293942,-0.012184442,-0.06658207,66.980606,156.9064,0.0047884034,1442850,-1292,656,-3121,11545
116140046,4023,0,2.084784,-1.1942399,-10.015035,0.035533324,-0.013204392,-0.046737656,66.980606,156.9064,0.0047884034,1442850,818,-33,-3432,11545
116240023,4000,0,-0.32608658,-2.0229158,-9.289978,-0.041493103,-0.011329187,-0.010523003,66.96122,156.9064,0.0047884034,1442850,1019,118,-4010,11538
116344023,4000,0,0.031379186,-0.8066363,-8.782177,-0.037336912,0.0008737006,-0.046917446,66.96399,156.9064,0.0047884034,1442850,1357,-933,-3887,11539
116444023,4000,0,0.07546548,0.60728425,-9.204956,0.048436366,0.014465076,-0.010614153,66.96953,156.9064,0.0047884034,1442850,-571,-716,-2587,11541
116544022,3999,0,-1.4059476,1.5982174,-9.622405,-0.009846607,0.0033939758,-0.041057963,66.950134,156.9064,0.0047884034,1442850,-1304,-198,-1299,11534
116648047,4025,0,-0.687669,0.44982833,-10.252052,-0.00074976496,-0.0058744736,-0.04457893,66.96676,156.9064,0.0047884034,1442850,-2163,383,-285,11540
117565623,4000,0,-0.5717678,1.4298329,-8.912987,0.0052520176,0.01826658,-0.06531795,66.97784,156.9064,0.0047884034,1442850,-1387,-333,-2576,11544
117665623,3973,0,-0.42319968,1.805334,-10.029505,-0.025007501,0.007217408,-0.06702902,66.95291,156.9064,0.0047884034,1442850,-150,-341,-1088,11535
117765623,3963,0,-1.344773,0.76511526,-10.14388,0.0063564745,-0.0039748335,-0.026684849,66.983376,156.9064,0.0047884034,1442850,-1932,230,-449,11546
117869641,4010,0,-0.47411135,-1.425921,-10.917842,0.016379176,-0.00026827015,-0.05611896,66.9723,156.9064,0.0047884034,1442850,-1038,123,-2567,11542
117969623,4000,0,-0.86743873,-1.6304474,-11.146693,0.026194606,0.009482508,-0.056950036,67.0,156.9064,0.0047884034,1442850,-1168,225,-1180,11552
118073623,3999,0,-0.7449999,0.6292384,-9.350912,0.027017033,0.0118674105,-0.021234618,66.99446,156.9064,0.0047884034,1442850,-931,-753,-1180,11550
118173622,3999,0,0.15163516,1.8686421,-10.415459,0.0077922614,0.008021777,-0.066344865,67.00277,156.9064,0.0047884034,1442850,787,108,-1691,11553
118273655,4032,0,-0.19276133,1.2043289,-10.371995,0.014849521,0.0004282748,-0.011249537,66.97784,156.9064,0.0047884034,1442850,-356,9,-178,11544
118377623,4000,0,1.0760005,-0.9282825,-11.025606,-0.01121464,0.003029684,-0.054059524,66.980606,156.9064,0.0047884034,1442850,1796,323,-1015,11545
118477623,4000,0,1.4491119,-1.5999011,-10.877978,-0.012842221,-0.014058547,-0.018663751,66.96122,156.9064,0.0047884034,1442850,2591,493,-969,11538
118581623,4000,0,-0.40836868,-0.25998676,-10.539285,-0.0187597,0.0007660481,-0.04774176,66.97784,156.9064,0.0047884034,1442850,461,-858,-1324,11544
118685632,4009,0,-0.46968046,1.7219014,-10.571645,0.0062577967,0.003521039,-0.060031477,66.9723,156.9064,0.0047884034,1442850,-533,83,-627,11542
118785631,4009,0,-0.8052907,1.416381,-8.641081,-0.0029502576,0.0011831338,-0.059981957,66.980606,156.9064,0.0047884034,1442850,-1565,-171,-4767,11545
118889622,3986,0,0.36429816,-1.241714,-9.965192,0.022298023,-0.012048817,-0.045627944,66.92521,156.9064,0.0047884034,1442850,-604,-130,-2963,11525
118989623,4000,0,-1.0729035,-1.551343,-11.259723,0.018300194,-1.5919213e-05,-0.056623217,66.97784,156.9064,0.0047884034,1442850,-2022,197,-607,11544
119089623,4001,0,-0.7525858,-1.0480925,-9.120891,-0.01229682,0.003265354,-0.03531046,66.941826,156.9064,0.0047884034,1442850,-9,-242,-3676,11531
119193623,3987,0,0.26311034,1.6873076,-9.576024,0.027308416,0.014796977,-0.019621601,66.93629,156.9064,0.0047884034,1442850,-381,18,-1772,11529
119293631,3960,0,-0.71290404,1.2660568,-9.143818,-0.00035177986,-0.0027218466,-0.06186656,66.96676,156.9064,0.0047884034,1442850,-848,-447,-4020,11540
119393623,4000,0,-0.06534528,1.1209534,-9.958499,0.02757978,-0.004258063,-0.06551101,66.93906,156.9064,0.0047884034,1442850,-1838,680,-2340,11530
119497623,4000,0,0.25394395,-1.9078183,-9.692774,-0.031584337,-0.0076271375,-0.036103126,66.96399,156.9064,0.0047884034,1442850,942,-183,-2232,11539
119597623,4000,0,-1.063354,-1.7093165,-10.03125,-0.0132681085,2.924772e-05,-0.06845892,66.96122,156.9064,0.0047884034,1442850,-1142,-919,-2117,11538
119701627,4004,0,-1.1570221,0.6221737,-10.560239,-0.0077826637,0.010909346,0.0020873742,66.95568,156.9064,0.0047884034,1442850,30,-44,561,11536
119805623,4000,0,0.518606,1.2478484,-8.635662,0.0118072145,-0.002738312,-0.08274916,66.99446,156.9064,0.0047884034,1442850,162,564,-5589,11550
119907223,4001,0,-0.12555376,-0.2479597,-10.557043,-0.0072146133,-0.013403497,-0.07011324,66.95845,156.9064,0.0047884034,1442850,659,748,-1944,11537
120007223,3962,0,0.30087295,-1.5377599,-10.387809,0.006247325,-0.0047747814,-0.056750737,66.97507,156.9064,0.0047884034,1442850,-687,-731,-985,11543
120107223,4000,0,-0.25500214,-1.8294165,-10.588442,0.0007987471,0.0005159247,-0.0821373,66.980606,156.9064,0.0047884034,1442850,-307,380,-2633,11545
120211246,4023,0,-0.6681265,-0.34845445,-10.008019,-0.0281765,0.015497962,0.009235145,66.99169,156.9064,0.0047884034,1442850,475,-541,392,11549
120311223,4000,0,-0.9709302,0.9126204,-10.4569645,0.00531727,0.011796063,-0.03095489,67.01385,156.9064,0.0047884034,1442850,-1281,492,-1050,11557
120415223,4000,0,0.5354956,1.5026597,-8.169912,0.013342133,-0.0016671552,0.00814912,67.00831,156.9064,0.0047884034,1442850,835,795,-4383,11555
120519223,3996,0,-0.40558368,-1.0572969,-10.5680065,-0.0069105797,-0.0067657623,-0.06960839,66.98892,156.9064,0.0047884034,1442850,-277,-73,-1872,11548
120619223,4001,0,0.29572704,-1.8248755,-9.317074,-0.0056474614,-0.004998168,-0.04320214,67.01108,156.9064,0.0047884034,1442850,150,-1056,-3060,11556
120723265,4036,0,-1.0502148,-0.4065731,-11.410778,-0.012255621,0.011103331,-0.058135428,66.96676,156.9064,0.0047884034,1442850,-154,-657,-151,11540
120823223,3948,0,-1.238353,1.1246876,-10.787006,0.018909983,0.0028058928,-0.055345792,67.00277,156.9064,0.0047884034,1442850,-1756,229,391,11553
120923225,4002,0,0.007993804,1.9667943,-9.734017,0.03638055,0.0058054933,-0.0071799406,67.03324,156.9064,0.0047884034,1442850,-661,409,-1844,11564
121027229,4006,0,0.49831533,0.14870842,-10.556147,0.0061489483,-0.0014199186,-0.049669117,67.01385,156.9064,0.0047884034,1442850,92,257,594,11557
121127230,4007,0,1.6182848,-1.3079733,-10.637476,-0.0070063546,-0.012589499,-0.006086838,67.04155,156.9064,0.0047884034,1442850,2478,788,-447,11567
121227223,4000,0,0.058144003,-1.457633,-10.285577,-0.011515586,-0.0033107407,-0.04022931,67.01108,156.9064,0.0047884034,1442850,1172,663,-3279,11556
121331223,4000,0,-1.3736783,0.07381616,-9.100164,-0.018736035,0.006029741,-0.048335686,67.01662,156.9064,0.0047884034,1442850,-817,-536,-4451,11558
121431223,3999,0,0.00082499936,0.56471527,-9.287522,-0.017792325,0.00093935226,-0.033996068,67.00277,156.9064,0.0047884034,1442850,862,-354,-1437,11553
121535231,4008,0,-0.38532344,1.1876271,-10.21841,0.015646838,-0.006478893,-0.06969448,67.00831,156.9064,0.0047884034,1442850,-1744,117,-433,11555
121639223,4000,0,0.96232575,-1.0251757,-11.502494,0.018335365,-0.009635922,-0.06542939,67.03047,156.9064,0.0047884034,1442850,482,252,1050,11563
121739232,4006,0,0.59186304,-1.6905321,-10.278856,-0.009806016,-0.0084244115,-0.007972428,67.01662,156.9064,0.0047884034,1442850,1850,134,-1717,11558
121843223,4000,0,0.25421968,0.5582748,-9.136492,0.0039898814,0.0012490383,-0.016344652,67.00831,156.9064,0.0047884034,1442850,294,27,-3414,11555
121943223,4000,0,-1.3567636,1.4710525,-9.572854,0.012784328,0.019178571,-0.06899821,67.03878,156.9064,0.0047884034,1442850,-1869,-849,-1567,11566
122043223,4000,0,0.07563737,1.2055503,-10.718336,0.006667646,0.0057109166,-0.0407466,67.0554,156.9064,0.0047884034,1442850,-194,-301,-357,11572
122147223,3960,0,0.54828846,-0.2707227,-10.020033,-0.00377327,0.0026404515,-0.043154173,67.01939,156.9064,0.0047884034,1442850,798,976,-2387,11559
122247269,4046,0,0.07460842,-1.3808064,-10.858365,-0.024440885,-0.0064977566,-0.01585049,67.01385,156.9064,0.0047884034,1442850,737,598,-1364,11557
122347223,3998,0,-1.38161,-1.6793481,-10.078147,0.010819959,-0.0060676555,-0.02699174,67.0277,156.9064,0.0047884034,1442850,-1904,-609,-2024,11562
122451223,4000,0,-0.38860798,0.40312195,-10.455113,-0.0042811967,0.014810928,-0.035746116,67.03324,156.9064,0.0047884034,1442850,-9,86,154,11564
122551223,4000,0,0.018039504,1.0910215,-9.66344,0.00030520442,0.013347218,-0.025186582,67.00554,156.9064,0.0047884034,1442850,366,101,-795,11554
122655223,4000,0,-0.50296956,-0.25592417,-9.61468,0.013367517,-0.011369572,-0.03518509,67.0277,156.9064,0.0047884034,1442850,-1656,494,-2933,11562
122759223,3950,0,0.48624822,-0.8622386,-10.669819,-0.027640061,-0.0028755588,-0.0441636,67.01385,156.9064,0.0047884034,1442850,1495,543,-1293,11557
122859223,3951,0,-1.2590873,-0.80580205,-10.493455,-0.018797789,0.0066884244,-0.017403057,67.05263,156.9064,0.0047884034,1442850,-864,-54,-1484,11571
122960822,3972,0,0.051736966,0.9222179,-9.444874,0.0216988,0.009315909,-0.030587338,67.03878,156.9064,0.0047884034,1442850,176,117,-3113,11566
123064864,4041,0,-1.0058175,1.493085,-9.330295,-0.02269784,0.008325887,-0.04501365,67.04986,156.9064,0.0047884034,1442850,-483,270,-4160,11570
123168823,4000,0,1.2828292,-0.26976615,-10.5047455,0.0009714768,-0.017788535,-0.022873312,67.03324,156.9064,0.0047884034,1442850,1114,554,226,11564
123268823,4000,0,0.0741766,-1.7270492,-10.070367,-0.021802757,0.00022345223,-0.017072879,67.03878,156.9064,0.0047884034,1442850,1331,90,-1694,11566
123372830,4007,0,-1.3508453,-0.4152504,-10.583743,-0.017906735,0.009819286,-0.06783157,67.06371,156.9064,0.0047884034,1442850,-678,-827,-1711,11575
123472823,3998,0,-1.2205569,0.6924224,-10.396129,-0.008179439,0.009956787,-0.026311655,66.99723,156.9064,0.0047884034,1442850,-1171,-836,475,11551
123572823,4000,0,-0.05555456,1.3433762,-8.635435,-0.02492555,-0.005051501,-0.04844424,67.03047,156.9064,0.0047884034,1442850,768,-588,-4613,11563
123676851,4028,0,-0.020390397,0.07798302,-10.055069,0.022284467,-0.01597533,-0.060277555,67.04155,156.9064,0.0047884034,1442850,-948,835,-1048,11567
123776823,4000,0,-1.6479363,-1.1224978,-8.983736,-0.004653451,-0.011973733,-0.023399506,67.0277,156.9064,0.0047884034,1442850,-1553,665,-3975,11562
123876830,4007,0,0.18959904,-1.8371116,-9.822119,-0.036229696,-0.0025294253,-0.074820176,67.04432,156.9064,0.0047884034,1442850,1449,53,-4449,11568
123980850,4028,0,-1.3328762,-0.15759951,-8.612076,-0.010574848,0.011914572,-0.057065338,67.06094,156.9064,0.0047884034,1442850,-480,-776,-4028,11574
124080826,3997,0,-0.023936398,1.2118119,-10.096836,-0.012194659,0.0063026357,-0.005126113,67.06371,156.9064,0.0047884034,1442850,452,259,-540,11575
124184823,4000,0,-1.3906124,1.823807,-10.008502,-0.0042896965,-0.0068843,-0.021339709,67.00554,156.9064,0.0047884034,1442850,-1680,941,-1567,11554
124288822,3999,0,-0.36221462,-1.126107,-11.10671,0.020514855,-0.008657425,-0.022473408,67.06648,156.9064,0.0047884034,1442850,-1454,782,60,11576
124388823,3994,0,-0.43214548,-2.131088,-9.191711,-0.03259216,-0.0062373877,-0.07001462,67.03047,156.9064,0.0047884034,1442850,288,-146,-4951,11563
124492823,4000,0,-1.6130184,-0.012559935,-8.737204,-0.015179603,0.0060434397,-0.06632134,67.07202,156.9064,0.0047884034,1442850,-1115,-1074,-4217,11578
124592829,4006,0,-0.6079015,1.0689378,-9.086404,-0.011680926,0.0047630356,0.0056784074,67.06648,156.9064,0.0047884034,1442850,163,-427,-2881,11576
124692829,4006,0,0.5384953,2.0781443,-9.81883,-0.01597655,0.010684705,-0.03534675,67.06371,156.9064,0.0047884034,1442850,1316,529,-1512,11575
124796823,4000,0,-0.78227824,0.19626564,-10.241833,-0.012932547,-0.011776561,-0.050951775,67.07479,156.9064,0.0047884034,1442850,-412,650,-2490,11579
124896823,4000,0,1.596256,-1.3513469,-9.912463,-0.0050139027,-0.0124843065,-0.03602193,67.06648,156.9064,0.0047884034,1442850,1904,852,-3146,11576
124996823,4000,0,-1.363243,-2.7112448,-10.906771,-0.003488548,-0.005244259,-0.023970684,67.0,156.9064,0.0047884034,1442850,-1476,-295,-1809,11552
125100823,3978,0,-1.9121362,-0.74708647,-9.747413,-0.012085673,0.006520102,-0.016816793,67.04986,156.9064,0.0047884034,1442850,-1247,-499,-2372,11570
125200823,3997,0,-0.30571365,0.6762373,-9.869312,-0.014540045,0.0018057914,-0.035248816,67.07756,156.9064,0.0047884034,1442850,454,-467,-258,11580
125304830,4007,0,-0.4773592,1.3800191,-9.225311,-0.026390407,-0.013416528,-0.012928788,67.07756,156.9064,0.0047884034,1442850,-112,726,-2222,11580
125408823,4000,0,-1.1024159,-1.23175,-9.378196,0.00097607914,-0.016072158,-0.017744318,67.05263,156.9064,0.0047884034,1442850,-1296,535,-3800,11571
125508823,4000,0,0.20325126,-1.7715957,-10.911191,-0.03255089,-0.010218341,-0.05810186,67.058174,156.9064,0.0047884034,1442850,993,403,-617,11573
125612823,4000,0,-1.4671277,-0.21907108,-9.597858,-0.021098757,0.013012821,-0.075520694,67.06371,156.9064,0.0047884034,1442850,-511,-1108,-3649,11575
125712823,4000,0,-0.6630138,1.1761876,-10.339916,-0.006351277,0.01835829,-0.048586864,67.04709,156.9064,0.0047884034,1442850,-1495,-835,-1389,11569
125812823,3993,0,0.54716325,1.2611245,-8.937474,0.009180452,0.006791717,-0.026996424,67.08864,156.9064,0.0047884034,1442850,473,561,-3944,11584
125916823,4000,0,-0.25773433,-0.5432149,-10.008737,-0.011504793,-0.0014267215,-0.04003257,67.06094,156.9064,0.0047884034,1442850,-874,-96,-1545,11574
126018423,3994,0,-0.05594626,-1.4576292,-10.640502,0.0066582244,-0.00037266826,-0.06823364,67.08587,156.9064,0.0047884034,1442850,-190,993,-2530,11583
126122423,4000,0,-0.57117623,-0.6762,-8.892443,-0.01723973,0.005809918,-0.0024769315,67.06648,156.9064,0.0047884034,1442850,840,11,-4590,11576
126222429,3982,0,-1.8174225,0.29332796,-9.021217,0.011707181,-0.00081751903,-0.07428365,67.08033,156.9064,0.0047884034,1442850,-1985,-305,-3955,11581
126326423,4000,0,0.8054008,1.7480514,-9.801496,-0.00854766,0.0047317604,-0.06596916,67.10803,156.9064,0.0047884034,1442850,908,382,-3329,11591
126426423,3972,0,1.0149883,0.7497351,-11.235989,-0.020375578,-0.007902531,-0.03050416,67.0831,156.9064,0.0047884034,1442850,1605,-226,1623,11582
126526448,4025,0,-0.1355803,0.30388853,-10.671447,-0.0029130708,-0.003159136,-0.033518378,67.0554,156.9064,0.0047884034,1442850,-82,727,-1561,11572
126630423,4000,0,-1.1080815,-1.5006019,-8.486923,0.017614178,-0.0016851259,-0.04011923,67.07202,156.9064,0.0047884034,1442850,-1600,-507,-4944,11578
126730423,4000,0,-0.09302281,-0.9516072,-9.266411,0.014550081,0.013026342,-0.014933113,67.08033,156.9064,0.0047884034,1442850,483,-891,-2012,11581
126834447,4024,0,0.21031179,1.1232694,-10.741507,-0.02814791,0.006203876,-0.055786937,67.06925,156.9064,0.0047884034,1442850,1867,-476,-1415,11577
126938423,3952,0,0.21172309,0.5018392,-11.245539,0.033519015,-0.0069244006,-0.01377791,67.091415,156.9064,0.0047884034,1442850,-435,6,1135,11585
127038431,4008,0,0.9003048,-0.76392823,-10.670072,-0.0017485518,0.0016491783,-0.022420075,67.06371,156.9064,0.0047884034,1442850,1430,1020,-1611,11575
127142485,4062,0,-1.1133273,-1.8567293,-10.413735,-0.000867901,-0.007443684,-0.01688582,67.11911,156.9064,0.0047884034,1442850,-74,406,-1112,11595
127242423,4000,0,-1.3659391,-0.7765001,-8.410345,0.014891845,0.0062583857,-0.02039266,67.096954,156.9064,0.0047884034,1442850,-1211,-800,-3920,11587
127342423,3953,0,-0.5323803,0.5749842,-9.528168,0.01935578,0.018516472,-0.07611023,67.06094,156.9064,0.0047884034,1442850,-841,-2,-2932,11574
127446423,4000,0,-0.82566476,1.5437143,-8.621334,-0.025078738,-0.0068327575,-0.002684543,67.11357,156.9064,0.0047884034,1442850,183,256,-4260,11593
127546470,4039,0,-0.10120942,1.2966185,-9.148437,-0.012847129,-0.009338073,-0.07154391,67.07756,156.9064,0.0047884034,1442850,373,1357,-4936,11580
127646448,4018,0,0.053492308,0.13947998,-9.921589,-0.020982834,-0.011851007,-0.0059760334,67.099724,156.9064,0.0047884034,1442850,39,1163,-2217,11588
127750423,4000,0,0.025382936,-1.2869447,-11.030745,0.017862493,-0.011383375,-0.05680166,67.091415,156.9064,0.0047884034,1442850,422,580,-439,11585
127850423,4000,0,-1.3093921,-1.0318205,-10.043212,0.010454409,0.0035351957,-0.0300845,67.099724,156.9064,0.0047884034,1442850,-1227,-800,-1557,11588
127954447,3996,0,-0.09908036,1.330209,-9.553603,-0.02603073,0.0068590636,0.012674533,67.091415,156.9064,0.0047884034,1442850,1004,-236,-403,11585
