timestamp,integral_dt,error_count,x,y,z,x_integral,y_integral,z_integral,temperature,range_m_s2,scaling,device_id,x_raw,y_raw,z_raw,temperature_raw
35298469,5176,0,-0.47233257,0.3687801,-9.903428,0.004654552,-0.0013831749,-0.052853044,44.75,78.0,0.0023928226,1114658,524,1141,-3245,-2
35399269,4200,0,0.087546565,0.21406575,-9.885506,0.0018701268,-0.0015878655,-0.040617824,44.75,78.0,0.0023928226,1114658,1037,584,-3669,-2
35497969,4200,0,0.24207179,-0.5250718,-10.114196,-0.0054154843,0.0016631202,-0.036562283,44.75,78.0,0.0023928226,1114658,216,-246,-3351,-2
35599836,5268,0,-0.06560977,-0.58445936,-10.304163,0.0026210253,-0.005484778,-0.053514153,44.875,78.0,0.0023928226,1114658,1016,371,-3268,-2
35704819,4169,0,-0.46453214,-1.551335,-10.274313,-0.00096811116,-0.011160773,-0.04044129,44.875,78.0,0.0023928226,1114658,697,1190,-3777,9312
35804593,5234,0,-0.2884778,-0.32663283,-9.914362,-0.013128533,-0.012099428,-0.050064266,44.625,78.0,0.0023928226,1114658,1026,110,-4499,8192
35905413,4245,0,-0.5328327,-0.7723623,-9.789672,-0.0073876684,-0.00720721,-0.037635714,44.875,78.0,0.0023928226,1114658,175,-31,-2996,9322
36010371,4183,0,0.139898,-0.06204642,-9.666615,0.0006078831,0.01087255,-0.038192194,44.75,78.0,0.0023928226,1114658,-707,678,-4148,8155
36106996,4227,0,0.7326211,0.1321173,-9.900851,0.0048022633,0.00561867,-0.04817196,44.75,78.0,0.0023928226,1114658,-14,459,-2965,9335
36208819,4200,0,0.30778497,0.8475077,-10.216005,-0.0048287744,-0.003059051,-0.03809574,44.75,78.0,0.0023928226,1114658,759,256,-1296,9333
36310669,5250,0,-0.4701349,-0.06794451,-9.892,0.0016034693,-0.0035047056,-0.05027424,44.875,78.0,0.0023928226,1114658,402,-267,-2272,8193
36415750,4282,0,0.86878914,0.8675197,-9.805757,0.0061254473,0.0018020845,-0.04356879,44.75,78.0,0.0023928226,1114658,980,584,-3064,9339
36518569,4190,0,-0.65526503,-0.6497544,-9.828102,-0.009321051,-0.005177848,-0.039144084,44.875,78.0,0.0023928226,1114658,258,197,-3087,9344
36621475,4089,0,0.61399883,0.9784833,-10.095397,-0.004179455,0.011739424,-0.04669174,44.75,78.0,0.0023928226,1114658,413,120,-2172,9352
36721290,5289,0,-0.86867183,0.4795013,-9.81653,-0.015727494,-0.013606182,-0.048824307,44.875,78.0,0.0023928226,1114658,1723,379,-2762,8167
36822069,4235,0,1.2305537,0.37900493,-9.856311,0.0052470863,0.010245002,-0.046566185,44.875,78.0,0.0023928226,1114658,-510,-180,-2866,8161
36927033,4157,0,-0.21909037,-0.49450725,-10.105509,0.01626676,0.00605462,-0.035861477,44.75,78.0,0.0023928226,1114658,-645,2017,-2343,-2
37024669,4129,0,0.24236205,0.4708667,-9.568721,-0.01328548,-0.0056092283,-0.043045394,44.875,78.0,0.0023928226,1114658,1360,-659,-4645,8193
37125469,4101,0,1.7388457,1.3815633,-9.652886,0.00038373494,0.004403252,-0.03862763,44.75,78.0,0.0023928226,1114658,704,-88,-2896,9373
37227326,5186,0,1.5093848,1.0278714,-9.672205,0.013731609,0.014223314,-0.051710777,44.875,78.0,0.0023928226,1114658,-330,-117,-4091,-2
37332331,4173,0,1.6234,1.5909643,-9.833477,-0.006818399,-0.0016257446,-0.043073386,44.75,78.0,0.0023928226,1114658,2274,-826,-2408,-2
37433151,4233,0,1.813305,1.4242673,-9.692571,-0.005294703,-0.0019910217,-0.037818987,44.75,78.0,0.0023928226,1114658,2382,-1087,-3785,8192
37532868,4199,0,1.6206249,1.4923583,-9.770695,-0.00743323,-0.0015862824,-0.04038573,44.875,78.0,0.0023928226,1114658,2192,-595,-1944,8192
37633669,4161,0,-0.20441529,0.5682555,-9.7233715,-0.015866298,-0.0130417235,-0.04020726,44.75,78.0,0.0023928226,1114658,1801,-1050,-4654,8193
37737619,4161,0,-0.0820326,-0.08888433,-9.776283,0.023082854,0.007951703,-0.043612704,44.875,78.0,0.0023928226,1114658,-1616,1976,-4544,9392
37836342,5273,0,1.234128,0.8506313,-10.077151,0.008672763,0.007511964,-0.050246686,44.875,78.0,0.0023928226,1114658,359,334,-1566,8192
37941368,4210,0,-0.7551875,-0.36551982,-9.518462,0.012551468,0.009650214,-0.035411734,44.875,78.0,0.0023928226,1114658,-1189,1259,-6135,9394
38042148,4230,0,1.2143421,1.4240605,-9.665737,0.008297213,-0.0098825,-0.03336524,44.875,78.0,0.0023928226,1114658,2060,-152,-4138,8192
38143978,5246,0,-0.45631093,-0.72423446,-9.524658,-0.0025098317,-0.0038414523,-0.05310731,44.875,78.0,0.0023928226,1114658,-458,1585,-4219,8192
38246956,5337,0,1.5297083,2.1198351,-9.800164,-0.007521143,-0.0022265774,-0.053290136,44.875,78.0,0.0023928226,1114658,2796,-1276,-2289,9409
38347779,4310,0,-1.8419544,-2.3322625,-9.884004,-0.0008318004,-0.01502245,-0.04488679,44.875,78.0,0.0023928226,1114658,-2615,1841,-2695,9408
38445366,5298,0,-0.008945308,-0.56530595,-9.563088,0.03374492,0.03793264,-0.04085059,44.875,78.0,0.0023928226,1114658,-1995,3009,-3230,9411
38548218,4199,0,-0.7630784,-0.09224122,-9.712046,-0.028642302,-0.02292782,-0.043858536,44.875,78.0,0.0023928226,1114658,3504,-1266,-3944,9416
38650155,5336,0,0.86875075,1.2622479,-9.559653,0.036708977,0.020354034,-0.058705464,44.875,78.0,0.0023928226,1114658,-699,939,-5113,9416
38752985,4217,0,-1.2148216,-1.8226386,-10.025799,0.0067582303,0.0058407076,-0.035528284,44.875,78.0,0.0023928226,1114658,-1671,1996,-2646,-3
38853815,4213,0,-0.7149457,0.37369204,-9.636802,-0.015244748,-0.025023758,-0.043182675,44.875,78.0,0.0023928226,1114658,2496,497,-3082,-3
38955669,4251,0,0.57102525,2.0913887,-9.75812,-0.01993138,-0.004231361,-0.03776169,44.75,78.0,0.0023928226,1114658,1877,-997,-2056,8194
39056446,4228,0,1.6732804,0.62112665,-9.933754,0.0085087055,0.029651053,-0.034413677,44.875,78.0,0.0023928226,1114658,-1581,-1130,-1893,-3
39159318,4159,0,1.2576379,0.72662055,-10.157952,0.0062439614,0.021252401,-0.051333897,44.875,78.0,0.0023928226,1114658,-1590,-238,-1758,-3
39256969,4160,0,-0.43237886,-1.3528625,-9.902906,0.01885641,-0.0010419042,-0.04457466,45.0,78.0,0.0023928226,1114658,-1959,2261,-4408,9448
39359869,4129,0,0.98175466,0.5005737,-9.818749,0.0151303755,0.010129951,-0.044564273,45.0,78.0,0.0023928226,1114658,65,83,-2967,9450
39460669,4145,0,1.5004032,0.33502984,-9.978894,0.0050602127,0.015250934,-0.03716368,44.875,78.0,0.0023928226,1114658,421,-1832,-3772,8193
39561469,4130,0,0.49504423,1.6910094,-9.791113,-0.029827699,0.014502259,-0.026675638,44.875,78.0,0.0023928226,1114658,1573,-1555,-3323,9447
39663319,4156,0,-2.0071094,-0.1263604,-9.682283,0.009237221,-0.019243445,-0.052267645,45.0,78.0,0.0023928226,1114658,959,3313,-3194,8192
39768324,4166,0,1.0783567,0.76086277,-9.823296,-0.025906606,0.0066460595,-0.028087482,44.875,78.0,0.0023928226,1114658,999,-2725,-2442,9447
39868068,5192,0,-1.6550866,0.3589075,-9.393322,0.0031465443,-0.012714765,-0.050813343,44.875,78.0,0.0023928226,1114658,1840,2695,-4419,8192
39968868,4199,0,1.9731523,0.059394874,-10.209942,0.008579785,0.016232423,-0.05078589,44.875,78.0,0.0023928226,1114658,-96,-2023,-3751,9467
40067569,4200,0,0.91365635,1.0314949,-10.411071,-0.029453259,0.0067851306,-0.0331396,44.875,78.0,0.0023928226,1114658,1478,-2728,-2005,9480
40175742,5273,0,2.3487036,0.039078612,-10.023673,-0.008620957,0.020363871,-0.053122908,44.875,78.0,0.0023928226,1114658,-1485,-3520,-3424,9469
40276567,4249,0,-2.0222173,0.50307196,-9.37722,-0.0049719275,-0.009439549,-0.034318242,44.875,78.0,0.0023928226,1114658,1226,3523,-4744,8208
40377367,4209,0,1.2444476,0.04978447,-10.060899,0.014811146,-0.0023439776,-0.04462279,44.75,78.0,0.0023928226,1114658,82,-74,-2752,9482
40483369,4200,0,0.4767089,-0.08866261,-9.794552,0.02750473,0.0063507496,-0.03582589,44.875,78.0,0.0023928226,1114658,-553,1525,-3146,-2
40580004,4235,0,1.7717965,0.716798,-9.926648,-0.033284325,0.0031968744,-0.04037802,45.0,78.0,0.0023928226,1114658,-13,-4107,-2745,2049
40681843,5267,0,0.027251832,-0.23869519,-10.2966175,0.055899385,0.0043221214,-0.068528615,45.0,78.0,0.0023928226,1114658,-1002,3028,-4231,0
40784719,4179,0,-0.9746903,0.016943276,-8.895212,0.043272465,0.006320799,-0.052008696,45.0,78.0,0.0023928226,1114658,-129,4629,-6304,9502
40886585,5217,0,-0.06125381,0.13528244,-9.306152,0.04421272,0.014716948,-0.059343748,44.875,78.0,0.0023928226,1114658,-1116,2901,-5351,9506
40989544,5325,0,0.50705814,0.23682915,-11.030674,0.078028485,0.017327962,-0.0618488,44.875,78.0,0.0023928226,1114658,-261,4213,-998,-3
41090269,4085,0,3.304985,0.90682787,-11.360622,0.020567967,0.014649514,-0.047655214,44.875,78.0,0.0023928226,1114658,237,-6058,-646,9505
41188978,4210,0,-0.6710521,0.3065581,-8.50422,-0.05191493,-0.008440144,-0.025619006,44.875,78.0,0.0023928226,1114658,795,-1173,-4361,2049
41290896,5326,0,2.1588993,0.652033,-10.304719,-0.022694374,-0.00031732797,-0.067654796,44.875,78.0,0.0023928226,1114658,1100,-6844,-3174,8222
41395827,4158,0,2.3520677,0.36238173,-10.63887,0.036889553,0.021312112,-0.07893516,45.0,78.0,0.0023928226,1114658,-792,-4058,-4851,9521
41496632,4163,0,-1.5448253,-0.17167787,-9.067166,0.06929749,0.016506504,-0.0497794,44.875,78.0,0.0023928226,1114658,-2814,7444,-6322,9519
41598469,4194,0,-1.8177568,0.13397609,-8.836572,0.01787061,0.003910355,-0.05142897,45.0,78.0,0.0023928226,1114658,139,5120,-7637,9519
41700318,5249,0,1.5938863,0.8703722,-11.702548,-0.06471572,-0.004817593,-0.054985095,44.875,78.0,0.0023928226,1114658,3417,-6729,2237,9534
41801158,4240,0,2.1939876,0.45152012,-11.093308,0.042991437,0.016963948,-0.058740947,44.875,78.0,0.0023928226,1114658,860,-2309,-712,2049
41901922,4204,0,1.8180461,1.2460399,-11.258007,-0.004659449,0.011290643,-0.04305662,44.875,78.0,0.0023928226,1114658,2049,-4898,-1008,0
42002718,4199,0,-1.0435206,0.51669604,-9.841065,0.051751804,0.0006057163,-0.026123649,45.0,78.0,0.0023928226,1114658,1221,249,-3004,-3
42105620,4202,0,1.105687,-0.7729377,-9.673747,-0.024067221,0.00067393587,-0.044165406,45.0,78.0,0.0023928226,1114658,-2355,-4067,-2378,-3
42209568,4188,0,-1.8555547,-0.024320688,-9.886647,0.012097542,-0.014629543,-0.012211939,45.0,78.0,0.0023928226,1114658,201,6090,-1320,8192
42311421,4183,0,1.0236164,0.29729232,-9.331362,0.041176293,0.015892327,-0.075048625,44.875,78.0,0.0023928226,1114658,85,275,-6262,9553
42412219,4200,0,1.9344492,-0.11169507,-9.72852,0.012228505,-0.005601956,-0.021717746,45.0,78.0,0.0023928226,1114658,-417,-3470,-1065,0
42514118,5299,0,-1.696792,0.42040178,-10.599782,-0.06176909,0.0059246835,-0.05645144,44.875,78.0,0.0023928226,1114658,1109,-1663,-744,9555
42614937,4269,0,-0.88807964,0.038641017,-7.989921,-0.0059274803,-0.009375195,-0.021168433,45.0,78.0,0.0023928226,1114658,335,3220,-8222,8228
42718875,5306,0,0.14016365,0.48704636,-9.469164,0.0053645647,-0.007837007,-0.020555101,45.125,78.0,0.0023928226,1114658,3023,-4066,-950,8231
42819690,4272,0,-0.19845144,-0.29574367,-9.183023,0.04420469,0.01519784,-0.074213095,45.0,78.0,0.0023928226,1114658,-1489,5038,-8151,8224
42920470,4249,0,-0.19394602,-0.11222379,-8.521446,-0.012712429,-0.015529533,-0.00843094,45.0,78.0,0.0023928226,1114658,63,-212,-4305,8226
43022302,4186,0,1.2259302,0.6467583,-10.195523,-0.013923691,-0.0048823114,-0.019735057,44.875,78.0,0.0023928226,1114658,1579,-3947,29,-3
43129392,4221,0,0.802302,-0.18124814,-9.585756,-0.008838798,0.0036754746,-0.02413056,45.0,78.0,0.0023928226,1114658,1027,-3021,-4895,9577
43233320,4162,0,1.0329462,0.39595687,-8.9777565,-0.003873066,0.0049031195,-0.042980976,45.125,78.0,0.0023928226,1114658,-1159,-4136,-4058,8232
43334149,5280,0,-1.557067,0.57661736,-8.745748,0.019724332,-0.00451546,-0.03416716,45.0,78.0,0.0023928226,1114658,642,6711,-6532,9591
43435969,5251,0,-0.99708515,-0.6702251,-8.967675,-0.041879676,-0.018835388,-0.030893771,45.0,78.0,0.0023928226,1114658,734,1136,-5950,9595
43536769,4170,0,1.3013607,-0.65749174,-9.487909,0.0061258418,-0.0024632383,-0.01155849,44.875,78.0,0.0023928226,1114658,317,-4351,-1945,9585
43639770,4302,0,-0.12727271,0.25335607,-10.369716,0.0007011171,-0.0024176082,-0.0040112296,45.0,78.0,0.0023928226,1114658,19,-168,1355,9582
43743699,4249,0,-1.0689083,0.9583288,-8.421716,0.002375525,-0.008120386,-0.045393027,44.875,78.0,0.0023928226,1114658,875,4046,-8527,8234
43845469,5201,0,0.778057,0.1406112,-10.493942,0.011590697,0.008739759,-0.09172351,45.0,78.0,0.0023928226,1114658,997,-1141,-3776,9603
43946269,4122,0,0.47563416,-0.44649795,-10.384532,0.009810642,0.00039693416,-0.0012943088,45.0,78.0,0.0023928226,1114658,667,-852,1308,9627
44044969,4159,0,0.58280313,0.47188511,-8.852263,0.021156365,0.0039170734,-0.074272946,45.0,78.0,0.0023928226,1114658,637,1041,-10007,-3
44146845,5265,0,-1.7706423,1.2432601,-9.870888,-0.009466492,-0.0004719575,-0.033655163,45.0,78.0,0.0023928226,1114658,2406,4770,-2813,8192
44251825,4136,0,-0.86739546,-0.50278944,-10.5950985,-0.006517965,0.0018723346,-0.041147284,45.0,78.0,0.0023928226,1114658,818,181,-3758,0
44351569,5250,0,0.8654974,-0.8527394,-9.352855,-0.023242556,0.008636993,-0.065415174,45.0,78.0,0.0023928226,1114658,-1070,-2896,-6598,8192
44454468,4192,0,0.27121717,-0.18376788,-10.244075,0.029983535,0.012432655,-0.026738666,45.0,78.0,0.0023928226,1114658,-514,1155,-770,8192
44556318,5250,0,0.43621492,1.0621027,-9.269181,0.027551956,0.0054460326,-0.040774275,45.0,78.0,0.0023928226,1114658,-1000,2554,-2578,-3
44657163,4229,0,-0.64197934,1.0477412,-10.327413,-0.024814172,-0.010655297,-0.017977152,45.0,78.0,0.0023928226,1114658,1104,-10,-1503,8192
44757918,4199,0,-0.6514856,0.9943851,-10.515133,-0.0059532025,-0.010701313,-0.04905725,45.125,78.0,0.0023928226,1114658,3237,1896,-4055,8192
44859820,4252,0,-0.2855247,-0.47191375,-9.6489525,-0.038560018,-0.00039642103,-0.0067658233,45.0,78.0,0.0023928226,1114658,-256,-549,-4356,-3
44960618,4250,0,-1.9087211,-0.75332814,-9.740732,0.011760464,0.0075117806,-0.058422714,45.125,78.0,0.0023928226,1114658,-1002,6374,-4931,9645
45062419,5232,0,-1.4247869,0.28087747,-9.451935,-0.01924605,0.014961743,-0.07387771,45.125,78.0,0.0023928226,1114658,-1558,3086,-6631,8192
45163218,4199,0,-1.1296376,0.82054496,-8.72114,-0.026484586,-0.004172033,-0.019407779,45.125,78.0,0.0023928226,1114658,709,3528,-5108,-3
45264018,4199,0,1.9657875,0.7303339,-10.038168,0.0012647398,-0.019510606,-0.0422261,45.0,78.0,0.0023928226,1114658,1328,-4340,-1719,-3
45370142,5323,0,0.30515754,-1.4245352,-10.509123,-0.034720447,-0.01273314,-0.009526086,45.125,78.0,0.0023928226,1114658,1031,-1634,-679,9661
45472969,4200,0,0.100221016,-0.051845025,-9.663769,-0.031424947,0.009523224,-0.014237304,45.125,78.0,0.0023928226,1114658,-888,-2677,-2833,2048
45572719,4177,0,1.550953,0.6118738,-9.648746,0.024117962,0.001990847,-0.029524859,45.0,78.0,0.0023928226,1114658,-615,-3034,-4562,0
45677719,4200,0,0.34838623,2.697139,-10.53659,0.03680672,-0.0007697557,-0.049339775,45.0,78.0,0.0023928226,1114658,1456,3708,641,2048
45777469,4115,0,-0.52604216,0.6542326,-10.359585,-0.031570595,-0.0037055302,-0.040902685,45.0,78.0,0.0023928226,1114658,1805,53,-2284,9664
45878269,4123,0,0.40498844,0.059322886,-10.918608,0.023362875,0.0004091168,-0.0643955,45.0,78.0,0.0023928226,1114658,687,-1330,-6900,9668
45979069,4146,0,0.86101645,-1.3471503,-9.7113,0.013966411,0.012368842,-0.05329925,45.125,78.0,0.0023928226,1114658,-994,-1091,-6217,9675
46080919,5203,0,0.16154158,-1.4562224,-10.413737,0.024375645,0.018625874,-0.065674126,45.125,78.0,0.0023928226,1114658,-1084,1525,-3492,9680
46181729,4190,0,0.10878058,0.7919062,-8.706156,0.026235135,0.0077563496,-0.026143502,45.125,78.0,0.0023928226,1114658,-682,-64,-5999,8193
46285669,5200,0,-1.2467512,0.91853505,-8.757029,-0.04857812,-0.0072518103,-0.015225788,45.125,78.0,0.0023928226,1114658,180,-1376,1142,8193
46386468,4199,0,0.69050276,1.0714868,-11.369767,-0.017250445,0.0007392498,-0.05971534,45.125,78.0,0.0023928226,1114658,1678,-2924,2533,8265
46487268,4199,0,0.9223797,-0.7435586,-9.90965,0.009467092,0.0019827096,-0.082997195,45.0,78.0,0.0023928226,1114658,-204,-2765,-4501,9696
46588068,4200,0,0.07184921,-0.17007455,-9.374595,0.032448873,-0.00032463425,-0.036983214,45.25,78.0,0.0023928226,1114658,2140,3419,-4637,8192
46687819,4150,0,-1.7001213,-0.5125343,-8.065629,-0.011801321,0.0026174574,-0.02259062,45.25,78.0,0.0023928226,1114658,-1737,5582,-6546,9699
46792818,6299,0,-1.4628581,1.7983302,-9.14747,0.008904072,0.0073962156,-0.08270073,45.125,78.0,0.0023928226,1114658,1062,5143,-2591,9698
46894680,5261,0,0.7063328,0.29983905,-9.381349,0.009436109,0.009448102,-0.08419851,45.125,78.0,0.0023928226,1114658,638,494,-5111,8193
46995493,4223,0,-1.036905,-0.6019199,-8.279759,-0.020802535,-0.0015124651,-0.031369757,45.25,78.0,0.0023928226,1114658,758,2500,-6167,2048
47096269,4184,0,0.31536424,0.16090602,-10.753102,0.007843047,-0.01342535,0.005092845,45.125,78.0,0.0023928226,1114658,1596,-1740,5105,2049
47197069,4169,0,0.1628198,0.18079488,-9.305594,0.014588352,0.008165212,-0.058183607,45.125,78.0,0.0023928226,1114658,-933,1085,-938,-3
47296818,4167,0,0.4507818,1.1083155,-11.867536,0.017906163,-0.0022739018,-0.06401439,45.125,78.0,0.0023928226,1114658,2075,-1640,4896,-3
47401848,4229,0,0.32723576,0.46089527,-10.773201,-0.0012715233,0.00814202,-0.12726037,45.125,78.0,0.0023928226,1114658,2142,-702,-9214,0
47503716,5297,0,0.6812347,0.08479391,-9.667477,0.026304217,0.0127732465,-0.04795327,45.125,78.0,0.0023928226,1114658,-929,3574,-6453,8269
47604516,4248,0,0.5747541,-0.94076896,-11.472196,-0.0010769995,-0.012220121,-0.029092789,45.125,78.0,0.0023928226,1114658,-236,-3339,2143,9746
47705405,4337,0,-0.036073223,-0.4068049,-11.129073,-0.010328202,0.01400267,-0.04846865,45.25,78.0,0.0023928226,1114658,-2319,-2335,-2774,9728
47806166,4298,0,0.1547384,0.6394631,-10.581854,-0.009010213,-0.01331677,-0.03286904,45.125,78.0,0.0023928226,1114658,-267,-956,-1244,9740
47907919,5250,0,0.7994481,1.8593521,-10.4670105,0.004131022,-0.0148056075,-0.06743914,45.25,78.0,0.0023928226,1114658,3908,-1818,-3470,9736
48008718,4137,0,-0.27023968,0.42038634,-10.398813,0.013266153,-0.00254456,-0.032096308,45.125,78.0,0.0023928226,1114658,2057,4181,-3444,9746
48111692,4258,0,0.0628257,-1.1797848,-9.903573,-0.029572753,-0.011000934,-0.008017174,45.25,78.0,0.0023928226,1114658,-520,-58,-3981,8276
48213469,4153,0,0.53190446,-0.23234427,-10.286607,-0.014294229,0.005537623,-0.025057003,45.25,78.0,0.0023928226,1114658,-332,-4794,-1894,9751
48314283,4123,0,-0.06757934,1.1030177,-9.799071,0.014376051,0.00048385348,-0.038746424,45.0,78.0,0.0023928226,1114658,-84,3367,-6539,8278
48415069,4122,0,0.09850486,1.7023119,-9.959252,-0.038878314,0.0065950267,-0.021515662,45.125,78.0,0.0023928226,1114658,-619,-4009,-1294,9758
48519027,4158,0,0.5228003,0.6632508,-11.443179,0.007924865,-0.0017996763,-0.090680666,45.125,78.0,0.0023928226,1114658,1662,-1296,-1084,9768
48619819,4150,0,0.042955633,-0.44969738,-10.455631,0.010851751,-0.0077285604,-0.06091026,45.25,78.0,0.0023928226,1114658,2109,3492,-4664,9764
48716469,4243,0,0.35282227,-0.790342,-9.60925,-0.023006193,-0.012535238,-0.08674857,45.25,78.0,0.0023928226,1114658,1687,-452,-10399,8287
48822469,4195,0,-1.1474811,-0.90206844,-9.412715,-0.014431943,0.001440081,-0.03601775,45.25,78.0,0.0023928226,1114658,-1487,2421,-8299,-3
48921169,4200,0,-0.6569943,0.18872273,-9.786573,0.025588593,0.012497274,-0.08711171,45.25,78.0,0.0023928226,1114658,-2148,2270,-7425,8193
49024068,4199,0,0.013965753,2.2811415,-8.862436,0.0049017975,-0.0011811041,0.0015213673,45.25,78.0,0.0023928226,1114658,998,824,-1465,-3
49123819,4150,0,-0.7669711,1.5538176,-8.276233,0.0015558869,-0.008412732,-0.033219546,45.25,78.0,0.0023928226,1114658,-249,3867,-9606,8282
49228820,4201,0,-0.69271064,-0.4283044,-10.553997,0.03119465,0.012686036,-0.049790442,45.25,78.0,0.0023928226,1114658,620,4855,-276,9786
49330696,5277,0,-1.6092917,-0.88683015,-8.752242,-0.014584231,0.0032851626,-0.059065867,45.25,78.0,0.0023928226,1114658,41,4841,-5135,-3
49435740,4271,0,-0.35871646,2.12906,-10.267508,0.008999722,0.012039494,-0.083332226,45.25,78.0,0.0023928226,1114658,928,1739,1075,9801
49536548,4279,0,-0.3871759,1.845585,-9.651687,0.030233249,0.007822039,-0.079410605,45.25,78.0,0.0023928226,1114658,533,4180,-5447,9800
49637385,4316,0,1.0919054,0.19296552,-9.309767,0.02763827,0.0005762756,-0.078594565,45.125,78.0,0.0023928226,1114658,197,-701,-7099,9799
49739170,4203,0,-0.08855267,-1.3100284,-9.94577,0.00509105,0.0017918847,-0.040100094,45.25,78.0,0.0023928226,1114658,-529,1047,-3831,8193
49839919,4172,0,0.4163507,-1.1033174,-9.661175,0.023597144,0.0035496447,-0.014067173,45.25,78.0,0.0023928226,1114658,-840,-1421,-430,9818
49943869,4121,0,1.1857394,1.5434681,-9.348383,0.0062402124,-0.0059087668,-0.024400003,45.125,78.0,0.0023928226,1114658,1403,-2493,1108,9811
50042569,4200,0,1.3042663,1.3688669,-8.802157,-0.02343588,-0.0022451414,-0.0029682706,45.125,78.0,0.0023928226,1114658,1793,-4490,-608,8192
50144477,5308,0,-0.65939045,0.304938,-7.9149656,0.014741808,-0.018258011,-0.031230364,45.25,78.0,0.0023928226,1114658,2174,3587,-6451,8280
50245270,4252,0,0.12572418,-1.0801461,-7.9577913,-0.03661848,-0.009210633,-0.05057017,45.125,78.0,0.0023928226,1114658,737,-2417,-9250,8282
50348149,4230,0,-0.8815947,-0.5603569,-8.502551,-0.029712265,-0.0019230788,-0.007207334,45.125,78.0,0.0023928226,1114658,558,112,-5413,-3
50447869,4115,0,0.47980207,0.26636407,-10.21614,0.03251488,0.005757157,-0.02493062,45.25,78.0,0.0023928226,1114658,18,-476,1477,9823
50548669,4153,0,0.37690628,1.61881,-10.058698,-0.0147328535,0.0071189404,-0.058687903,45.125,78.0,0.0023928226,1114658,676,-3159,-1822,8193
50650520,5180,0,0.06121328,2.246928,-9.571143,-0.0076027885,0.01238406,-0.049350202,45.25,78.0,0.0023928226,1114658,1445,-335,881,8192
50755519,4200,0,-1.0753043,-1.0399432,-9.56207,-0.014026937,-0.029546004,-0.01585878,45.125,78.0,0.0023928226,1114658,1919,2261,-5718,8193
50856318,4155,0,0.31184036,-1.6245786,-9.740691,-0.007250956,-0.0130939465,-0.025376063,45.125,78.0,0.0023928226,1114658,-581,341,-2844,8192
50958171,5252,0,-1.23341,0.13034375,-10.235846,-0.0034144786,0.018514477,-0.07708747,45.25,78.0,0.0023928226,1114658,-2331,1427,-5755,9861
51056868,4199,0,-0.37135142,0.19376172,-10.814146,-0.0174607,-0.0037617576,-0.029115394,45.25,78.0,0.0023928226,1114658,-1749,612,-645,-3
51157669,4200,0,-0.50459397,0.27526268,-9.261281,-0.041155983,-0.010197682,-0.04079585,45.125,78.0,0.0023928226,1114658,-702,-2693,-6327,-3
51259518,4199,0,-0.097640485,0.7142235,-10.129711,-0.02384109,-0.022848565,-0.009892184,45.25,78.0,0.0023928226,1114658,852,-2107,-2421,16949
51364540,4221,0,0.07587016,-1.2729405,-9.898641,-0.0007554035,-0.012890526,-0.027401846,45.25,78.0,0.0023928226,1114658,684,2619,-2577,9871
51468540,4233,0,-0.16451032,-1.6475703,-10.367448,0.017315805,-0.0038435017,-0.025975809,45.375,78.0,0.0023928226,1114658,1595,1616,582,9882
51569350,4237,0,-0.7371859,1.1612234,-11.494147,-0.014397678,0.015137752,-0.050912157,45.25,78.0,0.0023928226,1114658,-104,-2356,2466,9873
51670148,4275,0,0.8176315,2.5538886,-11.648043,-0.014079737,-0.001938241,-0.08302195,45.125,78.0,0.0023928226,1114658,597,-3433,3270,9870
51774069,4251,0,-0.6279375,0.75823987,-10.63079,0.0007977524,-0.015720468,-0.026593108,45.375,78.0,0.0023928226,1114658,-24,2165,4560,8305
51874845,4227,0,0.9940977,-0.2941602,-10.657229,0.02141673,-0.016537441,-0.04954685,45.25,78.0,0.0023928226,1114658,2791,-563,-4484,-3
51973519,4151,0,0.91677994,-1.093889,-11.961905,-0.01902808,-0.015624417,-0.037014626,45.375,78.0,0.0023928226,1114658,1560,-2899,1475,-3
52075368,4199,0,-0.330073,-0.8583613,-10.609465,0.009792367,-0.008723604,-0.052212365,45.25,78.0,0.0023928226,1114658,-1871,69,-1024,8192
52176169,4200,0,0.33513534,-0.11719705,-9.74763,0.011825755,0.0056787794,-0.080866925,45.25,78.0,0.0023928226,1114658,521,754,-8858,8193
52282236,4167,0,-0.69239676,1.1571089,-9.102418,-0.020888155,-0.00054822373,-0.054851666,45.25,78.0,0.0023928226,1114658,-140,2177,-8703,-3
52383018,4172,0,0.9283007,1.1268029,-10.561118,0.036121443,-0.019305045,-0.03960104,45.25,78.0,0.0023928226,1114658,3906,1393,-242,9892
52483833,4127,0,-0.031669762,-0.59014595,-10.087156,0.030296445,0.0030898056,-0.059051815,45.25,78.0,0.0023928226,1114658,-5,3825,-4018,8315
52585669,5188,0,0.96491927,-1.2065619,-8.912249,-0.017906273,0.00761029,-0.0507015,45.125,78.0,0.0023928226,1114658,-1472,-2586,-8822,8193
53403645,4227,0,0.10581258,0.79056984,-9.757729,0.01291288,0.0036790797,-0.025994679,45.25,78.0,0.0023928226,1114658,-362,2891,270,-3
53504489,4271,0,-1.1733935,-0.5596853,-9.471951,-0.04281058,-0.018901218,0.00055521337,45.25,78.0,0.0023928226,1114658,1162,1528,-2463,8319
53606272,4092,0,0.3265307,-1.5213984,-9.9950075,-0.031410556,0.0042626536,-0.0473273,45.375,78.0,0.0023928226,1114658,-1279,-2507,-3526,9935
53707069,4130,0,0.0012037395,-0.45689586,-9.673523,0.010307234,0.022784457,-0.091237985,45.25,78.0,0.0023928226,1114658,31,656,-6821,9930
53809969,4200,0,0.9684156,1.1408329,-8.801906,0.02555285,0.0064324047,-0.049808525,45.25,78.0,0.0023928226,1114658,-772,311,-3701,2048
53911862,5289,0,-0.82851106,1.7650001,-8.865203,0.036872152,-0.003099922,-0.0920422,45.25,78.0,0.0023928226,1114658,2055,3101,-9179,0
54012654,4162,0,0.014141075,1.4492073,-11.390506,0.019991197,-0.007344185,-0.06649206,45.375,78.0,0.0023928226,1114658,5170,1333,-569,2048
54111318,6299,0,0.41399246,-0.12961856,-9.547361,0.01911724,0.006401846,-0.07763937,45.375,78.0,0.0023928226,1114658,2536,384,-5864,-3
54217397,4228,0,-0.0018292757,-0.5668705,-9.822091,-0.031895835,0.007300908,-0.04001731,45.25,78.0,0.0023928226,1114658,-1831,-2968,-3395,9954
54316068,4199,0,-0.29351482,0.14407143,-10.287898,0.027571874,0.0019223945,-0.09332424,45.375,78.0,0.0023928226,1114658,820,2193,-5098,8193
54415845,4200,0,0.44955757,1.8188148,-10.45804,0.0034942275,0.011382198,-0.0806213,45.375,78.0,0.0023928226,1114658,2983,-2162,-2059,9948
54520819,4181,0,0.3286097,0.6459042,-8.707629,-0.03908822,-0.0033882158,-0.031702433,45.375,78.0,0.0023928226,1114658,481,-1971,-6180,2048
54620612,4244,0,-1.4152231,-0.33063704,-9.628668,0.022145346,0.007343607,-0.042096492,45.375,78.0,0.0023928226,1114658,-412,4308,-7535,9960
54721413,4242,0,-0.14827201,0.036272857,-11.478511,0.007354329,2.6652837e-05,-0.07826028,45.25,78.0,0.0023928226,1114658,3758,2336,-2228,9973
54822191,4223,0,0.9346015,-1.4844418,-11.501387,-0.014761581,-0.015014317,-0.008384367,45.25,78.0,0.0023928226,1114658,1751,-4137,3205,8333
54924019,4164,0,-0.6352304,-1.1486307,-9.705556,0.007283083,0.0108642345,0.016381888,45.25,78.0,0.0023928226,1114658,-2202,2668,-2592,8193
55025869,5250,0,1.1026275,1.4896963,-9.509972,-0.0068205674,0.0073809987,-0.06837255,45.375,78.0,0.0023928226,1114658,2221,-2925,-4724,-3
55126669,4200,0,-0.719418,0.89286494,-8.161734,-0.013842413,0.0028821959,0.0065354747,45.375,78.0,0.0023928226,1114658,410,3534,-8179,8193
55231774,4306,0,0.5639879,-0.6316105,-10.1676035,-0.038491968,-0.01523809,-0.05855414,45.375,78.0,0.0023928226,1114658,-445,-2923,-3790,9992
55329360,4202,0,-0.5501291,-0.9923722,-9.109595,-0.02074093,-0.007493643,-0.0018982709,45.375,78.0,0.0023928226,1114658,-692,3463,-4429,9985
55430143,4223,0,-0.2482294,-0.54008925,-10.445362,-0.0074693393,-0.027916823,-0.038105458,45.375,78.0,0.0023928226,1114658,3189,-503,-432,9998
55533018,6299,0,0.10583939,-0.09196271,-8.511922,-0.014743939,-0.0014053653,-0.06664083,45.375,78.0,0.0023928226,1114658,672,211,-7943,8192
55639069,4103,0,0.44828165,1.6690773,-10.595847,-0.0025334216,0.010303563,-0.0910449,45.375,78.0,0.0023928226,1114658,1864,-2199,-2461,9987
55743026,5257,0,-0.88481563,-0.35794643,-10.876937,0.03300719,-0.006889682,-0.093843326,45.375,78.0,0.0023928226,1114658,3003,1516,-2683,10014
55843819,4150,0,0.59070116,0.24343508,-10.625033,0.0048002503,0.0076113055,-0.057334933,45.375,78.0,0.0023928226,1114658,3771,-594,-5313,8352
55944618,4173,0,0.066208065,-0.21753967,-10.916236,0.021659175,0.002106839,-0.006373857,45.25,78.0,0.0023928226,1114658,-760,5090,323,10021
56045454,4165,0,-0.215429,1.3319523,-9.353864,0.008854922,0.011714772,-0.09864388,45.5,78.0,0.0023928226,1114658,1135,348,-7714,2048
56147273,5204,0,-0.16862687,0.16972099,-7.879152,-0.010791081,0.015923066,-0.031471282,45.375,78.0,0.0023928226,1114658,-2970,1397,-9750,8339
56250219,4250,0,-0.65012306,0.005660189,-10.25662,-0.0003821566,-0.011735636,-0.0330999,45.375,78.0,0.0023928226,1114658,215,971,1256,8192
56348869,4200,0,0.2568034,0.32815805,-9.658972,0.007189971,-0.01941854,0.01251659,45.5,78.0,0.0023928226,1114658,-330,2060,-3468,10030
56449669,4198,0,1.9462471,-0.2952459,-10.957473,-0.0051096617,0.011522947,-0.10902447,45.375,78.0,0.0023928226,1114658,2152,-3804,-5943,8193
56553664,4246,0,0.5318211,-0.06374228,-10.202083,0.008289006,0.017489718,-0.0269009,45.375,78.0,0.0023928226,1114658,-2568,-472,88,8192
56654428,4164,0,-1.5250779,0.8326789,-7.9012012,-0.023651553,0.0124885645,0.0038557758,45.375,78.0,0.0023928226,1114658,-546,3183,-6545,8192
56756273,4204,0,0.77631605,1.6324946,-9.626561,0.008971724,-0.005977811,-0.060444124,45.375,78.0,0.0023928226,1114658,2791,-26,-4286,2049
56858171,5295,0,0.06391939,0.6925445,-10.470682,0.026653057,-0.0040093604,-0.10733895,45.25,78.0,0.0023928226,1114658,1302,1142,-4040,8192
56956819,4161,0,1.0479257,-0.75971955,-9.615563,0.011729526,-0.017425096,-0.056279745,45.25,78.0,0.0023928226,1114658,1707,-2068,-5098,8344
57057619,4146,0,-0.2749191,-0.6218144,-11.194781,0.010649619,-0.00313234,-0.07507052,45.375,78.0,0.0023928226,1114658,2192,2829,-1651,10047
57160567,4249,0,0.8092049,0.61732906,-11.362647,-0.013026304,0.0074268947,-0.08111649,45.375,78.0,0.0023928226,1114658,1104,-3498,-224,8193
57262369,4177,0,1.6536994,1.5342149,-10.283538,0.010327398,0.015944127,-0.049256653,45.25,78.0,0.0023928226,1114658,-314,-2974,-1585,-4
57364218,5219,0,0.58366543,1.0503737,-10.319067,0.011489759,-0.0052106627,-0.055437557,45.25,78.0,0.0023928226,1114658,-659,-294,-1448,8358
57465018,4199,0,-0.03581111,0.2620948,-11.274078,0.006638371,-0.0009538757,-0.027906235,45.375,78.0,0.0023928226,1114658,977,2670,-3431,2048
57565819,4200,0,0.02715045,-1.1353908,-11.222286,-0.025123341,-0.0037238868,-0.037554685,45.375,78.0,0.0023928226,1114658,-1353,736,-189,10063
57671881,5262,0,-0.9631091,-0.21648741,-8.72774,0.014886494,0.019248929,-0.030932425,45.375,78.0,0.0023928226,1114658,46,5246,-5600,0
57770613,4241,0,-0.7391576,0.4562591,-9.031501,-0.04175478,0.0012115813,-0.020358833,45.375,78.0,0.0023928226,1114658,-2332,492,-726,-3
57871371,4180,0,1.1517301,1.673065,-9.33154,-0.046296444,0.008511114,-0.04746677,45.375,78.0,0.0023928226,1114658,-866,-5091,-4804,-3
57975319,4158,0,0.04853223,0.11851437,-10.3215065,-0.028776728,-0.02676156,-0.008946943,45.375,78.0,0.0023928226,1114658,303,912,-1196,-3
58074089,4271,0,1.4157583,-0.6519201,-9.771069,0.0009377246,-0.013521838,-0.05379585,45.375,78.0,0.0023928226,1114658,1942,-1886,-5189,8365
58177968,5249,0,-1.0209727,-0.70129424,-10.489963,0.017404174,0.008201986,-0.056774557,45.375,78.0,0.0023928226,1114658,1798,4945,-2649,2049
58278768,4199,0,-0.9574059,-0.4609112,-8.957054,-0.013639174,0.0041570677,-0.010187987,45.375,78.0,0.0023928226,1114658,-2080,1844,-4324,10081
58380626,4157,0,0.96863246,1.4458215,-9.928649,0.027889112,-0.007783705,-0.020726547,45.25,78.0,0.0023928226,1114658,1043,-1476,1342,10089
58481418,4159,0,0.89935416,1.3165741,-9.939963,0.028833494,0.008945509,-0.097816244,45.375,78.0,0.0023928226,1114658,114,-525,-3844,-3
58582220,4175,0,-0.13889495,0.37593558,-8.513088,-0.02435341,-0.00023234406,-0.035990585,45.375,78.0,0.0023928226,1114658,1301,-169,-8380,-3
58686203,4235,0,0.13019559,-0.9174326,-10.396102,-0.009003377,-0.0065537035,0.0033394692,45.375,78.0,0.0023928226,1114658,-331,-212,-2455,10107
58787012,4243,0,-0.25173634,-0.35255402,-10.825886,0.030853601,0.008228543,-0.050487768,45.375,78.0,0.0023928226,1114658,470,1514,21,10100
58888867,5296,0,-0.038920183,0.76000863,-8.216094,0.016860884,0.0152575895,-0.07130625,45.375,78.0,0.0023928226,1114658,-556,2618,-9461,-3
58989634,4201,0,1.0284342,0.5996155,-8.483211,-0.008466335,0.0041153356,-0.0125466185,45.5,78.0,0.0023928226,1114658,-1582,-2127,-5004,-3
59091469,4200,0,1.6154855,0.51473725,-10.665247,-0.0030454407,-0.011033082,-0.039487846,45.5,78.0,0.0023928226,1114658,2754,-5060,909,10109
59191219,4199,0,0.5566584,-0.4953608,-8.481613,-0.019276395,0.00224108,-0.07175083,45.5,78.0,0.0023928226,1114658,1502,-925,-12113,8390
59293068,4187,0,-0.037242144,-1.6149302,-10.921556,-0.036158673,-0.001666393,-0.009366616,45.375,78.0,0.0023928226,1114658,-530,-2343,123,8192
59394938,5268,0,-1.0220885,0.09065942,-10.689633,0.039646223,0.012601606,-0.07063986,45.5,78.0,0.0023928226,1114658,257,5346,-1094,8406
59497818,4187,0,0.22828332,1.349614,-8.674897,0.0047965115,0.011979884,-0.07018837,45.375,78.0,0.0023928226,1114658,-623,1267,-8743,8192
59599748,5329,0,0.025129762,1.5930402,-9.057552,-0.027645519,0.0014755088,-0.05270585,45.5,78.0,0.0023928226,1114658,241,-3877,-3632,10137
59700542,4266,0,-0.5776908,-0.81121653,-9.538545,-0.007935938,-0.017117238,-0.049309004,45.5,78.0,0.0023928226,1114658,-214,3381,-4859,10132
59801389,4321,0,-0.39940205,-1.0808902,-11.150385,-0.007686168,-0.00563794,0.004595964,45.375,78.0,0.0023928226,1114658,1133,1780,1563,10131
59902141,4273,0,-0.84829855,-0.46509793,-9.206801,0.033811633,0.007994024,-0.06845134,45.5,78.0,0.0023928226,1114658,275,4375,-7125,10141
60004970,5223,0,0.58133996,0.5721099,-9.0259905,-0.039108377,0.016751286,-0.05052481,45.375,78.0,0.0023928226,1114658,-1923,-2733,-5314,2049
60105777,5255,0,0.101760596,1.5465972,-9.761407,0.001008464,-0.001467847,-0.05110901,45.375,78.0,0.0023928226,1114658,862,593,-3512,2049
60206602,4234,0,0.7666808,0.7290667,-10.148987,0.0021210308,-0.015168796,-0.00852524,45.375,78.0,0.0023928226,1114658,2796,14,-367,8193
60309502,4118,0,0.0962156,-1.98941,-11.163021,0.0010735382,-0.014627896,-0.05162866,45.375,78.0,0.0023928226,1114658,527,-1566,-418,16949
60410269,4104,0,-0.09320845,-1.2901433,-11.460111,-0.0019467993,0.0021142764,-0.005283556,45.375,78.0,0.0023928226,1114658,561,225,2518,10147
60512174,4254,0,-0.17228347,0.14471792,-9.325904,0.023025772,-0.0041891183,-0.006254043,45.5,78.0,0.0023928226,1114658,-637,646,-7505,0
60612920,4201,0,0.9267723,0.8383665,-9.041366,-0.000532219,0.007911375,-0.0638365,45.5,78.0,0.0023928226,1114658,-1884,-56,-5085,2048
60716869,4200,0,0.630229,1.5395416,-10.694207,-0.01378594,0.008442734,-0.03414787,45.375,78.0,0.0023928226,1114658,2076,-1395,-1353,10160
60817669,4200,0,0.06084737,0.33829814,-10.303924,-0.024994766,-0.017448109,-0.021325253,45.375,78.0,0.0023928226,1114658,3181,11,-853,8193
60914269,4129,0,0.9688864,-0.62840575,-10.801566,-0.029713271,0.005076183,-0.0575152,45.375,78.0,0.0023928226,1114658,-669,-2515,-1788,10157
61020319,4200,0,-0.15908529,-0.5886859,-9.647909,-8.088785e-05,0.004771516,-0.052195217,45.375,78.0,0.0023928226,1114658,-1005,490,-3642,10168
61119018,5249,0,0.12994844,-0.39613643,-10.349247,0.009420611,0.012714206,-0.059726603,45.5,78.0,0.0023928226,1114658,-1978,3302,-5170,10167
61221936,4218,0,1.0226067,1.6464374,-9.953161,-0.020368923,0.008847135,-0.040506743,45.5,78.0,0.0023928226,1114658,932,-3388,743,2049
61327968,4154,0,-0.6968818,-0.74280524,-10.395467,-0.0054957047,-0.016594501,-0.07849965,45.5,78.0,0.0023928226,1114658,597,4245,-4803,-4
61426669,4201,0,0.09817877,-0.749617,-10.142449,-0.015260567,-0.007145399,-0.042190373,45.5,78.0,0.0023928226,1114658,2406,1627,-2942,8193
61532719,4179,0,-0.10984298,-1.3056891,-10.476689,0.019824838,0.016182069,-0.068386525,45.5,78.0,0.0023928226,1114658,-2375,1176,-3434,2048
61631418,4199,0,-1.3860049,0.1279231,-9.798495,-0.017737778,0.0048226966,-0.06926077,45.375,78.0,0.0023928226,1114658,-856,1890,-5104,10192
61734319,6300,0,0.5208604,1.2559673,-9.123341,-0.014877184,0.00532659,-0.032703213,45.5,78.0,0.0023928226,1114658,-316,-1645,-5415,10183
61836169,5245,0,1.1852666,2.410471,-9.824155,8.996371e-05,-0.004013892,-0.07644822,45.5,78.0,0.0023928226,1114658,1922,-4261,-4196,8192
61936969,4200,0,0.26147452,0.6745733,-9.572193,0.037014887,-0.0045212414,-0.03109619,45.375,78.0,0.0023928226,1114658,1345,3683,-3277,8411
62037768,4188,0,-0.88097346,-1.2418802,-9.330671,-0.026990395,-0.0069759656,-0.044924047,45.375,78.0,0.0023928226,1114658,691,2531,-6329,10204
62139669,4251,0,1.5122355,-1.2780887,-11.393451,-0.026686689,-0.002646791,-0.0045724628,45.5,78.0,0.0023928226,1114658,596,-3102,1299,8413
62242519,4200,0,-0.52386886,-0.5415434,-10.473874,0.028431093,0.033684026,-0.04215727,45.5,78.0,0.0023928226,1114658,-1893,421,-1531,2049
62343318,4159,0,-1.3378594,1.1792419,-9.187311,-0.0038451017,0.00740757,-0.015201599,45.625,78.0,0.0023928226,1114658,-1540,3021,-3250,8192
62445169,4181,0,-0.3305083,1.6448227,-9.4049015,-0.019345993,0.019779507,-0.06730699,45.5,78.0,0.0023928226,1114658,-1348,2095,-2570,8193
62543883,4164,0,0.7051364,2.1358042,-9.819924,-0.0122330375,-0.020720795,-0.019315226,45.5,78.0,0.0023928226,1114658,2461,-3862,-1109,10206
62647819,4174,0,1.1255335,-0.2394768,-10.412736,-0.008905087,-0.009651087,-0.04153785,45.5,78.0,0.0023928226,1114658,2205,-3310,-1139,10207
62746519,4200,0,0.22516917,-1.0024228,-10.577262,0.027540246,-0.0056318166,-0.020796072,45.5,78.0,0.0023928226,1114658,460,1106,-2750,-4
62849442,4173,0,-1.1733394,-1.3972881,-11.516999,0.024806093,0.0035815954,-0.043159284,45.5,78.0,0.0023928226,1114658,787,4756,1360,10225
62951271,4202,0,-0.6474574,0.57291174,-8.751772,0.011572104,0.009015835,-0.07167641,45.625,78.0,0.0023928226,1114658,-1076,1439,-7985,2049
63057342,4183,0,0.8662506,0.95940334,-10.007687,-0.0058124647,-0.0063552093,-0.050603002,45.5,78.0,0.0023928226,1114658,215,-1838,-2529,8434
63156018,4160,0,0.37847742,0.9831008,-10.154914,0.025213711,0.001972847,-0.088622965,45.5,78.0,0.0023928226,1114658,978,2730,-4577,8192
63258982,4263,0,0.6719263,-1.2619117,-10.267324,0.0042534517,3.5078476e-05,-0.04466266,45.5,78.0,0.0023928226,1114658,149,-2751,-5885,-4
63358673,4204,0,0.7997514,-1.3232069,-11.62178,0.007796181,0.0026563038,-0.041925933,45.625,78.0,0.0023928226,1114658,-178,-1397,1596,8193
63463716,4215,0,-1.0515093,0.3437459,-9.513489,-0.004305758,0.024687076,-0.045298122,45.5,78.0,0.0023928226,1114658,-2521,2152,-5395,10241
63563419,4183,0,-0.49022442,1.903601,-9.264564,-0.013746776,0.011974474,-0.009476878,45.5,78.0,0.0023928226,1114658,-291,2085,-2566,10231
63664219,4154,0,-0.50709194,1.9316545,-8.41001,-0.015308155,0.0040731346,-0.056106206,45.5,78.0,0.0023928226,1114658,157,1088,-8997,8192
63765019,4189,0,-1.0624075,0.729723,-9.727126,0.002288392,-0.0018404146,-0.039233048,45.625,78.0,0.0023928226,1114658,1147,2991,-3872,8193
63867919,4197,0,-0.49849284,-1.528762,-10.006616,0.02202559,-0.01655214,-0.027550215,45.5,78.0,0.0023928226,1114658,1295,4234,-4132,10239
63967716,4248,0,-0.0372387,-1.0062457,-8.667884,0.0077118864,-0.004943821,-0.037466645,45.5,78.0,0.0023928226,1114658,743,333,-5237,10255
64277419,4130,0,1.0577083,1.3118908,-10.646475,0.012494909,-0.014291093,-0.037757974,45.625,78.0,0.0023928226,1114658,3123,-1275,-638,10253
64379301,5232,0,-0.45699394,-0.93419427,-9.773126,-0.019707877,-0.016015425,-0.023795553,45.625,78.0,0.0023928226,1114658,1562,1943,-456,-3
64480069,4193,0,-0.012587213,-2.3948495,-11.289988,0.009197218,-0.011201684,-0.04071761,45.625,78.0,0.0023928226,1114658,-563,19,523,10256
64580869,4189,0,-0.046403732,-1.0762848,-8.907602,-0.009117922,0.01188724,-0.0012162355,45.375,78.0,0.0023928226,1114658,-338,-420,-8256,8192
64683800,4200,0,-0.6378635,0.32213157,-9.461825,-0.036074787,0.016789801,-0.019233234,45.5,78.0,0.0023928226,1114658,-3231,-1018,-1201,10265
64785619,4200,0,-0.2731718,1.8494561,-8.317275,0.026422108,-0.0050522843,-0.051131617,45.625,78.0,0.0023928226,1114658,1032,2857,-5548,-3
64886419,4200,0,0.33045417,0.67095524,-9.747443,-0.0013872749,-0.0022870966,0.008362655,45.5,78.0,0.0023928226,1114658,-198,-242,-252,10272
64988310,5288,0,0.62969553,-0.17303456,-10.3986635,-0.0025716985,-0.023894679,-0.058009584,45.625,78.0,0.0023928226,1114658,3270,-4261,-360,2049
65089068,4199,0,-1.0766565,-0.92834795,-11.369141,-0.008046162,0.0030669027,-0.07912729,45.5,78.0,0.0023928226,1114658,725,2352,-1124,-3
65193019,5246,0,-1.1350155,0.6066306,-9.833646,0.04285796,0.01225085,-0.080353625,45.625,78.0,0.0023928226,1114658,243,6061,-2893,8193
65293825,4205,0,0.29179165,1.6240933,-7.4963355,0.021705795,0.025901517,-0.050711043,45.625,78.0,0.0023928226,1114658,-453,1797,-8001,2048
65392554,5285,0,0.26833084,1.5806268,-9.005965,0.0024549908,-0.011615579,-0.0036568553,45.625,78.0,0.0023928226,1114658,-395,-1076,-1651,10293
65493406,4248,0,1.370426,1.0057229,-10.754489,0.016720982,-0.010539672,-0.0351868,45.5,78.0,0.0023928226,1114658,2142,-2934,893,-3
65595176,4207,0,1.5286231,-0.26796988,-11.519669,0.002590544,-0.015603803,-0.07994465,45.625,78.0,0.0023928226,1114658,3964,-4090,-1284,8193
65698140,4271,0,-0.111589454,-0.80550003,-11.386617,-0.029629877,0.0069498797,-0.0717126,45.625,78.0,0.0023928226,1114658,-683,-1109,2037,10298
65799919,4153,0,-1.167911,-0.13054205,-10.31026,-0.004679688,-0.008075076,-0.06545013,45.625,78.0,0.0023928226,1114658,-1089,1620,-1386,10301
65904929,4210,0,0.70947474,0.94724315,-9.106179,0.011716321,-0.014510383,-0.044867776,45.625,78.0,0.0023928226,1114658,114,-1716,-4286,8192
66006768,5249,0,0.5278011,1.0958692,-10.235483,0.046471003,0.004926685,-0.0750732,45.625,78.0,0.0023928226,1114658,1552,1953,-2128,8449
66107569,4184,0,-0.093184575,-0.65958005,-8.923909,0.010141736,-0.00038950003,-0.05835344,45.625,78.0,0.0023928226,1114658,119,1824,-11236,8192
66208385,4216,0,0.49502775,-1.3076248,-10.782161,-0.0005440234,-0.002956646,-0.003367768,45.5,78.0,0.0023928226,1114658,-1520,-1402,503,2049
66312365,4207,0,0.64600474,0.32905728,-12.441083,-0.025160477,0.0064795716,-0.04724439,45.625,78.0,0.0023928226,1114658,-1263,-3829,2724,2049
66415228,4209,0,-0.22800288,2.692472,-10.472556,0.0041539744,0.007457329,-0.05893982,45.5,78.0,0.0023928226,1114658,2769,1029,-906,-3
66516019,4168,0,-0.34372333,1.4165568,-8.797538,0.021972137,0.0044613862,-0.059968714,45.5,78.0,0.0023928226,1114658,-853,4376,-8837,-3
66615798,5279,0,0.44096977,0.10749751,-9.231589,0.029778786,-0.010510204,-0.025993284,45.625,78.0,0.0023928226,1114658,-348,-734,1012,10318
66716592,4191,0,0.4381306,-0.8132995,-9.846856,-0.009092662,-0.018284364,-0.045643177,45.625,78.0,0.0023928226,1114658,2711,-1013,-5141,10311
66815293,4204,0,0.26288497,-1.237137,-12.115214,-0.012546044,-0.011470806,-0.04738538,45.625,78.0,0.0023928226,1114658,1419,-714,1318,10336
66921368,4210,0,0.6903915,0.83084434,-9.206953,-0.01028161,0.013453022,-0.03863765,45.75,78.0,0.0023928226,1114658,-538,-4613,-2639,10332
67022170,4252,0,-1.0953819,1.4342617,-8.041933,-0.02051503,0.006082918,-0.034756884,45.625,78.0,0.0023928226,1114658,-932,2678,-9270,10340
67121868,5249,0,-0.4339523,1.8081982,-8.563114,0.03891532,-0.009633595,-0.043565575,45.75,78.0,0.0023928226,1114658,680,4119,-5107,0
67226916,4247,0,-0.20493062,-1.0170296,-9.399178,-0.03549529,-0.007369391,-0.05345846,45.625,78.0,0.0023928226,1114658,353,911,-7308,8451
67329769,4200,0,0.5507411,-1.2221236,-11.014441,0.027751742,0.012838308,-0.06494954,45.75,78.0,0.0023928226,1114658,-576,-494,-1548,16951
67432669,4121,0,-1.4843276,0.5375138,-10.417956,0.0035831232,0.0069365334,-0.043319236,45.625,78.0,0.0023928226,1114658,60,5066,-692,8193
67530359,4215,0,-0.86158663,0.6639057,-9.299885,0.0058437833,0.021468386,-0.06013233,45.75,78.0,0.0023928226,1114658,-1297,4447,-7628,-3
67633246,4207,0,-0.32069087,1.4588941,-9.433375,-0.026399912,0.0042718626,-0.059903733,45.5,78.0,0.0023928226,1114658,-1028,-2917,-4381,-3
67734089,4244,0,-0.99696904,1.4752942,-8.454971,-7.744182e-05,0.0063509406,-0.03367984,45.75,78.0,0.0023928226,1114658,351,3444,-9896,8453
67835875,4135,0,0.8760655,-0.17445412,-9.605056,0.029923359,-0.012880889,-0.06487298,45.625,78.0,0.0023928226,1114658,541,-174,-5482,10357
67940873,4204,0,-0.80328846,-1.400774,-9.249385,0.0032350332,0.0046263244,-0.05986385,45.625,78.0,0.0023928226,1114658,-2468,4024,-7711,-3
68044819,5250,0,-0.5274985,0.58926183,-9.359411,-0.045931082,0.018429287,-0.05172989,45.625,78.0,0.0023928226,1114658,-1176,-3707,-5367,8465
68145619,4200,0,-0.41334125,0.99238443,-8.319299,0.015885672,0.002607152,-0.033352114,45.625,78.0,0.0023928226,1114658,-1392,3994,-5933,2049
68244320,4159,0,-0.01833188,1.5200089,-9.967131,0.04181439,0.0019713356,-0.057699688,45.625,78.0,0.0023928226,1114658,1425,3929,-1640,8192
68347219,4200,0,-0.1207009,-0.66424936,-10.575684,-0.023835184,-0.0014173838,-0.048228353,45.625,78.0,0.0023928226,1114658,-38,1274,495,10377
68453340,4259,0,0.17901954,-0.69781846,-10.460258,-0.018469281,0.0049192887,-0.018763896,45.625,78.0,0.0023928226,1114658,-123,-2731,615,10366
68554124,4242,0,-1.4667828,0.77170354,-9.859839,0.0018987374,0.025395315,-0.054452922,45.625,78.0,0.0023928226,1114658,493,5827,-3267,10363
69982142,4274,0,-0.51738524,-0.08304752,-9.903103,0.018113947,-0.011375489,-0.055384047,45.625,78.0,0.0023928226,1114658,1320,4609,-3941,10414
70082999,4331,0,-0.7022444,-1.0538917,-10.38204,0.0086898105,-0.019448875,-0.04185509,45.75,78.0,0.0023928226,1114658,2517,3084,-4081,10414
70183802,4333,0,-0.2794324,-1.2978555,-10.272214,-0.001586619,-0.009146676,-0.046867225,45.625,78.0,0.0023928226,1114658,-750,985,-3766,-4
70285519,4172,0,-0.51743776,0.42637724,-8.527426,0.00013785338,0.00978446,-0.04420692,45.625,78.0,0.0023928226,1114658,-2505,2413,-8315,10421
70389503,5284,0,-0.35069287,2.462829,-9.748693,0.036843732,0.02008628,-0.048947085,45.875,78.0,0.0023928226,1114658,1402,4400,-422,16951
70490316,4200,0,0.5901337,1.2516061,-9.479648,0.02325244,-0.010111304,-0.033705845,45.75,78.0,0.0023928226,1114658,1923,2010,-3563,8482
70595269,4192,0,1.0155219,-0.7173298,-11.166753,-0.0160944,-0.013791846,-0.01584789,45.75,78.0,0.0023928226,1114658,2059,-2098,925,10436
70695018,4172,0,1.1953701,-1.3350118,-9.912993,-0.0005855238,-0.007226243,-0.02774406,45.75,78.0,0.0023928226,1114658,1482,-4112,-3816,8193
70798975,5257,0,0.005243688,-0.27381605,-9.975051,-0.0031642749,0.018873954,-0.063553505,45.75,78.0,0.0023928226,1114658,-2222,-1359,-2159,10444
70899819,4250,0,0.5656994,1.8271048,-10.178183,0.016872332,0.0010523929,-0.025575584,45.75,78.0,0.0023928226,1114658,488,-1809,223,10437
71002669,4201,0,1.4560933,0.8934287,-9.456266,-0.0011918013,-0.010576238,-0.050101593,45.75,78.0,0.0023928226,1114658,471,-3570,-2155,8193
71104568,4228,0,1.6183214,-0.95302963,-10.934462,0.009291926,-0.00064078264,-0.06405063,45.75,78.0,0.0023928226,1114658,343,-2450,-1938,8472
71205352,4195,0,0.17195891,-1.529495,-11.278875,0.018761892,-0.007743022,-0.025561096,45.75,78.0,0.0023928226,1114658,632,-1472,-1502,10450
71306150,4204,0,-0.19324102,-1.3797024,-9.300772,0.02505506,-0.007327173,-0.043431584,45.875,78.0,0.0023928226,1114658,463,886,-6251,10445
71405869,4200,0,-2.0157344,0.6527006,-8.458886,-0.017968265,0.009286495,-0.01104481,45.75,78.0,0.0023928226,1114658,-160,3911,-4818,8193
71508769,4164,0,-0.8182362,1.7370819,-9.070586,-0.010113115,0.0055238614,-0.052877992,45.75,78.0,0.0023928226,1114658,-964,3536,-6154,-4
71611766,4298,0,-0.97691476,0.8405019,-8.934445,-0.021985069,-0.021864941,-0.03267868,45.75,78.0,0.0023928226,1114658,-195,2613,-3468,10462
71713519,4178,0,1.0089724,-0.5806065,-9.335854,-0.023568101,-0.006078546,-0.055283215,45.75,78.0,0.0023928226,1114658,1059,-2461,-5883,2048
71814319,4170,0,1.245803,-1.0741715,-11.374389,0.009341191,0.0034265823,-0.049560785,45.75,78.0,0.0023928226,1114658,1348,-1965,701,10464
71920405,4234,0,-0.4545931,-0.4202462,-9.635776,-0.021957707,0.028633384,-0.03755618,45.875,78.0,0.0023928226,1114658,-2510,-2140,-5651,-4
72120929,4209,0,1.1540853,2.3177693,-9.512422,-0.0056426534,0.008934397,-0.014308907,45.875,78.0,0.0023928226,1114658,981,-4438,-1973,-4
72223819,4150,0,0.121953875,1.4997861,-9.698684,-0.010365247,-0.003161124,-0.045289107,45.75,78.0,0.0023928226,1114658,2491,-18,-1946,10473
72323568,5249,0,-0.038337752,0.30256733,-10.252618,-0.01599561,-0.0095712235,-0.039569147,45.75,78.0,0.0023928226,1114658,2528,-2252,2682,-4
72424368,4183,0,1.3138343,-1.1284133,-10.075543,-0.0007887939,-0.012069038,-0.015783112,45.625,78.0,0.0023928226,1114658,2018,-3906,-3806,-4
72528318,5249,0,-1.3564749,-0.8991855,-9.592718,-0.0015477544,0.017691862,-0.06955901,45.75,78.0,0.0023928226,1114658,-3112,3586,-6233,10478
72629159,4240,0,-0.9631678,1.7046175,-11.708544,0.0034529234,0.0234897,-0.064131066,45.75,78.0,0.0023928226,1114658,-576,1674,504,8193
72728869,4200,0,-0.6822945,1.7770442,-10.385584,0.0344169,0.009118801,-0.065188654,45.75,78.0,0.0023928226,1114658,1325,3710,-2099,8505
72832819,4165,0,-0.8544572,0.65946186,-10.170765,-0.030544573,-0.0043677804,-0.024471102,45.75,78.0,0.0023928226,1114658,1126,1854,168,-4
72932572,5254,0,0.04438883,0.40495077,-10.173202,0.0045815944,0.0068034735,-0.08668401,45.875,78.0,0.0023928226,1114658,248,3792,-7813,10476
73033391,4223,0,0.5996438,-1.4738334,-9.913453,-0.005545327,-0.008411876,-0.029246973,45.75,78.0,0.0023928226,1114658,-1523,-2221,-4651,10499
73137366,5297,0,-0.6438963,-0.6715514,-10.493969,-0.038114242,0.017396977,-0.059940416,45.75,78.0,0.0023928226,1114658,-3377,-1927,-1122,10499
73238197,4279,0,-0.27725434,1.1640173,-8.852828,0.019980578,0.001721914,-0.05614321,45.75,78.0,0.0023928226,1114658,44,3147,-6370,8192
73343159,4191,0,0.2661519,1.3430816,-9.808342,-0.002293932,-0.0061420817,-0.10364812,45.75,78.0,0.0023928226,1114658,256,-288,-6892,8501
73444979,4210,0,-1.0690006,-0.49347007,-9.710498,0.02199326,0.0017759977,-0.07144357,45.875,78.0,0.0023928226,1114658,1490,4847,-8125,-4
73546876,5307,0,0.61701894,-1.8329902,-9.438857,-0.013086685,-0.010797177,-0.021060564,45.875,78.0,0.0023928226,1114658,-1200,-642,-4453,8507
73649719,4200,0,-0.27912104,-0.21964832,-9.620643,-0.040468,-0.0018409478,-0.034844607,45.875,78.0,0.0023928226,1114658,-547,-2100,-2419,2048
73746319,4172,0,-0.5195322,0.52943206,-10.427655,-0.012972855,0.008866014,-0.04195867,45.875,78.0,0.0023928226,1114658,-962,-622,-1506,10497
73851358,4195,0,1.143022,2.1107395,-10.5478325,0.008768579,0.009187512,-0.055958662,45.875,78.0,0.0023928226,1114658,3231,-3027,-897,8192
73953202,4233,0,-1.098251,-0.20574732,-9.707915,-0.021691438,0.0011911448,-0.06037815,45.75,78.0,0.0023928226,1114658,53,3671,-6139,-4
74053977,4209,0,-0.6339742,-1.4793617,-9.364271,0.03006004,0.010044214,-0.06591611,45.875,78.0,0.0023928226,1114658,-1819,3339,-7028,-4
74155819,5250,0,0.09846298,-0.4682153,-9.92762,-0.022166513,0.0041806204,-0.054504383,46.0,78.0,0.0023928226,1114658,-1080,-3057,-3594,10520
74254519,4191,0,-0.4832129,0.38220763,-9.588652,-0.020217229,-0.002674302,-0.0072245453,45.875,78.0,0.0023928226,1114658,-146,-26,-2851,8192
74355318,4159,0,0.3565227,1.2845293,-8.599923,-0.0017219437,0.0015042429,-0.009438303,45.875,78.0,0.0023928226,1114658,-1317,-908,-3552,2048
74459268,4178,0,0.35667178,0.60247695,-9.386959,0.019326279,-0.0024135816,-0.057202257,45.875,78.0,0.0023928226,1114658,1950,1479,-5225,8192
74562215,4246,0,0.043007012,-1.3643148,-10.518316,-0.024857458,-0.0007462643,-0.06652523,45.75,78.0,0.0023928226,1114658,1527,143,-5436,10521
74662969,4199,0,-0.6756619,-1.079343,-11.519146,0.017346207,0.009584222,-0.06410608,45.875,78.0,0.0023928226,1114658,1269,3061,-524,8517
74764818,4199,0,0.4378573,-0.017492823,-10.311466,-0.007446263,0.000344281,-0.011271894,45.75,78.0,0.0023928226,1114658,1583,-2035,-659,-4
74861460,4171,0,0.3423625,0.26903152,-9.287857,-0.003304529,-0.0004175359,-0.04874301,45.875,78.0,0.0023928226,1114658,384,-3146,-7578,10542
74964324,4166,0,-1.3594009,1.3534863,-8.418072,-0.014772698,0.017216772,-0.033150226,45.875,78.0,0.0023928226,1114658,-756,3206,-6294,8193
75070369,4161,0,0.48210272,-1.0834717,-10.429008,-0.02589965,-0.005458559,-0.053802736,45.875,78.0,0.0023928226,1114658,-1278,-1074,-1167,8192
75173374,4306,0,-0.7668573,-1.6990249,-9.479156,0.02633554,0.005759856,-0.057744253,45.875,78.0,0.0023928226,1114658,-1274,3511,-6363,10546
75275162,4170,0,0.031447567,-0.025947122,-8.604139,-0.015322801,0.0030751482,-0.02158984,45.875,78.0,0.0023928226,1114658,-1207,-2743,-6322,10544
75375919,4141,0,0.44823363,0.74998647,-8.70333,-0.004325826,0.0016933086,-0.034290086,45.875,78.0,0.0023928226,1114658,-862,-1216,-6334,10548
75476723,4188,0,0.7470978,1.3935697,-10.55388,-0.015672984,0.008693572,-0.058739807,45.875,78.0,0.0023928226,1114658,1385,-2461,911,10555
75580669,4176,0,-0.14588045,-0.45082507,-9.615274,0.02640283,-0.008292353,-0.05863166,45.875,78.0,0.0023928226,1114658,944,4056,-4634,8193
75681469,6300,0,0.06386706,-1.7301503,-9.624796,0.01501978,-0.009072118,-0.08332609,45.75,78.0,0.0023928226,1114658,-1025,-2216,-5508,-4
75781289,4270,0,-0.036818597,-0.66745853,-9.620898,-0.025912663,0.0015524334,-0.006172665,45.875,78.0,0.0023928226,1114658,-65,-1622,-2534,8528
75886219,4149,0,0.1814012,1.4874153,-9.504109,-0.0067141517,0.02497771,-0.026206162,45.75,78.0,0.0023928226,1114658,-2022,-572,-2517,10559
75988095,5226,0,0.67491627,1.7783682,-10.563936,0.009287262,-0.004794478,-0.11570344,45.875,78.0,0.0023928226,1114658,1707,256,-8296,-4
76088910,4241,0,-0.5839639,0.35540643,-11.1268215,-0.02234963,0.0028541018,-0.04181455,45.875,78.0,0.0023928226,1114658,1342,1608,-469,-4
76191807,4237,0,1.4832351,-1.2885084,-11.168162,0.017616188,-0.012889603,-0.048966497,45.875,78.0,0.0023928226,1114658,1828,-3061,-1338,0
76295740,5254,0,-0.8540852,-0.9952931,-8.971161,-0.008049739,0.0003729655,-0.03251734,45.75,78.0,0.0023928226,1114658,955,2907,-7346,10580
76396524,4194,0,0.3967108,0.6268159,-9.723757,-0.009239294,0.013536521,-0.054824576,45.875,78.0,0.0023928226,1114658,-1726,-2978,-3691,10577
76497368,4210,0,0.2578637,2.133191,-9.530826,-0.0048661693,0.01689822,-0.0446682,46.0,78.0,0.0023928226,1114658,-244,-372,-1872,10584
76601362,4294,0,-0.9566555,0.7062012,-9.329491,0.008447719,-0.008062967,-0.026330786,45.875,78.0,0.0023928226,1114658,447,4460,-4814,10582
76702169,4301,0,-0.53190184,-0.1894323,-9.736833,0.004409847,-0.011872888,-0.054001648,46.0,78.0,0.0023928226,1114658,1161,3770,-4198,10586
76803918,4164,0,0.3061724,-1.0659639,-9.383429,0.018535776,0.00066808733,-0.067634195,45.875,78.0,0.0023928226,1114658,818,723,-7561,10603
76904718,4172,0,-0.2632059,-0.8250928,-9.833906,0.032870304,0.011570548,-0.077914916,45.875,78.0,0.0023928226,1114658,-1402,2137,-7656,10586
77006569,5208,0,-0.2375837,0.8986587,-10.847611,0.02359709,0.023798034,-0.057932045,46.0,78.0,0.0023928226,1114658,-532,2225,1576,-4
77110519,4176,0,0.77377206,2.102969,-9.507317,-0.032956053,-0.008696538,-0.02231038,45.875,78.0,0.0023928226,1114658,1280,-2497,-5251,8192
77214469,4200,0,-0.7986889,-0.52532333,-10.8685875,-0.002139431,-0.008347391,-0.03641275,45.875,78.0,0.0023928226,1114658,2051,4491,-2365,2048
77315269,4200,0,0.17925034,-1.369485,-10.068443,-0.0050248993,-0.006640002,-0.05238673,46.0,78.0,0.0023928226,1114658,1274,779,-6085,10602
77419219,4200,0,0.5652393,0.12077674,-10.33924,0.014327281,0.011381378,-0.040014703,45.875,78.0,0.0023928226,1114658,-138,-820,-1530,10611
77515819,4133,0,-0.026463917,0.27505612,-8.399835,0.02706988,0.010440136,-0.044219416,45.875,78.0,0.0023928226,1114658,-93,2376,-7184,8545
77618719,4200,0,0.03915799,1.5665827,-9.288197,0.0055327737,0.0045699347,-0.05105898,45.875,78.0,0.0023928226,1114658,-970,489,-5786,2048
77719518,4199,0,1.3169893,1.4523375,-8.924597,-0.01767173,0.004786958,-0.042578086,45.875,78.0,0.0023928226,1114658,-722,-4061,-4976,16951
77821406,5247,0,-0.24273045,-0.58897173,-9.253482,-0.030474626,-0.009771298,-0.054064415,45.875,78.0,0.0023928226,1114658,-271,865,-5454,-4
77922207,4238,0,-0.55361974,-1.8470802,-9.245561,0.007285103,0.00502066,-0.050746094,45.875,78.0,0.0023928226,1114658,-1156,3485,-7813,-4
78027169,4151,0,-0.85362184,0.09824569,-10.962764,0.0056507797,0.0014351063,-0.013211909,46.0,78.0,0.0023928226,1114658,629,1483,2088,8193
78126948,4229,0,0.85616684,1.4663215,-10.160102,0.01376868,0.015451299,-0.03452779,46.0,78.0,0.0023928226,1114658,-275,-1999,933,10626
78231919,4171,0,-0.5680428,1.3032115,-9.526045,0.025862025,-0.011312201,-0.03592479,46.0,78.0,0.0023928226,1114658,2217,3616,-3459,0
78333768,5219,0,1.7448007,-0.4859514,-10.291326,0.0065164617,-0.028515497,-0.03770574,45.75,78.0,0.0023928226,1114658,1800,-3886,-2267,8192
78434570,4201,0,0.39268577,-1.2465944,-9.814913,-0.017031591,-1.3714948e-05,-0.005204032,45.875,78.0,0.0023928226,1114658,445,-1575,-2172,2048
78537469,4153,0,-1.2693671,-0.7004572,-8.867901,-0.01724871,0.0054398323,-0.03578791,45.875,78.0,0.0023928226,1114658,-1294,2881,-8892,8192
78636169,4200,0,0.21834838,-0.4421202,-9.135947,-0.011638498,0.0059865564,-0.026465714,45.75,78.0,0.0023928226,1114658,-1739,-1540,-5241,8192
78739069,4096,0,-0.6556994,2.3020775,-9.214365,0.020029072,0.016405325,-0.060708337,45.875,78.0,0.0023928226,1114658,-334,4315,-3469,10636
78840931,5215,0,-0.23745732,1.6984448,-10.230644,0.021599874,-0.013764143,-0.06072805,45.875,78.0,0.0023928226,1114658,1824,2515,-3154,10640
78941744,4225,0,1.349844,-0.27718434,-10.1167965,0.016560137,-0.012152905,-0.04245131,45.875,78.0,0.0023928226,1114658,1592,-1533,-4016,10640
79046721,4160,0,1.0741122,-1.2127827,-9.628694,-0.01946967,-0.0005644995,-0.053541552,45.875,78.0,0.0023928226,1114658,-337,-3667,-7618,8192
79148598,5274,0,-0.15176907,0.01956934,-9.998021,-0.0034420898,0.020255232,-0.055751726,45.875,78.0,0.0023928226,1114658,-1233,-212,-2580,10646
79251469,4201,0,-0.7390126,1.505813,-9.839794,-0.01240188,0.016685471,-0.008682122,46.0,78.0,0.0023928226,1114658,442,1163,-651,2048
79350190,4222,0,0.06524618,2.2600026,-9.978007,-0.01790228,0.009789117,-0.039678402,45.875,78.0,0.0023928226,1114658,1153,-2425,-1136,8193
79454151,4233,0,-0.033947997,0.08951966,-8.32101,0.011664486,-0.012443446,-0.030035365,45.875,78.0,0.0023928226,1114658,713,2836,-6143,8192
79559166,4200,0,-0.14933716,-1.3826278,-11.1289015,0.01232322,0.011659497,-0.057241637,46.0,78.0,0.0023928226,1114658,-478,1136,545,8193
79658994,4325,0,0.35126004,-0.57729644,-10.824974,0.0038360928,0.0120447185,-0.068291724,45.875,78.0,0.0023928226,1114658,368,-2116,-154,10654
79763869,4103,0,-0.12883143,1.7716117,-8.714491,0.0149699515,0.00019046589,-0.0114889955,46.0,78.0,0.0023928226,1114658,1698,2603,-2394,10669
79860566,4297,0,0.84510374,2.181631,-9.173212,-0.025841892,0.017165717,-0.04220226,46.0,78.0,0.0023928226,1114658,37,-3642,-4586,10663
79965470,4104,0,0.22838393,0.3149462,-8.801023,0.034215964,-0.025062816,-0.034608506,45.875,78.0,0.0023928226,1114658,79,2749,-6078,10663
80065285,4267,0,-0.79499483,-0.06928823,-10.452002,-0.013855144,-0.029012546,-0.04952784,46.0,78.0,0.0023928226,1114658,1441,1766,-3850,8569
80168159,4240,0,-0.16739474,-0.9956155,-9.785868,0.026841978,0.0006952338,-0.028547807,46.0,78.0,0.0023928226,1114658,-808,1493,-5373,-4
80267869,4153,0,-0.980648,-0.64071494,-10.133754,-0.010756942,0.0025125176,-0.04196455,46.125,78.0,0.0023928226,1114658,-1078,3421,-1107,8571
80371851,5282,0,-0.10226852,1.8492074,-8.849241,0.019402843,0.0085223885,-0.04288614,46.125,78.0,0.0023928226,1114658,1227,763,-3133,0
80472655,4186,0,0.1207208,1.4905035,-9.187186,0.008476171,-1.3629047e-05,-0.049400244,45.875,78.0,0.0023928226,1114658,-345,-6,-5291,10669
80571318,4160,0,-0.9383021,1.6694627,-8.948609,0.021445904,-0.012386443,-0.031482372,46.0,78.0,0.0023928226,1114658,1537,4050,-2833,8192
80676348,4185,0,0.94348407,-1.5510589,-10.04348,0.00799209,-0.0056487466,-0.021396063,46.0,78.0,0.0023928226,1114658,-735,-1567,-3067,-4
80778172,4164,0,-0.012834918,-1.1746287,-9.666173,-0.020382019,-0.0023533197,-0.025337592,46.0,78.0,0.0023928226,1114658,-1221,-666,-5030,10682
80878969,4201,0,-0.5525689,-0.3236235,-8.560909,-0.0022564996,0.0120514715,-0.036614582,45.875,78.0,0.0023928226,1114658,-2248,493,-6467,10672
80983969,4155,0,0.2719342,2.4257746,-10.46753,0.01693772,0.0064055934,-0.054294407,46.0,78.0,0.0023928226,1114658,2844,1077,2178,10694
81085818,4199,0,-0.17379165,1.1067439,-10.717724,-0.03061585,-0.002916839,-0.05605436,46.0,78.0,0.0023928226,1114658,1345,-375,438,8192
81186619,4200,0,-0.75422406,-0.426981,-10.536735,0.022189697,-0.00054503925,-0.05642207,46.0,78.0,0.0023928226,1114658,1262,4066,-4122,8193
81285367,4209,0,0.20881504,-1.1364042,-10.410753,0.023567485,0.009048364,-0.08788674,46.0,78.0,0.0023928226,1114658,1475,2091,-5028,8582
81386151,4233,0,-0.34721723,-1.2748474,-11.688406,-0.011064516,0.004503358,-0.04976363,46.0,78.0,0.0023928226,1114658,371,111,1818,10691
