timestamp,integral_dt,error_count,x,y,z,x_integral,y_integral,z_integral,temperature,range_m_s2,scaling,device_id,x_raw,y_raw,z_raw,temperature_raw
24991023,6300,0,-0.01428772,0.4403923,-9.65778,0.00052338775,0.008472148,-0.06397048,48.875,78.0,0.0023928226,1114658,-384,349,-3727,9582
25097121,4248,0,0.61409926,0.105894685,-10.042763,0.007813749,-0.005226354,-0.045193,48.75,78.0,0.0023928226,1114658,199,915,-2395,-7
25198931,4189,0,0.3096769,0.84160984,-10.054853,0.0006519397,0.004326854,-0.04131881,48.875,78.0,0.0023928226,1114658,654,836,-2663,9581
25299726,4204,0,0.39371648,-0.39915988,-8.976864,0.00446413,0.00026899792,-0.03979123,48.875,78.0,0.0023928226,1114658,208,633,-3081,9584
25400542,4220,0,0.53763866,0.49934423,-10.0255785,0.009155271,-0.007528634,-0.040155955,48.875,78.0,0.0023928226,1114658,976,1770,-1446,9581
25502373,4177,0,0.3903308,1.4915695,-9.837064,0.006446747,-0.005402902,-0.044356834,48.875,78.0,0.0023928226,1114658,1325,1316,-3606,9579
25604222,5220,0,0.42319396,0.6776369,-9.708492,0.011975741,-0.01645765,-0.045769945,48.75,78.0,0.0023928226,1114658,1884,1276,-2719,-8
26779173,4185,0,-0.55755866,1.136331,-10.221384,0.02455767,0.023686301,-0.06787854,48.75,78.0,0.0023928226,1114658,441,4436,-6650,0
26881033,5260,0,-0.5139674,1.0812582,-9.885726,-0.010886847,0.016613245,-0.0666052,49.0,78.0,0.0023928226,1114658,430,2828,-2379,8193
26981848,4225,0,0.68708265,-0.17801611,-9.261484,-0.028627124,-0.015335795,-0.049292166,49.0,78.0,0.0023928226,1114658,-404,-3612,-7093,16964
27083699,4227,0,1.6586143,-0.30113468,-10.866844,0.031217612,-0.007925309,-0.04173065,48.75,78.0,0.0023928226,1114658,4013,-1342,82,10250
27184550,4278,0,-0.7516592,-0.87536657,-11.549267,0.022031443,-0.002129654,-0.08879771,49.0,78.0,0.0023928226,1114658,1176,2315,-1518,9579
27284253,5280,0,-0.92890865,-0.6820267,-10.801834,0.027214978,-0.0007028906,-0.046873793,48.875,78.0,0.0023928226,1114658,349,3211,-3439,-8
27385023,4192,0,0.5242313,0.5034003,-10.727024,0.004858686,0.010496661,-0.05001276,48.875,78.0,0.0023928226,1114658,-968,-874,-984,8193
27488973,5197,0,1.2545667,1.5216001,-10.981399,0.034434456,0.0060119363,-0.08100043,48.875,78.0,0.0023928226,1114658,1617,3956,-8474,-8
27589773,4199,0,0.34874058,-0.050960943,-10.14824,-0.012032953,-0.009662882,-0.038785603,48.75,78.0,0.0023928226,1114658,862,-896,-11241,-8
27691698,4275,0,1.5474817,-1.4608307,-11.36185,0.0031456712,-0.0118141305,-0.024725165,48.875,78.0,0.0023928226,1114658,295,-3008,-2283,10262
27790323,4195,0,0.35605076,-1.0879219,-10.667134,-0.015485958,0.0017049662,-0.07621204,48.875,78.0,0.0023928226,1114658,241,-619,-8849,9592
27893298,4269,0,-0.1060176,0.17058349,-10.207513,-0.018522844,5.3928117e-05,-0.032052387,48.875,78.0,0.0023928226,1114658,-511,-1204,-4721,9583
27997173,4200,0,1.2105218,1.2992196,-10.760226,-0.0039573354,-0.017837165,-0.01992564,48.875,78.0,0.0023928226,1114658,569,-3307,-2212,-8
28099023,4095,0,1.0207497,0.3174115,-12.430476,0.00066487317,-0.024450405,-0.015541971,48.75,78.0,0.0023928226,1114658,693,-339,1096,9587
28198780,5257,0,1.1382248,-0.11012184,-12.900051,0.01587064,-0.030924425,-0.041757666,48.875,78.0,0.0023928226,1114658,2878,-290,1176,2049
28299592,4220,0,0.48654017,-2.0952675,-12.241326,-0.012525724,-0.014004464,-0.016493104,48.75,78.0,0.0023928226,1114658,-842,-922,-1355,-8
28398279,4138,0,0.11537605,-1.77813,-13.152367,0.0052370797,-0.017296314,-0.03115892,48.75,78.0,0.0023928226,1114658,1421,97,2178,-8
28504322,4164,0,-0.7172505,0.9923435,-10.794344,-0.0056936406,0.020772653,-0.053515024,48.75,78.0,0.0023928226,1114658,-1087,3396,-4550,8193
28606191,4206,0,0.16026984,1.9303522,-9.573181,-0.004647212,0.0071800407,-0.039184805,48.875,78.0,0.0023928226,1114658,1959,362,-5437,2049
28706973,4201,0,1.2993495,0.5735986,-9.200077,0.026835568,-0.01700115,-0.07636613,48.75,78.0,0.0023928226,1114658,2017,-428,-8328,9570
28808823,4200,0,1.1833135,-1.5313579,-11.128816,0.031381782,-0.016837254,-0.04677612,48.875,78.0,0.0023928226,1114658,1272,-1427,-1069,-7
28909634,4211,0,-1.0471312,-1.1295915,-9.527401,0.005710529,-0.006455528,-0.026816698,48.875,78.0,0.0023928226,1114658,547,4849,-3714,-7
29011504,4231,0,1.5840052,1.1289407,-8.293776,0.00055539655,0.0075544086,-0.018169617,49.0,78.0,0.0023928226,1114658,287,-4075,-2743,16964
29110190,4218,0,1.1489996,1.3225521,-7.5110235,-0.040616684,0.00037635505,-0.0047525694,49.0,78.0,0.0023928226,1114658,275,-4643,-2864,8192
29212029,4206,0,-0.9371896,0.10988535,-7.9495664,0.029405069,-0.007958834,-0.037206884,48.875,78.0,0.0023928226,1114658,188,5710,-3211,8192
29318122,5299,0,-1.6799667,-1.1407055,-8.408793,-0.044020396,0.00760907,-0.06008289,48.875,78.0,0.0023928226,1114658,-873,2584,-4966,9556
29418953,4281,0,0.8914339,0.36059594,-8.131918,0.05831915,-0.0040960326,-0.03084943,48.875,78.0,0.0023928226,1114658,838,875,-3126,9559
29520723,4167,0,2.5923092,0.68899375,-7.304277,0.028137175,-0.0040055383,-0.035094813,48.875,78.0,0.0023928226,1114658,330,-5315,-2480,9555
29625723,4200,0,-1.6171762,-0.2996431,-8.404776,-0.0233571,-0.010978331,-0.016242322,48.875,78.0,0.0023928226,1114658,462,3589,-160,9550
29723372,4196,0,-0.204,-0.24296227,-8.559039,-0.06485543,-0.009001784,-0.024213454,48.875,78.0,0.0023928226,1114658,1510,-1963,1856,9566
29824172,4200,0,1.1748034,0.81685334,-9.034519,-0.06229465,0.0045798356,-0.010859636,48.875,78.0,0.0023928226,1114658,2198,-6053,2022,8193
29928158,4235,0,-1.3264413,1.0842878,-8.144217,-0.036432434,-0.002645104,0.005809433,49.0,78.0,0.0023928226,1114658,2504,2666,1502,2049
30028923,4191,0,-0.26864704,0.36809865,-8.541762,-0.0472901,-0.0077388207,-0.0047626914,48.75,78.0,0.0023928226,1114658,2023,-1590,33,8193
30128673,4125,0,-1.6178625,-0.32121533,-8.443209,-0.0026056585,0.011348147,-0.01910007,49.0,78.0,0.0023928226,1114658,1271,5084,-1887,2048
30233692,4219,0,0.06812609,0.24774341,-8.752598,0.05815599,0.0020939107,-0.026608625,48.875,78.0,0.0023928226,1114658,1097,4174,-1130,-8
30330272,4150,0,-1.1020447,0.91559654,-8.387247,0.02479442,0.0024551032,-0.060650203,48.875,78.0,0.0023928226,1114658,-434,5146,-6050,9564
30436322,4164,0,1.8099643,0.086736545,-9.083608,0.009918442,-0.00834657,-0.041427817,49.0,78.0,0.0023928226,1114658,-871,-3796,-3164,10310
30535026,4104,0,1.799042,0.039663613,-10.4458065,0.028797472,-0.01793989,-0.0143133,48.875,78.0,0.0023928226,1114658,2325,-2015,-804,9572
30636876,4197,0,1.5263219,-0.63030475,-10.861094,-0.034689434,-0.0064074197,-0.022613218,48.875,78.0,0.0023928226,1114658,-64,-4880,479,9578
30738750,5277,0,-1.0641713,0.4108901,-10.423532,0.02342321,0.021838881,-0.032330442,49.0,78.0,0.0023928226,1114658,-144,5739,-1097,-8
30841623,4200,0,0.06510254,1.911459,-9.822683,-0.017488575,0.0069349012,-0.01315203,49.0,78.0,0.0023928226,1114658,-1301,336,-292,16964
30943472,5249,0,-0.28254053,1.8413241,-10.190299,-0.0017355693,-0.00016643415,-0.09764807,49.125,78.0,0.0023928226,1114658,1377,2710,-6789,-8
31042211,4220,0,0.11961353,1.0385406,-10.971915,0.02952714,-0.009697939,-0.07122822,49.0,78.0,0.0023928226,1114658,3690,3196,-4658,9567
31142981,4209,0,0.22006626,-0.48349512,-10.618717,0.014100169,-0.009934435,-0.042901125,48.875,78.0,0.0023928226,1114658,1794,2078,-4715,9563
31249024,4201,0,0.65219396,-0.38232756,-11.030255,-0.0018286181,0.013962057,-0.008791357,48.875,78.0,0.0023928226,1114658,-1703,-1712,754,8193
31347768,6345,0,-0.23918632,1.0371543,-10.884619,0.030993305,0.012749135,-0.055309813,48.875,78.0,0.0023928226,1114658,-240,-868,-574,10338
31451676,4204,0,0.004737123,1.6733402,-10.125267,-0.01494131,-0.008616102,-0.005562957,48.875,78.0,0.0023928226,1114658,1704,-1128,-1734,8193
31557723,5181,0,-1.023125,-1.1825149,-11.021302,-0.029931134,-0.01548683,-0.042368468,49.0,78.0,0.0023928226,1114658,895,3517,-1210,9576
31660623,4081,0,-0.92980254,-0.9682108,-10.444613,0.0075750872,0.0062577277,-0.07045666,49.0,78.0,0.0023928226,1114658,-683,3659,-5990,8193
31759323,4126,0,-0.663758,0.386849,-8.653511,-0.0026762024,0.0070113973,-0.010557331,49.0,78.0,0.0023928226,1114658,-170,3469,-5552,2048
31865408,4235,0,0.77747536,1.5270913,-10.097261,-0.0072453315,0.0028069152,-0.018498316,49.0,78.0,0.0023928226,1114658,226,-932,-4652,9582
31963023,4125,0,0.31959054,1.6555753,-10.030395,0.041879024,-0.0024405867,-0.07557907,49.0,78.0,0.0023928226,1114658,232,1306,-5024,9589
32063866,4160,0,-0.836372,-0.36172715,-10.20087,-0.0068425937,-0.0061954386,-0.040768933,48.875,78.0,0.0023928226,1114658,327,4161,-1510,0
32169914,4241,0,-1.442283,-0.7625975,-10.075132,-0.039905183,0.00891371,-0.053855624,48.875,78.0,0.0023928226,1114658,-1454,2145,-3790,-7
32267523,5251,0,-1.1086468,-0.5235503,-8.889174,0.031249033,0.007769868,-0.07692735,49.0,78.0,0.0023928226,1114658,-717,6433,-8550,8192
32368322,4163,0,0.18263155,1.0046599,-8.914013,-0.03420476,0.007948206,-0.04174129,48.875,78.0,0.0023928226,1114658,-1420,-2752,-5254,-7
32472288,5265,0,1.1170595,1.4651327,-10.275751,0.042629268,0.0014301518,-0.07832966,48.875,78.0,0.0023928226,1114658,42,483,-885,2049
32575173,4156,0,0.57965636,-0.7811997,-10.579627,0.03664852,-0.0011807178,-0.042049307,48.75,78.0,0.0023928226,1114658,601,3668,-843,8193
32674924,4201,0,1.5022446,-0.9225657,-9.843822,-0.028090723,-0.0076217214,-0.021355225,49.0,78.0,0.0023928226,1114658,1658,-5722,-3069,9577
32779922,4165,0,1.5575777,0.24141103,-8.922684,-0.020259898,0.005065915,-0.03135153,49.0,78.0,0.0023928226,1114658,-893,-5892,-4513,8192
32881777,5255,0,-0.025977036,1.8632057,-7.7585516,0.054153536,-0.004665059,-0.045511533,48.875,78.0,0.0023928226,1114658,1667,4697,-3749,16963
32983674,5301,0,2.4155343,0.1875275,-8.040795,0.010220827,0.0028145807,-0.06484535,49.0,78.0,0.0023928226,1114658,-380,-5696,-5102,2049
33082322,4192,0,1.4378897,-0.56489503,-8.138399,0.0149067305,0.0011811538,-0.037483092,48.875,78.0,0.0023928226,1114658,-702,-3317,-2723,-7
33183158,4236,0,1.670478,-0.2352465,-7.830199,-0.02188513,-0.0016833358,-0.011428243,48.875,78.0,0.0023928226,1114658,241,-5742,-5172,-7
33284973,4200,0,-0.9038033,1.2489061,-8.022991,-0.017784294,0.015671773,-0.07790211,49.0,78.0,0.0023928226,1114658,-1693,1536,-10004,9582
33386935,5362,0,0.7560468,2.1638565,-8.950969,-0.038529422,-0.0041329265,-0.028832776,49.0,78.0,0.0023928226,1114658,355,-3346,-1615,9581
33491823,4101,0,0.45665774,-0.6958527,-9.169863,-0.041428227,-0.0127097145,-0.03151933,48.875,78.0,0.0023928226,1114658,1739,-3745,-7151,10394
33591572,4200,0,1.0411333,-0.7285099,-10.805332,0.020139484,-0.008045372,-0.007858009,48.875,78.0,0.0023928226,1114658,1443,-264,126,16963
33694503,4230,0,1.2029319,-1.2894061,-10.895594,-0.00045857235,-5.565634e-05,-0.018760247,48.875,78.0,0.0023928226,1114658,-1192,-2298,173,2049
33796322,4163,0,0.064353794,0.5516814,-10.204902,0.01174498,-0.0052925823,-0.020336319,48.875,78.0,0.0023928226,1114658,349,-1444,-1787,10392
33902373,4187,0,-0.34282956,1.8720618,-9.861978,0.0025499715,0.0023396555,-0.078288704,49.0,78.0,0.0023928226,1114658,-122,4966,-7805,9597
34000023,5247,0,-0.8402272,2.3757021,-10.40663,-0.020417452,0.0071870256,-0.061965577,49.0,78.0,0.0023928226,1114658,-168,2472,-7702,10390
34102931,4182,0,1.029533,0.32339814,-12.678629,-0.0008329767,-0.011109703,-0.023877941,48.875,78.0,0.0023928226,1114658,1283,-386,3453,9582
34204798,5276,0,-0.1750242,-0.88443726,-10.88065,-0.024356287,-0.008248691,-0.035689246,48.875,78.0,0.0023928226,1114658,548,1690,-4371,-7
34305609,4192,0,-0.0697942,-0.9091633,-11.297742,0.001417179,-0.001443253,-0.032305248,48.875,78.0,0.0023928226,1114658,447,1158,-1322,-8
34409523,5251,0,-0.59291977,0.79528636,-9.897379,-0.004130034,0.02489597,-0.053333104,49.0,78.0,0.0023928226,1114658,-1695,2224,-10721,9582
34510372,4213,0,0.17776722,1.761729,-11.268591,0.008877438,0.015395454,-0.05354852,48.875,78.0,0.0023928226,1114658,-433,196,-640,2048
34607999,5264,0,0.6821883,1.5454925,-9.800241,0.005205697,-0.00335837,-0.08523198,48.875,78.0,0.0023928226,1114658,976,-1300,-5860,-8
34712973,4199,0,-0.5757797,0.5876725,-10.805244,0.004492031,-0.001862407,-0.058626335,49.0,78.0,0.0023928226,1114658,2386,4673,-3139,9599
34814874,4252,0,1.0572261,-0.65762115,-11.6357,0.014209384,0.008453696,-0.07284703,49.0,78.0,0.0023928226,1114658,677,-887,566,2049
34915721,4299,0,0.766596,-0.6144863,-10.499076,0.019427653,0.00055502955,-0.06690101,48.875,78.0,0.0023928226,1114658,-1198,-895,-3680,9597
35018522,6300,0,0.23672602,0.7471071,-9.643403,-0.011591319,0.02186274,-0.055779833,48.875,78.0,0.0023928226,1114658,-960,-1001,-2974,-8
35120372,4200,0,0.453333,1.6683737,-8.86787,-0.049215034,-0.0071822624,-0.06017599,49.0,78.0,0.0023928226,1114658,745,-3260,-7094,10424
35222243,5270,0,0.6459856,-0.36287868,-9.09749,-0.015987122,-0.01727097,-0.055327937,48.875,78.0,0.0023928226,1114658,379,-1737,-6623,9594
35324072,5150,0,-1.0381017,-1.0446101,-10.608981,-0.047390185,0.0007098463,-0.049723856,48.875,78.0,0.0023928226,1114658,-1529,-2298,-4335,0
35424873,4200,0,-0.14375558,-0.8491409,-8.921823,-0.008546628,0.012262444,-0.028407767,49.0,78.0,0.0023928226,1114658,110,-2234,-6987,0
35526722,4200,0,0.01091501,0.76661754,-8.876,-0.010480045,0.006295086,-0.036264222,49.0,78.0,0.0023928226,1114658,-885,-1339,-4960,8192
35625447,4121,0,-0.20082496,2.0517836,-8.626762,0.0371851,-0.000977187,-0.031785835,49.0,78.0,0.0023928226,1114658,1790,2727,-5953,-8
35729373,4201,0,0.27477977,1.3080131,-8.6873455,0.04144004,-0.012262517,-0.049114335,49.0,78.0,0.0023928226,1114658,1291,2825,-6081,9590
35830211,4239,0,-0.3327341,-0.02009786,-8.923226,-0.042805046,-0.018498378,-0.019338122,49.0,78.0,0.0023928226,1114658,2501,-1754,-4077,9596
35932023,5251,0,1.777147,-0.67308396,-10.680975,-0.006205849,0.008033896,-0.05090874,49.0,78.0,0.0023928226,1114658,10,-5031,1633,10436
36034924,4177,0,-0.9088988,0.39872697,-9.79356,0.054036316,0.011173822,-0.0298129,49.0,78.0,0.0023928226,1114658,530,5131,-1811,9599
36138975,4297,0,0.43656778,2.9265807,-9.324725,0.042227756,0.0007514165,-0.03009732,49.0,78.0,0.0023928226,1114658,1718,2338,-3019,9597
36242964,4335,0,1.2797031,0.41826397,-9.731644,0.041414294,-0.0075234096,-0.054516558,49.0,78.0,0.0023928226,1114658,-234,-188,-4411,9597
36343721,4299,0,-0.7026173,-1.7579192,-9.751918,0.019995622,-0.0074079093,-0.07516028,48.75,78.0,0.0023928226,1114658,-400,4286,-7767,9600
36445473,4125,0,-1.2021627,-1.5213649,-9.375099,-0.033607278,-0.0049584797,-0.06269479,49.0,78.0,0.0023928226,1114658,-1227,1429,-6922,9601
36546273,4117,0,0.6626035,-0.42489615,-10.32114,-0.00909923,0.021585455,-0.04571512,49.125,78.0,0.0023928226,1114658,-1672,-2735,-1119,9589
36646106,4283,0,-1.1456496,1.5202078,-9.8383255,0.016528755,0.0058398996,-0.06790391,49.0,78.0,0.0023928226,1114658,181,3659,-3051,9596
36750020,5297,0,-0.3956138,1.992833,-8.805363,-0.00095493364,-0.00019174506,-0.046052225,49.0,78.0,0.0023928226,1114658,355,2927,-6094,2049
36848673,4130,0,1.3816187,0.8806277,-9.725217,-0.0033816944,-0.024710922,-0.01952329,49.0,78.0,0.0023928226,1114658,1086,-3930,-3588,8193
36949473,4175,0,0.30815023,-0.81868786,-9.417203,0.023272956,-0.008016051,-0.069376715,49.0,78.0,0.0023928226,1114658,509,3720,-7036,9594
37053423,4125,0,-1.2933934,-1.4906682,-10.524861,0.00060747797,0.0065465965,-0.06958039,49.0,78.0,0.0023928226,1114658,-504,3864,-3356,-8
37154223,4095,0,-0.058277916,0.58092606,-10.172335,-0.016623702,0.024816535,-0.018478269,49.125,78.0,0.0023928226,1114658,385,19,1069,-8
37260272,4200,0,-0.5406175,2.12079,-8.331379,-0.007257051,0.0063294084,-0.039525405,48.875,78.0,0.0023928226,1114658,-1023,4732,-8017,8192
37362128,4201,0,-0.69555557,0.4438918,-10.053652,-0.031554375,-0.0074112266,-0.043544088,49.0,78.0,0.0023928226,1114658,1574,2791,-3454,9604
37465023,4174,0,0.25572604,-1.455699,-10.464677,-0.026519714,-0.010890415,-0.035209097,49.0,78.0,0.0023928226,1114658,1547,571,-1424,8193
37566899,4226,0,1.1580238,-1.0070038,-10.238171,-0.01895146,0.0014559824,-0.023580182,49.0,78.0,0.0023928226,1114658,-416,-5002,-709,10468
37665577,4203,0,-2.0155275,-0.37037215,-10.544045,0.02746912,0.0056586238,-0.066634744,49.0,78.0,0.0023928226,1114658,119,6401,-2203,2048
37769523,4195,0,1.0371091,2.294338,-9.502434,0.030152792,0.016777422,-0.034489617,49.0,78.0,0.0023928226,1114658,1439,-564,-2227,2048
37870356,4227,0,-1.1433655,1.8798985,-10.0075445,0.015604027,0.011407472,-0.035513416,49.125,78.0,0.0023928226,1114658,978,5607,-2012,2049
37970125,4243,0,-0.56482,0.5183424,-10.106744,-0.025880637,-0.0056106984,-0.048245363,49.0,78.0,0.0023928226,1114658,2292,1630,-3046,9604
38070880,4207,0,-0.07628347,-0.9898415,-10.528632,-0.03267275,0.00929123,-0.037583422,48.875,78.0,0.0023928226,1114658,2036,1030,-1845,2049
38174898,4276,0,-0.7443631,-0.5846672,-10.043017,-0.021548357,0.0012738669,-0.045645867,49.125,78.0,0.0023928226,1114658,-654,3043,-1359,10489
38273523,4201,0,-0.9913466,-0.106033675,-9.435575,-0.025164498,0.018057898,-0.05797547,49.125,78.0,0.0023928226,1114658,-1579,1181,-7114,9612
38381673,4198,0,0.66781545,1.7794181,-9.605137,-0.030838544,-0.00776255,-0.0066788234,49.0,78.0,0.0023928226,1114658,709,-2234,1043,8193
38478293,4145,0,0.66194826,1.0783395,-10.149591,0.0075594424,0.0020508787,-0.067702904,49.0,78.0,0.0023928226,1114658,408,1403,-4753,-8
38582224,4102,0,1.4577333,-1.0993379,-10.710292,-0.0031264655,0.004272754,-0.035119213,49.0,78.0,0.0023928226,1114658,662,-3183,-2490,9601
38683023,4125,0,0.13684747,-1.0620941,-9.095691,-0.034305524,-0.00045226014,-0.047555815,49.125,78.0,0.0023928226,1114658,-64,-1610,-7736,8192
38786992,4215,0,0.9147187,1.088305,-9.251049,0.034329828,0.009677824,-0.052329622,49.0,78.0,0.0023928226,1114658,-485,-495,-3707,9619
38887781,6268,0,1.2855062,2.0247707,-9.001942,0.010108857,-0.007779264,-0.029630508,49.0,78.0,0.0023928226,1114658,1539,-3032,-5336,9602
38989623,5251,0,1.1145139,0.67978966,-10.227434,-0.004516179,-0.018664373,-0.05917992,49.0,78.0,0.0023928226,1114658,1433,-1302,-2396,-8
39088322,4161,0,1.591799,-0.64335173,-10.847739,0.00040494505,-0.009810137,-0.061523307,49.0,78.0,0.0023928226,1114658,-27,-3624,-197,9608
39192308,4235,0,-1.8905535,-1.6532732,-10.998643,0.017748704,0.005418242,-0.0629428,49.0,78.0,0.0023928226,1114658,-751,4999,-2136,2049
39293073,4200,0,0.785179,-0.3694619,-9.62637,0.011725998,-0.002135547,-0.053908385,49.0,78.0,0.0023928226,1114658,-148,-3497,-6125,2048
39397026,4194,0,-0.79066026,1.0160632,-8.099749,0.0012936225,0.008982489,-0.03722453,49.0,78.0,0.0023928226,1114658,-1495,5251,-7051,8193
39500987,5233,0,1.7613213,0.15667237,-9.051137,0.016984839,-0.024573477,-0.07290839,48.875,78.0,0.0023928226,1114658,1261,-2655,-4830,-8
39599729,4249,0,1.2345114,-0.39585677,-10.425288,-0.0006880403,-0.020697176,-0.040550478,49.125,78.0,0.0023928226,1114658,1079,-1529,-680,9603
39705725,5176,0,-0.5037903,-0.66143376,-8.796853,-0.036791794,0.0064675035,-0.066888794,49.0,78.0,0.0023928226,1114658,-1021,-694,-8936,2048
39802323,4171,0,0.89809096,-0.41856542,-10.203617,-0.026907992,0.0063774516,-0.00024360261,49.0,78.0,0.0023928226,1114658,-295,-3214,52,9605
39904172,5216,0,1.0264052,1.0316894,-8.750858,-0.00015192016,-0.0029592302,-0.02360688,49.25,78.0,0.0023928226,1114658,877,-2922,-4865,-8
40009173,4200,0,-0.54691786,1.3652985,-9.3346,0.0015634868,0.0008362255,-0.0672786,49.0,78.0,0.0023928226,1114658,784,4141,-4893,-8
40106899,4277,0,0.47379598,0.50634897,-9.424379,-0.035878353,-0.009227124,-0.043404594,49.125,78.0,0.0023928226,1114658,801,-2164,-5042,10546
40211823,4094,0,-0.2910061,-1.4487479,-10.849468,0.0027121617,-0.0049691047,-0.04584589,49.125,78.0,0.0023928226,1114658,-7,2405,-1580,8192
40313686,5167,0,-0.24337927,-0.3589544,-9.87703,0.0343366,0.004235676,-0.038980614,49.0,78.0,0.0023928226,1114658,416,3068,-2818,8193
40412406,4233,0,-0.9657881,0.63239926,-9.997092,0.0036354312,0.007154696,-0.038004924,49.0,78.0,0.0023928226,1114658,-1309,5463,-1458,-8
40513190,4209,0,0.034017097,1.3595401,-8.618795,-0.0048983907,0.01070311,-0.028513951,49.0,78.0,0.0023928226,1114658,-1183,1952,-5022,8193
40621352,6329,0,1.9668757,0.2692115,-10.842,0.011533886,-0.019753698,-0.062281575,49.0,78.0,0.0023928226,1114658,723,-4081,911,9616
40721073,4193,0,0.9589375,-1.9673151,-9.9594145,0.027159024,-0.010312556,-0.02857176,48.875,78.0,0.0023928226,1114658,-545,-149,-2467,9622
40825023,5250,0,0.4058986,-0.59349686,-11.972804,-0.012497605,0.018835608,-0.038524285,49.0,78.0,0.0023928226,1114658,-464,-316,1974,8193
40925823,4200,0,1.3353355,0.73636067,-9.812534,-0.011825835,0.0038958928,-0.013711611,49.0,78.0,0.0023928226,1114658,-1379,-4597,186,-8
41026667,4232,0,1.3910438,1.8626174,-9.488137,0.026813366,0.0028390933,-0.0013624997,49.0,78.0,0.0023928226,1114658,-376,-2310,-2610,2049
41128543,4271,0,0.2784025,0.8818354,-9.718082,0.035695925,0.0023502745,-0.042037465,49.0,78.0,0.0023928226,1114658,686,1946,-4047,9619
41229329,4256,0,-0.47821796,-1.1060948,-10.0037365,0.003889531,0.0011938702,-0.07801317,49.0,78.0,0.0023928226,1114658,-563,3944,-5850,9623
41329051,4228,0,0.60072076,-1.6262707,-10.63509,-0.025388997,-0.0011841616,-0.04407367,49.0,78.0,0.0023928226,1114658,1039,-2073,-590,-8
41430906,4233,0,1.7975968,-1.4041376,-11.504866,0.01804712,0.012168344,-0.014450382,49.0,78.0,0.0023928226,1114658,-2896,-2895,491,10564
41531722,4250,0,-0.5348331,0.6999004,-9.157005,0.017275551,0.011155062,-0.041916434,49.125,78.0,0.0023928226,1114658,-149,4233,-5830,9623
41637723,4200,0,0.61792725,1.9843037,-9.825462,0.04271582,-0.01629432,-0.028212953,49.0,78.0,0.0023928226,1114658,3249,2770,-2333,9616
41739572,5249,0,-1.0183847,-0.8718551,-9.280194,-0.0024943848,-0.010071455,-0.082802795,49.125,78.0,0.0023928226,1114658,-317,5230,-7116,-8
41841423,5251,0,1.0443722,-1.1903678,-10.512346,-0.043676067,-0.012390762,-0.025070468,49.0,78.0,0.0023928226,1114658,2349,-4338,-785,9635
41942223,4101,0,-0.16225307,-1.3803762,-9.75758,0.031341393,0.016394908,-0.03870422,48.875,78.0,0.0023928226,1114658,-1334,-436,-6117,9625
42043023,4117,0,-1.2818874,0.74640006,-9.907806,-0.0033147219,0.021231158,-0.033431355,49.0,78.0,0.0023928226,1114658,-328,4833,-1845,10581
42144873,4200,0,1.1331398,1.7299517,-8.622056,-0.026335947,0.010523231,-0.038989093,49.0,78.0,0.0023928226,1114658,-641,-3812,-5218,-8
42245684,4167,0,-0.5281689,2.2066479,-9.689137,0.038336407,0.0031655745,-0.061146133,49.0,78.0,0.0023928226,1114658,2335,5918,-2872,-8
42349623,4200,0,-0.5462452,-0.97194463,-9.10318,0.019538442,-0.0059599984,-0.06219649,48.875,78.0,0.0023928226,1114658,708,4538,-12219,-8
42449406,5248,0,1.351233,-1.1055105,-10.850794,0.05029495,-0.00082538207,-0.07181487,49.125,78.0,0.0023928226,1114658,671,116,-1803,9631
42554373,4168,0,0.90134454,0.008730582,-9.17184,0.022503069,0.0071016997,-0.045699194,49.25,78.0,0.0023928226,1114658,-440,-1604,-4534,9624
42652022,4198,0,-1.4115003,0.9227076,-9.078182,-0.015686247,0.022083405,-0.050009906,49.0,78.0,0.0023928226,1114658,-2812,5019,-4856,-8
42757023,4200,0,-0.6244707,2.0381422,-8.6860695,0.00064711255,0.0068846927,-0.018305268,49.0,78.0,0.0023928226,1114658,-299,4666,-5688,-8
42860973,4200,0,-0.2748077,-0.77168065,-10.286308,-0.034458157,-0.009303251,-0.032163203,49.125,78.0,0.0023928226,1114658,2226,678,-837,8193
42962914,4291,0,1.6158197,-1.4300677,-10.05476,0.009768283,0.0005961321,-0.004970741,49.125,78.0,0.0023928226,1114658,-1109,-3970,-2323,10607
43065721,4199,0,-0.7092734,-0.21633314,-10.460611,0.03907965,0.01781254,-0.060017027,49.125,78.0,0.0023928226,1114658,-1386,3443,-1877,2048
43163372,4199,0,0.707561,0.4471112,-8.936463,-0.01508835,0.010918518,-0.043781545,49.125,78.0,0.0023928226,1114658,-1840,-4261,-6907,8192
43264172,4199,0,0.3888273,1.8716981,-10.437038,0.027892414,-0.0007899224,-0.048085377,49.125,78.0,0.0023928226,1114658,689,173,-571,8192
43366168,4346,0,1.5302974,1.7750031,-9.292332,0.044051573,-0.016844165,-0.041936837,49.125,78.0,0.0023928226,1114658,2531,-655,-5835,9641
43466924,4302,0,-0.06933831,-0.62460774,-9.392871,0.04338761,-0.009751579,-0.077902794,49.125,78.0,0.0023928226,1114658,1146,3976,-9507,10615
43570818,4245,0,0.65332896,-1.7787472,-11.097253,0.02298168,0.001996188,-0.011946979,49.125,78.0,0.0023928226,1114658,-558,-548,1587,2049
43670523,5201,0,0.42656133,-0.87453985,-10.363526,0.027559564,0.0052650585,-0.053464744,49.0,78.0,0.0023928226,1114658,-80,803,-1225,8192
43771323,4126,0,-0.57831293,0.97004396,-9.926219,0.022507047,0.013406884,-0.03508768,49.125,78.0,0.0023928226,1114658,-898,4517,-786,2049
43876322,4159,0,0.29303432,1.4846038,-9.302932,-0.02565049,0.002007557,-0.03852796,49.125,78.0,0.0023928226,1114658,699,-734,-2404,8192
43980272,4200,0,0.62578946,-0.7903974,-9.846785,-0.015042309,-0.010183448,-0.07149004,49.125,78.0,0.0023928226,1114658,1736,-308,-8216,-8
44082168,4245,0,-1.0495644,-1.4411898,-10.770577,-0.01821604,0.0012147466,-0.08810007,49.25,78.0,0.0023928226,1114658,183,2959,-3800,9644
44182958,4220,0,-0.7778278,-0.78694344,-9.698131,0.025743261,0.0065930905,-0.06905032,49.125,78.0,0.0023928226,1114658,-1324,3784,-2579,10621
44282716,4244,0,0.5528148,1.2583926,-9.309686,0.009765179,0.011843668,-0.047024425,49.25,78.0,0.0023928226,1114658,-992,-2832,-5911,-8
44387731,6356,0,-1.4777601,1.742589,-9.773415,-0.0012057661,0.0076061795,-0.08805395,49.125,78.0,0.0023928226,1114658,3213,4494,-1095,9636
44489523,4173,0,1.6608891,-0.26719868,-10.905377,-0.00047551154,-0.016006758,-0.008964753,49.125,78.0,0.0023928226,1114658,1307,-2273,557,9636
44590366,4235,0,0.18972209,-1.543096,-10.072092,-0.021969797,-0.005237162,-0.034041643,49.125,78.0,0.0023928226,1114658,569,-1170,-4631,2049
44687973,5251,0,0.80864966,-1.156498,-9.922932,-0.017217236,-0.0008317464,-0.073052146,49.0,78.0,0.0023928226,1114658,901,-1264,-6755,9631
44790899,5264,0,-0.47436774,0.18579184,-11.274896,-0.007983654,0.009400322,-0.07192097,49.125,78.0,0.0023928226,1114658,913,1914,45,10637
44892723,5251,0,-0.2435736,1.1663299,-10.142569,0.006617312,0.011293868,-0.04425336,49.0,78.0,0.0023928226,1114658,-592,1014,433,2048
44997723,4197,0,0.6345418,0.13395418,-10.517042,-0.0013593141,-0.021871477,-0.038061548,49.125,78.0,0.0023928226,1114658,1869,-724,107,9642
45099572,4200,0,0.67932767,-1.1387575,-10.242653,-0.00995579,-0.017411115,-0.0069418596,49.125,78.0,0.0023928226,1114658,1225,-840,-2677,-8
45200381,6259,0,-0.2930075,-0.7657583,-9.920798,-0.004363353,-0.0019424895,-0.02536625,49.125,78.0,0.0023928226,1114658,-2014,2137,-4194,8193
45302241,5269,0,1.1669624,0.783977,-9.123055,0.009093612,0.004100748,-0.067056604,49.125,78.0,0.0023928226,1114658,547,-2238,-4920,8193
45405159,6238,0,-0.52063286,1.4082636,-9.126122,-0.019824782,0.009453854,-0.061967876,49.125,78.0,0.0023928226,1114658,663,2973,-3777,-8
45506973,5235,0,0.6299632,0.63624203,-10.010109,0.016518129,-0.0016941398,-0.084968165,49.125,78.0,0.0023928226,1114658,2580,421,-6392,8193
45607795,4222,0,0.9432822,-1.0317857,-11.677627,-0.0037507205,-0.0064611905,-0.03237951,49.125,78.0,0.0023928226,1114658,155,-2353,1773,2049
45706472,4199,0,1.4644177,-1.5050112,-10.995642,-0.019115152,-0.0061185225,-0.053863816,49.125,78.0,0.0023928226,1114658,-2004,-2701,3541,-8
45808322,4163,0,-1.1639979,-0.2566499,-10.09881,0.0032443043,0.0032512199,-0.027976297,49.125,78.0,0.0023928226,1114658,392,3907,-1859,8192
45911223,4200,0,0.97338116,1.3706862,-9.19779,-0.00092437933,0.003809995,-0.045337405,49.125,78.0,0.0023928226,1114658,2038,-3145,-6119,10661
46015203,4215,0,-0.65952164,0.8163323,-9.791162,0.0074952194,0.0055945627,-0.059235297,49.0,78.0,0.0023928226,1114658,712,5288,-1955,2048
46117029,4206,0,1.7074952,-0.4607801,-10.825117,0.036165167,-0.0017065066,-0.029907508,49.125,78.0,0.0023928226,1114658,2668,-1040,-122,-8
46220973,4186,0,-1.4100386,-0.42847332,-8.727243,-0.011887326,0.0035746444,-0.021873413,49.125,78.0,0.0023928226,1114658,1131,3498,-8374,2048
46321773,4167,0,0.18407801,1.3275025,-8.352182,0.025215704,0.014989171,-0.048339736,49.125,78.0,0.0023928226,1114658,1250,461,-9423,16964
46422573,4199,0,0.28645542,1.3099455,-9.813824,-0.011180007,0.0010708863,-0.057714608,49.125,78.0,0.0023928226,1114658,-838,-1605,-2012,9660
46524542,4320,0,-0.20181541,0.95842123,-9.969946,0.0040768893,-0.017094202,-0.014262193,49.125,78.0,0.0023928226,1114658,2067,3324,-417,9669
46627322,4163,0,0.27910668,-1.2555058,-9.531703,-0.00053119677,-0.020072931,-0.055779185,49.125,78.0,0.0023928226,1114658,1041,-404,-5019,0
46729173,4200,0,0.33472946,-1.2355963,-9.62719,0.006741596,0.0040576113,-0.032736655,49.125,78.0,0.0023928226,1114658,-1771,-433,-3575,8193
46827873,4151,0,0.78491956,0.086333826,-9.203908,0.016471757,0.013358702,-0.028491236,49.25,78.0,0.0023928226,1114658,897,-2162,-5407,9662
46929738,4215,0,-0.31658033,1.1054295,-9.582143,-0.03862588,0.016265472,-0.047113124,49.125,78.0,0.0023928226,1114658,-227,2372,-3411,-8
47030522,4200,0,-0.23247117,0.9580052,-9.308037,0.014952962,0.006453092,-0.054030977,49.0,78.0,0.0023928226,1114658,1724,2235,-6408,-8
47134472,4199,0,0.24446604,-1.0724448,-10.348527,0.032506898,-0.014747799,-0.026687218,49.125,78.0,0.0023928226,1114658,317,1753,-194,-8
47235319,4246,0,0.8526562,-1.2829226,-10.131453,-0.010604225,0.00014578646,-0.05617856,49.125,78.0,0.0023928226,1114658,-708,-1915,-2385,2049
47335039,4140,0,0.0997425,-0.48032284,-10.814379,0.010706261,0.016455373,-0.041673355,49.125,78.0,0.0023928226,1114658,-2052,338,-434,10680
47435852,4107,0,-0.2370316,0.47747633,-10.137678,-0.019596683,0.00074673153,-0.011044463,49.125,78.0,0.0023928226,1114658,-1744,-975,1996,9677
47539789,4217,0,-0.17071469,1.2174007,-10.149462,-0.0038988933,0.005844212,-0.081102036,49.125,78.0,0.0023928226,1114658,259,3498,-3352,9670
47641623,4176,0,0.09950584,-0.5213231,-10.298317,0.034541875,-0.009404292,-0.03561002,49.25,78.0,0.0023928226,1114658,2405,4190,-2563,16965
47742423,4152,0,0.010456482,-1.6029229,-10.703691,0.023876345,-0.00025175972,-0.06412765,49.125,78.0,0.0023928226,1114658,846,3442,-4914,9673
47843223,4200,0,-0.53247803,-1.1222571,-10.260401,0.024819193,0.004333118,-0.04535123,49.125,78.0,0.0023928226,1114658,2233,1529,-3718,2049
47945073,4200,0,-1.0268674,0.66178894,-9.424966,0.038069118,0.008361621,-0.029435921,49.125,78.0,0.0023928226,1114658,-351,4704,-2868,9690
48046952,5279,0,0.047736604,1.7274057,-10.367696,0.014682675,0.011217005,-0.08825443,49.25,78.0,0.0023928226,1114658,166,1880,-2276,10691
48147751,4229,0,0.6739526,0.9293327,-8.917137,0.040048275,-0.008279384,-0.04065835,49.25,78.0,0.0023928226,1114658,2908,2527,-6180,9677
48248549,4227,0,-0.8539685,-0.9049221,-9.270423,0.012830503,-0.007291394,-0.05530353,49.125,78.0,0.0023928226,1114658,432,5025,-6429,9677
48352569,4297,0,-0.7422941,-2.1091042,-10.327779,0.026777571,-0.0054468005,-0.030868161,49.0,78.0,0.0023928226,1114658,1,3528,-2604,9677
48451173,4200,0,-0.9765718,-0.86705244,-9.352511,-0.023705257,0.005964662,-0.037344735,49.125,78.0,0.0023928226,1114658,-933,1304,-4272,8192
48553023,5225,0,-0.47688243,1.107852,-9.06991,-0.017983334,0.023960665,-0.05117985,49.125,78.0,0.0023928226,1114658,-1667,1897,-4021,-7
48658098,4264,0,-0.477381,1.3012823,-8.949203,0.023092542,-0.0048979796,-0.06183616,49.125,78.0,0.0023928226,1114658,1491,5598,-6012,9683
48757782,5239,0,-0.0044727414,-0.10514979,-9.744758,-0.023411151,-0.008439555,-0.08741374,49.0,78.0,0.0023928226,1114658,997,71,-7008,9702
48860674,6262,0,-1.025636,-1.6350222,-10.734018,-0.013112357,-0.00073736813,-0.04970011,49.125,78.0,0.0023928226,1114658,-409,5289,-1426,8193
48966771,4249,0,0.2712498,1.2320772,-10.421968,0.016967433,0.009368612,-0.02577507,49.25,78.0,0.0023928226,1114658,133,690,3368,2049
49064372,5211,0,-1.1173618,1.4427431,-9.738489,0.022511186,0.017596874,-0.06297818,49.125,78.0,0.0023928226,1114658,-1843,6017,-212,0
49169373,4200,0,1.1171057,0.6223872,-10.155294,0.019409025,0.002493801,-0.042018015,49.25,78.0,0.0023928226,1114658,163,-514,-4656,9698
49270215,4242,0,1.7054766,-1.0058534,-11.096136,0.013604381,-0.0059740315,-0.07811117,49.25,78.0,0.0023928226,1114658,429,-2349,-1288,8192
49367839,4141,0,-0.22819217,-1.1733571,-9.727907,-0.0061252024,-0.005562685,-0.085227534,49.125,78.0,0.0023928226,1114658,475,3801,-3988,-7
49473873,5236,0,1.0046573,-0.027970107,-9.151384,-0.00077543216,-0.0005978089,-0.050389443,49.125,78.0,0.0023928226,1114658,-736,-3501,-4521,0
49574673,4200,0,0.82187676,1.9403844,-9.762966,0.00070801313,0.0039059897,-0.051358066,49.125,78.0,0.0023928226,1114658,1254,-3986,-5421,2049
49672372,5298,0,-0.6446706,2.0070078,-9.77275,-0.010969377,0.025043923,-0.082244635,49.25,78.0,0.0023928226,1114658,-726,2793,-4175,8192
49775223,4181,0,1.2544836,1.0946281,-8.8948765,0.025304535,-0.0069948905,-0.07193299,49.25,78.0,0.0023928226,1114658,2450,784,-9026,2049
49877072,5215,0,0.56835115,-0.7888928,-11.059672,0.046625398,-0.0016019371,-0.050362896,49.0,78.0,0.0023928226,1114658,1406,4391,-747,2048
49978951,5271,0,-1.2643517,-2.1383994,-10.0298195,0.015292987,0.005076654,-0.0751147,49.25,78.0,0.0023928226,1114658,-351,5106,-7368,10734
50083923,4195,0,-0.5356712,1.0210812,-9.451125,0.041369036,0.012486086,-0.02520073,49.125,78.0,0.0023928226,1114658,210,3795,-2443,0
50185772,4199,0,-0.32015654,2.2453992,-9.964109,-0.008371633,0.014904792,-0.076852016,49.125,78.0,0.0023928226,1114658,-211,4192,-2722,-8
50286575,4202,0,0.16770658,1.2896185,-9.672913,-0.04563757,-0.024486814,-0.027417198,49.125,78.0,0.0023928226,1114658,2179,-3687,-3581,-8
50386323,4197,0,1.1713668,0.43034536,-9.722492,0.0325217,-0.010445321,-0.05528613,49.125,78.0,0.0023928226,1114658,2042,427,-7977,9686
50491322,4161,0,1.3234764,-1.9985867,-9.630631,-0.015504043,0.0017391643,-0.026489656,49.25,78.0,0.0023928226,1114658,-481,-4477,-5806,-8
50591109,4172,0,-0.69951415,-1.1424224,-11.117855,0.025779955,0.0052254116,-0.060455445,49.125,78.0,0.0023928226,1114658,701,4818,136,-8
50695024,5207,0,-0.5633756,1.8159356,-8.889074,0.030089585,0.0042086006,-0.08127652,49.25,78.0,0.0023928226,1114658,498,3410,-7667,10748
50795823,4102,0,-0.6768701,2.1681392,-9.175596,0.007233959,0.0053138454,-0.044345334,49.125,78.0,0.0023928226,1114658,1758,4821,-3968,9677
50896642,4100,0,-0.15773496,0.677194,-6.982348,-0.029744552,-0.0097527895,-0.02371008,49.0,78.0,0.0023928226,1114658,1679,271,-6354,2048
51611729,4257,0,-1.2615572,-1.0847524,-10.016543,-0.032085743,-0.006130739,-0.022043565,49.125,78.0,0.0023928226,1114658,-386,2426,-2828,9695
51715729,4306,0,-0.34678438,1.3807604,-9.249706,-0.007816041,0.012249508,-0.07182008,49.125,78.0,0.0023928226,1114658,-84,2775,-6916,9687
51817473,4174,0,-0.6202941,1.6073155,-10.341905,0.025298508,0.009827538,-0.061798643,49.25,78.0,0.0023928226,1114658,1239,3896,-1064,9695
51918273,4150,0,1.5000343,-0.11421187,-10.679101,0.030709874,-0.00018730154,-0.049654953,49.0,78.0,0.0023928226,1114658,2744,-1186,-1962,9693
52020157,4234,0,0.2848409,-1.3650135,-10.61784,0.003063891,-0.0021497225,-0.009723058,49.25,78.0,0.0023928226,1114658,829,-930,-1861,-8
52120933,4209,0,0.7573887,-0.9690404,-9.813689,0.007501407,0.006482829,-0.020724079,49.25,78.0,0.0023928226,1114658,102,-2168,-3203,8193
52222806,5283,0,0.04612774,0.47636586,-9.174415,-0.03439606,0.008553928,-0.047754183,49.125,78.0,0.0023928226,1114658,-384,-1946,-4604,2049
52324623,5251,0,0.5668524,1.6435341,-8.85,-0.03193934,-8.497841e-05,-0.06763151,49.25,78.0,0.0023928226,1114658,-184,-3218,-5237,2048
52425423,4093,0,-1.3758576,0.37863943,-10.278347,-0.01765141,-0.00079884345,-0.053965118,49.125,78.0,0.0023928226,1114658,283,5444,-1230,9709
52526223,4101,0,0.48701346,-0.9451151,-11.033488,-0.01809877,-0.010658034,-0.059475552,49.125,78.0,0.0023928226,1114658,1784,-1330,-4204,9685
52629160,4237,0,-0.7397189,-1.2905229,-9.925705,-0.0026133477,-0.00012983636,-0.031579196,49.125,78.0,0.0023928226,1114658,-1362,3970,-2385,8193
52727823,5245,0,-0.20899442,-1.0233262,-9.302855,0.004094308,0.0032314076,-0.017004348,49.25,78.0,0.0023928226,1114658,-374,2763,-2255,9705
52833873,4200,0,0.07634978,1.5144795,-10.744491,0.020241084,0.0039025594,-0.055540677,49.25,78.0,0.0023928226,1114658,-798,1291,2051,0
52931522,5236,0,-0.90315974,1.6886244,-9.465781,0.016005347,0.012219383,-0.07508709,49.25,78.0,0.0023928226,1114658,-16,6509,-3499,16965
53034423,4200,0,0.12045655,-0.32555696,-10.697314,0.019629562,-0.012395469,-0.031234276,49.125,78.0,0.0023928226,1114658,1842,3591,-627,-8
53136272,5249,0,-0.32442302,-1.7192184,-9.510137,0.031583365,-0.0015284354,-0.05427594,49.125,78.0,0.0023928226,1114658,844,4281,-5989,9711
53237073,4200,0,-1.1748558,-0.365563,-10.81001,0.008598168,0.01179618,-0.0656928,49.125,78.0,0.0023928226,1114658,533,4693,-1755,-8
53338963,4241,0,-0.89142627,1.5947542,-10.058958,0.008693784,0.009689874,-0.032103483,49.125,78.0,0.0023928226,1114658,-26,2683,-2075,9713
53443946,4186,0,1.294916,1.693649,-10.589738,-0.002040377,-0.019507669,-0.06427993,49.0,78.0,0.0023928226,1114658,2769,-3357,-1987,0
53543729,4256,0,0.99531204,0.2757275,-10.360382,0.026087724,-0.016355027,-0.023425246,49.25,78.0,0.0023928226,1114658,2386,570,-54,9703
53647722,5349,0,-0.17286828,-1.4551708,-10.560779,-0.035813957,-0.0067246687,-0.06217608,49.25,78.0,0.0023928226,1114658,915,-4627,-3187,9713
53748542,4296,0,0.7912296,-0.8172647,-9.545272,-0.02020258,-0.0021196252,-0.012722187,49.25,78.0,0.0023928226,1114658,98,-4889,-4612,9706
53850279,4179,0,0.5460643,0.44412857,-8.514454,-0.0024788638,0.0007406798,-0.030700585,49.25,78.0,0.0023928226,1114658,-794,-2559,-6872,8192
53948978,4205,0,-0.12685159,1.3537416,-8.431013,0.046394527,0.011556012,-0.04511607,49.25,78.0,0.0023928226,1114658,506,3413,-7452,2048
54050904,4281,0,-0.80346036,0.21734695,-9.091636,0.0022701297,-0.0012951845,-0.081424415,49.25,78.0,0.0023928226,1114658,-1035,4347,-5600,9712
54155823,4102,0,0.484731,-1.3480778,-10.28783,0.04335393,0.00011652513,-0.041149803,49.25,78.0,0.0023928226,1114658,1629,1383,-1225,9717
54257695,4222,0,-1.0416487,-1.0729905,-9.703811,0.005825174,0.0009276411,-0.028949387,49.125,78.0,0.0023928226,1114658,456,3127,-4184,-8
54355322,4163,0,0.2220153,0.072098434,-9.877783,-0.010458231,0.011991516,-0.006180995,49.125,78.0,0.0023928226,1114658,-772,137,1441,8192
54460322,4163,0,-1.3977757,1.7494249,-8.322549,-0.020234762,0.009339909,-0.051474493,49.125,78.0,0.0023928226,1114658,114,3543,-8205,9707
54562181,4195,0,-0.41134667,1.3392776,-10.223413,-0.027272286,-0.013735924,-0.044376843,49.125,78.0,0.0023928226,1114658,2518,1330,-1827,8193
54664024,5224,0,1.830192,-0.6706563,-9.964296,-0.022522362,-0.02181156,-0.024023965,49.125,78.0,0.0023928226,1114658,2109,-4337,-1417,8192
54765873,5250,0,0.65686345,-1.9388754,-10.018512,0.03526816,0.00936986,-0.06447662,49.125,78.0,0.0023928226,1114658,-1183,-1272,-5237,9711
54868773,5251,0,0.4988415,0.18250597,-10.309345,0.040946282,0.0018408161,-0.03095079,49.125,78.0,0.0023928226,1114658,1859,1255,-212,2048
54970622,5241,0,0.067358255,1.5246587,-8.707135,0.012537815,0.016081207,-0.046754647,49.25,78.0,0.0023928226,1114658,89,4755,-8076,-8
55071422,4200,0,0.50878733,1.8849615,-10.071524,-0.026081134,0.0075923265,-0.04745041,49.125,78.0,0.0023928226,1114658,521,-324,525,-8
55173322,4249,0,1.8878895,-0.22468545,-10.476262,0.026429495,-0.017124526,-0.025048522,49.125,78.0,0.0023928226,1114658,1746,-820,-1612,9696
55271973,6300,0,0.79041785,-0.5411593,-10.258176,-0.026115471,-0.020009132,-0.036783908,49.25,78.0,0.0023928226,1114658,557,453,-3245,9711
55373840,4211,0,1.1922308,-1.8109155,-9.8177185,-0.02963907,-1.4862657e-05,-0.035887633,49.25,78.0,0.0023928226,1114658,-748,-4426,-2363,0
55477805,4232,0,-0.038250558,0.46849683,-10.294479,-0.013063509,0.02560037,-0.044551622,49.375,78.0,0.0023928226,1114658,-505,-976,355,2049
55578572,4199,0,1.1907834,2.0156407,-9.810045,0.0015277539,0.004082254,-0.005102454,49.25,78.0,0.0023928226,1114658,1806,-2019,956,8192
55684623,4080,0,-0.54869443,0.0051723006,-9.5378475,0.023294933,-0.0046508354,-0.064474806,49.25,78.0,0.0023928226,1114658,-259,6442,-3972,2048
55785423,4101,0,-0.92929405,-1.7442387,-9.178253,0.0072524576,-0.0020970162,-0.05303007,49.25,78.0,0.0023928226,1114658,568,3662,-9585,9703
55887286,4213,0,-1.1120687,-1.1853667,-9.55008,0.0029055283,0.00012999514,-0.059283443,49.25,78.0,0.0023928226,1114658,955,3304,-7551,2049
55988072,4192,0,0.14488722,0.06208772,-9.067219,0.039087795,-0.001455422,-0.050862238,49.25,78.0,0.0023928226,1114658,152,1877,-4547,-8
56089922,4185,0,1.1358466,1.2499905,-9.49899,-0.033750575,0.0029426897,-0.020420726,49.125,78.0,0.0023928226,1114658,-752,-5141,-964,2048
56192823,4200,0,0.10981411,1.3662264,-8.288736,0.004653833,-0.014334277,-0.022641324,49.25,78.0,0.0023928226,1114658,2675,2506,-7065,8193
56291522,4199,0,0.53433,0.6567462,-9.856529,-0.0068394234,-0.01625758,-0.041853964,49.125,78.0,0.0023928226,1114658,3192,55,-4920,16964
56392322,4163,0,-0.33617604,-1.221638,-11.399882,0.011451235,-0.0008671939,-0.064205945,49.25,78.0,0.0023928226,1114658,1030,2021,-1770,-8
56496293,4221,0,0.234617,0.6098193,-9.8167925,-0.0020825565,0.023124509,-0.0465768,49.25,78.0,0.0023928226,1114658,707,218,-3221,-8
56595015,4243,0,0.38790414,0.91584903,-8.486362,-0.003770501,0.018228525,-0.077675745,49.25,78.0,0.0023928226,1114658,-665,61,-8264,-8
56701023,4200,0,0.1871056,1.4249896,-9.596181,0.010571742,0.0055411044,-0.029345289,49.25,78.0,0.0023928226,1114658,1918,2283,-2855,-8
56804973,5224,0,0.8331824,-0.48283795,-9.331794,-0.0024420274,-0.018065311,-0.034052677,49.25,78.0,0.0023928226,1114658,1407,-1518,-506,8193
56903731,4259,0,0.1891666,-1.4608897,-10.911674,-0.0025569836,0.0002944012,-0.04711014,49.25,78.0,0.0023928226,1114658,173,-741,-1119,9698
57007722,4300,0,0.120917656,1.0470687,-9.685031,-0.012380457,0.018423881,-0.045142032,49.125,78.0,0.0023928226,1114658,-152,664,-2675,9701
57108543,4321,0,-0.7909642,2.0441706,-9.714013,0.021315506,0.01597511,-0.053077914,49.25,78.0,0.0023928226,1114658,1846,5740,-2122,9710
57208172,5199,0,0.831424,1.4641292,-10.073556,0.031616095,0.0008228792,-0.07999612,49.25,78.0,0.0023928226,1114658,2325,3226,-4677,8193
57311073,4146,0,1.072672,-0.3884944,-10.958899,0.021794867,-0.01630621,-0.02227784,49.25,78.0,0.0023928226,1114658,1141,1294,1926,9710
57412924,5202,0,1.1736312,-1.5108895,-10.169754,-0.034944043,-0.0071046716,-0.034104146,49.25,78.0,0.0023928226,1114658,-376,-4912,-3260,-8
57514774,5251,0,0.36984223,-0.67794156,-8.955011,-0.022953905,0.010498471,-0.04257143,49.125,78.0,0.0023928226,1114658,-90,-3300,-6435,2049
57615572,4200,0,0.35525584,0.74595046,-8.923231,-0.005978435,0.0032193728,-0.037620045,49.25,78.0,0.0023928226,1114658,-624,-1036,-5191,9712
57714273,6300,0,0.027304461,1.9521478,-8.874786,0.034574006,0.007856777,-0.054600935,49.125,78.0,0.0023928226,1114658,1500,-1253,-5506,8193
57822423,4194,0,-0.8343331,-0.6589033,-9.356739,-0.022194695,-0.010949887,-0.043162107,49.25,78.0,0.0023928226,1114658,960,1334,-6662,10877
57924272,5249,0,-0.7478399,-1.5423778,-9.036561,-0.023019744,0.008473976,-0.058431357,49.25,78.0,0.0023928226,1114658,-1104,2624,-8047,-8
58025073,4190,0,-1.4190156,-0.6746648,-9.99533,-0.041564338,0.01484601,-0.049804006,49.25,78.0,0.0023928226,1114658,-1094,1400,-3208,-8
58129028,4205,0,0.13098381,1.8237256,-8.605225,-0.0064361133,0.0076979846,-0.036979076,49.25,78.0,0.0023928226,1114658,-632,1646,-3237,-8
58435722,5346,0,-0.5852558,-1.9541875,-9.548445,-0.017945401,-0.016872786,-0.039217025,49.25,78.0,0.0023928226,1114658,421,2605,-5417,9703
58540640,4090,0,0.057717048,0.8856221,-10.633725,0.029948361,0.014194547,-0.06473051,49.375,78.0,0.0023928226,1114658,-248,1812,1338,2048
58642473,4200,0,0.28664798,2.1997626,-8.837758,0.024036169,-0.00093419984,-0.04262696,49.375,78.0,0.0023928226,1114658,1001,2106,-4777,8192
58743279,4206,0,-0.99591506,0.8759571,-8.606257,0.0013316532,-0.009390831,-0.041702744,49.25,78.0,0.0023928226,1114658,53,5264,-6066,9708
58845163,4240,0,-0.5263411,-1.0338856,-10.443628,-0.0140591785,-0.0059888223,-0.06659015,49.375,78.0,0.0023928226,1114658,-240,3284,-3363,2048
58943857,4135,0,1.2503879,-1.5736619,-10.864042,-0.029973714,-0.0068268785,-0.050377686,49.375,78.0,0.0023928226,1114658,1432,-4168,-2146,0
59049873,4200,0,-1.0384793,0.03638948,-8.714957,-0.024149057,0.0110506285,-0.05584906,49.125,78.0,0.0023928226,1114658,-976,2072,-6002,9706
59149659,4231,0,0.5516655,0.8444976,-8.64208,-0.01750618,0.012876319,-0.024944607,49.25,78.0,0.0023928226,1114658,-991,-3745,-5173,-8
59248328,4170,0,-0.0030460963,2.0845942,-8.645695,0.015151706,0.009733739,-0.05365146,49.25,78.0,0.0023928226,1114658,91,3032,-6008,-8
59350188,5266,0,-0.3962,1.7299337,-8.796763,-0.008347781,0.0063246456,-0.07407088,49.25,78.0,0.0023928226,1114658,-9,2777,-6968,10896
59453073,4200,0,0.5383116,-0.22966303,-10.44146,-0.016162518,-0.01933967,-0.026120063,49.25,78.0,0.0023928226,1114658,1862,264,-5363,-8
59554922,5248,0,-0.009326376,-1.2366663,-9.632236,-0.042059325,-0.0041266372,-0.047672287,49.25,78.0,0.0023928226,1114658,-341,-1843,-6174,9705
59660976,4203,0,-0.7763482,2.4994564,-8.270373,0.006143228,0.014415099,-0.023342237,49.25,78.0,0.0023928226,1114658,1369,4074,-5676,9708
59761772,4199,0,-0.56275684,1.9987125,-8.360007,-0.028425166,0.009251537,-0.035397496,49.25,78.0,0.0023928226,1114658,-50,2296,-6874,16965
59863728,4306,0,-0.14371549,0.6657487,-10.311486,-0.026567202,-0.015077341,-0.038590297,49.25,78.0,0.0023928226,1114658,2267,837,-3567,9710
59964543,4321,0,1.2071136,-0.8819007,-10.030222,-0.04982624,-0.019134847,-0.019433493,49.375,78.0,0.0023928226,1114658,1178,-4160,-4149,9716
60066293,4196,0,0.63157547,-1.2215675,-9.192555,-0.026611833,0.0037662974,-0.04216218,49.25,78.0,0.0023928226,1114658,-1338,-2832,-6099,-8
60168157,5215,0,-0.15308431,-0.081965014,-9.725983,-0.0441958,0.024266828,-0.055463437,49.25,78.0,0.0023928226,1114658,-2984,-2659,-2882,8192
60266921,4299,0,1.0459366,1.5713229,-9.278949,0.010238083,0.0075826393,-0.04026507,49.25,78.0,0.0023928226,1114658,-1319,-1643,-4664,9706
60369723,4200,0,-0.64898163,1.425333,-9.631287,-0.03537728,0.0067255828,-0.035638485,49.375,78.0,0.0023928226,1114658,936,590,-3889,-8
60471572,4169,0,0.847683,-0.18386725,-9.284361,-0.031990986,-0.0075543355,-0.06331629,49.375,78.0,0.0023928226,1114658,1375,-2110,-6212,16965
60572372,6246,0,1.8015107,-0.9480188,-9.431828,-0.042711172,-0.010676354,-0.05416531,49.25,78.0,0.0023928226,1114658,-118,-2274,-7315,9712
60674237,5264,0,-0.06522055,-0.5758728,-8.6972065,-0.012956763,0.009527373,-0.029859371,49.25,78.0,0.0023928226,1114658,-1680,1123,-4982,8192
60780272,4199,0,1.098378,1.9031464,-9.938591,0.027306462,0.0017619388,-0.06082648,49.125,78.0,0.0023928226,1114658,-490,27,-3041,8192
60881073,4187,0,1.5910431,0.24373358,-9.685304,-0.0030854272,-0.011615534,-0.058658548,49.25,78.0,0.0023928226,1114658,139,-3624,-4048,-9
60985023,4200,0,-0.6868944,-0.93135756,-9.260652,-0.005887354,-0.00045688928,-0.056889996,49.25,78.0,0.0023928226,1114658,195,2919,-5611,0
61085823,4196,0,-1.1184968,-1.1848751,-9.638053,-0.033994034,-0.0015362889,-0.074107535,49.25,78.0,0.0023928226,1114658,-1742,2112,-7306,9715
61187728,4256,0,0.053957775,1.4786123,-9.226324,0.027340775,0.021019716,-0.07095009,49.375,78.0,0.0023928226,1114658,-429,3781,-6161,9707
61288542,4270,0,-0.84521455,1.9529839,-9.596694,0.016449224,0.023556888,-0.07245198,49.25,78.0,0.0023928226,1114658,-101,5156,-4158,9724
61390323,4163,0,0.29555115,1.4570913,-9.995814,0.025284618,-0.0098076435,-0.075590454,49.25,78.0,0.0023928226,1114658,2577,2677,-5618,10941
61489027,4174,0,-1.1426193,-0.13633834,-10.073293,-0.001244689,-0.012316697,-0.055192534,49.25,78.0,0.0023928226,1114658,1203,5254,-4467,8193
61592973,4200,0,0.15870018,-1.8461069,-10.261378,0.023079408,0.004523116,-0.02891654,49.25,78.0,0.0023928226,1114658,-344,1016,-2783,8193
61694921,4299,0,-0.11804691,-0.32784417,-10.253191,0.018006606,0.014291619,-0.055744004,49.375,78.0,0.0023928226,1114658,-1437,1176,-2651,9717
61795722,4300,0,-0.36825636,1.730191,-9.571396,0.028619016,0.0136476485,-0.06982799,49.375,78.0,0.0023928226,1114658,1526,3744,-3369,9722
61901694,4221,0,1.1649618,1.0353806,-9.830946,0.016829837,-0.01335254,-0.05684062,49.25,78.0,0.0023928226,1114658,941,-1066,-3185,-9
61998289,4191,0,0.16999063,0.41621906,-9.342222,-0.027102347,-0.016406378,-0.009921518,49.375,78.0,0.0023928226,1114658,1934,-1665,-4967,10960
62104322,4153,0,-1.1683102,-1.6710405,-10.131536,-0.0035951212,-0.0013745552,-0.03335012,49.25,78.0,0.0023928226,1114658,779,3827,-3800,8192
62206179,4165,0,-1.169731,0.14316918,-8.543851,-0.025519947,0.01627759,-0.024918593,49.375,78.0,0.0023928226,1114658,-690,1805,-7433,10953
62307021,4209,0,0.014598459,1.3339123,-10.231493,-0.018454002,0.029000819,-0.030140346,49.375,78.0,0.0023928226,1114658,-464,-538,1707,9709
62408823,4200,0,0.72909135,2.3704822,-9.881248,0.007904063,-0.008451604,-0.029395653,49.25,78.0,0.0023928226,1114658,1400,-3459,-2615,-8
62509623,4199,0,-1.0094248,1.3196087,-8.732098,0.009847938,-0.0054215007,-0.06555612,49.375,78.0,0.0023928226,1114658,1488,5444,-7979,9728
62611504,4210,0,-0.2147474,-1.0960987,-10.293544,-0.01980451,-0.020247744,-0.04767589,49.125,78.0,0.0023928226,1114658,2630,775,-3065,8192
62713361,5288,0,1.0650777,-1.0145184,-9.799358,-0.032965027,-0.0076584686,-0.0140754,49.25,78.0,0.0023928226,1114658,736,-4400,-3690,9712
62812022,4199,0,-1.1673852,-1.4662886,-9.445031,0.030522127,-0.0019481529,-0.040573977,49.375,78.0,0.0023928226,1114658,-245,4070,-5522,8192
62915973,4192,0,-0.1885302,1.7815058,-10.037844,0.02426653,0.0058189956,-0.06586779,49.25,78.0,0.0023928226,1114658,-100,3479,-1552,9722
63022075,4224,0,0.55292606,1.2117485,-10.00564,0.035037577,0.0062582917,-0.06544886,49.375,78.0,0.0023928226,1114658,1166,2127,-4933,8193
63122952,4289,0,-0.9224841,-0.54150385,-10.452147,-0.0012806719,-0.0003506642,-0.03431928,49.25,78.0,0.0023928226,1114658,826,2800,-2639,9716
63224673,4123,0,-0.31543082,-1.3796494,-8.996552,-0.033894047,0.00039974615,-0.025206823,49.25,78.0,0.0023928226,1114658,274,-1149,-6768,8193
63321275,4202,0,-0.7146025,-2.1081014,-9.926352,0.024488341,-0.0048535103,-0.04693913,49.25,78.0,0.0023928226,1114658,254,2913,-5131,9724
63425328,4305,0,0.830897,1.247166,-10.806402,0.023918008,0.011946201,-0.070748836,49.25,78.0,0.0023928226,1114658,121,-675,-464,9716
63529173,4201,0,0.80543715,2.522374,-8.979818,-0.009091306,-0.0031455606,-0.038951594,49.25,78.0,0.0023928226,1114658,1512,-3808,-5322,8193
63626922,5349,0,0.80883706,1.48056,-9.302999,0.005834994,0.0039879405,-0.06690178,49.25,78.0,0.0023928226,1114658,288,-511,-4889,9720
63731823,4125,0,1.1705532,-0.5123163,-10.631726,-0.03534945,-0.013563378,-0.029136697,49.375,78.0,0.0023928226,1114658,2422,-4727,-781,9727
63833676,4203,0,0.88592124,-0.67219853,-10.4127865,-0.012755221,-0.0005307547,-0.0072260476,49.375,78.0,0.0023928226,1114658,-860,-2591,829,-8
63933423,5251,0,0.82831407,0.13099295,-10.730939,0.039277356,0.0093322685,-0.076490305,49.375,78.0,0.0023928226,1114658,713,-259,3,10997
64038423,4200,0,0.8534564,2.281647,-8.716819,-0.0042694337,-0.0069703236,0.0031711643,49.25,78.0,0.0023928226,1114658,1941,-2892,-4042,-8
64138219,5288,0,1.5601196,1.6417027,-10.375877,0.005014629,-0.014844434,-0.043011952,49.25,78.0,0.0023928226,1114658,2313,-3250,323,9726
64240022,5215,0,1.3332859,-0.51610976,-10.454645,0.040882036,-0.016221855,-0.03114721,49.375,78.0,0.0023928226,1114658,1199,-502,-34,9726
64342923,4167,0,0.786441,-1.3487017,-9.807699,0.016687889,0.002107311,-0.016972331,49.375,78.0,0.0023928226,1114658,53,-639,-1570,9718
64442680,4207,0,0.5303669,0.34317952,-9.283949,0.03107415,0.007881083,-0.032074995,49.375,78.0,0.0023928226,1114658,2133,1560,-4519,2048
64546622,5249,0,-0.9743133,2.3262262,-8.400746,0.03806552,-9.6892996e-05,-0.061801624,49.25,78.0,0.0023928226,1114658,1369,4771,-7446,9735
64649523,4172,0,-0.42617533,1.397405,-10.244361,0.038696907,0.0045409775,-0.07670778,49.5,78.0,0.0023928226,1114658,168,5332,-5600,-8
64747175,4194,0,0.39349386,0.28883204,-8.974439,-0.025099644,-0.018685149,-0.027116176,49.375,78.0,0.0023928226,1114658,877,-2102,-5829,8193
64847973,4180,0,2.0378904,-0.9965392,-10.557749,-0.0042332634,-0.01242521,-0.03468915,49.375,78.0,0.0023928226,1114658,294,-3458,-1451,8193
66278127,4254,0,1.2943532,0.62927574,-9.755296,0.0395642,-0.011189632,-0.044354394,49.5,78.0,0.0023928226,1114658,2647,152,-4337,9734
66375722,5228,0,0.35125977,0.33440474,-9.062389,-0.020128986,-0.015834376,-0.083020985,49.375,78.0,0.0023928226,1114658,954,-63,-8232,9740
66476570,4248,0,-0.9053972,-1.3601525,-9.544519,-0.025276287,-0.009933917,-0.05556098,49.25,78.0,0.0023928226,1114658,-262,3950,-7104,9745
66580542,5320,0,-0.95794475,-0.4727834,-10.135215,0.004022088,0.017855879,-0.09591462,49.5,78.0,0.0023928226,1114658,-1266,2856,-5273,9738
66682322,5249,0,0.5729558,1.2016286,-10.299281,0.037865598,0.017535005,-0.05092442,49.5,78.0,0.0023928226,1114658,1428,3212,-398,9748
66785305,4282,0,0.6934528,1.7913758,-9.9270525,0.0013728164,-0.006774458,-0.012984672,49.25,78.0,0.0023928226,1114658,785,-1200,126,11042
66888157,5259,0,1.5516636,-0.14499629,-9.649808,-0.018993573,-0.017245393,-0.03938769,49.375,78.0,0.0023928226,1114658,1602,-2571,-3835,-8
66989973,4200,0,1.0192645,-1.524537,-9.223771,-0.010354404,-0.004507595,-0.038842574,49.25,78.0,0.0023928226,1114658,-49,-2525,-8730,-8
67091823,4093,0,-0.44959968,-0.6649518,-10.15285,-0.03669611,0.022001443,-0.053338498,49.25,78.0,0.0023928226,1114658,-2759,-658,-3235,9734
67193673,5096,0,-0.08695728,1.6089026,-9.644569,-0.02663879,0.021869255,-0.043809023,49.375,78.0,0.0023928226,1114658,420,15,-1904,8193
67292372,4199,0,-0.5818747,1.8654152,-10.044756,-0.03850462,0.020900797,-0.032670412,49.375,78.0,0.0023928226,1114658,368,961,-1039,-8
67396322,4163,0,-1.6832618,-0.5439997,-9.238087,-0.0013950702,-0.015569628,-0.033911027,49.25,78.0,0.0023928226,1114658,469,5121,-4867,-8
67501326,4167,0,-1.1890817,-1.6537746,-10.372964,0.03872355,0.00010731253,-0.06867605,49.375,78.0,0.0023928226,1114658,231,4867,-5674,-8
67603173,5240,0,-0.7104291,0.20439717,-10.400117,0.028373582,0.015726939,-0.09905992,49.375,78.0,0.0023928226,1114658,-1568,3694,-2995,-8
67705023,5209,0,0.662314,1.9768642,-10.111069,0.028055659,0.02432114,-0.06673483,49.375,78.0,0.0023928226,1114658,574,4398,-1842,8193
67805825,4202,0,-0.50862616,1.8093566,-9.675479,0.021450177,-0.0029111432,-0.040913716,49.375,78.0,0.0023928226,1114658,1425,5540,-3723,11061
67907725,4253,0,-0.41949382,-0.23259297,-9.761842,0.029454986,-0.003523076,-0.036678534,49.375,78.0,0.0023928226,1114658,1170,4907,-6786,9733
68012673,4105,0,0.6142174,-1.4136814,-11.539806,0.022684047,-0.0043559903,-0.03948589,49.5,78.0,0.0023928226,1114658,521,-393,1491,2048
68114531,4208,0,-0.27608496,0.113944486,-10.617873,0.02640797,0.005035409,-0.015934289,49.375,78.0,0.0023928226,1114658,-210,942,181,-8
68216372,5214,0,-0.14593436,2.7110338,-8.678718,0.03008958,0.0063502216,-0.04155367,49.5,78.0,0.0023928226,1114658,2172,2008,-5994,8192
68319300,6327,0,-0.3038886,1.7970277,-8.867572,0.039114,-0.014910237,-0.07518301,49.375,78.0,0.0023928226,1114658,2190,1801,-5343,9742
68419022,4118,0,0.05849216,-0.9323714,-9.838403,0.029510237,-0.0031414009,-0.06586167,49.375,78.0,0.0023928226,1114658,59,2993,-6025,9728
68522990,5267,0,0.4583761,-0.87873757,-11.507765,0.015919015,0.0019426744,-0.057960052,49.375,78.0,0.0023928226,1114658,472,641,2485,9740
68623794,4222,0,1.247124,0.16160041,-10.663776,0.031387433,0.0053432384,-0.050219003,49.375,78.0,0.0023928226,1114658,-126,-1406,787,0
68722472,6300,0,-0.29069132,1.0055606,-7.848469,0.011697272,0.0092821475,-0.08260004,49.375,78.0,0.0023928226,1114658,-1118,1469,-9896,-8
68826423,4186,0,0.4237419,1.9941536,-10.030542,0.025815815,0.007811091,-0.06558977,49.375,78.0,0.0023928226,1114658,2081,-915,-2031,8192
68926204,5281,0,-0.6201399,0.6368814,-9.490971,0.011675074,-0.0076272693,-0.095293194,49.375,78.0,0.0023928226,1114658,1066,4216,-6565,9751
69026973,4200,0,0.027402159,-1.3471273,-9.778092,0.026347402,-0.0030505299,-0.06727569,49.375,78.0,0.0023928226,1114658,-654,4671,-6173,9747
69133023,4199,0,0.33010724,-0.10501818,-10.453375,0.03160621,0.0096688215,-0.044182703,49.375,78.0,0.0023928226,1114658,-608,231,700,-8
69238122,4288,0,-0.46210796,1.496834,-9.231307,-0.032726366,0.0010948408,-0.009764838,49.375,78.0,0.0023928226,1114658,388,905,-1530,9744
69337780,4207,0,1.1136371,1.5939363,-10.0682335,0.006265283,-0.0067815115,-0.04630863,49.375,78.0,0.0023928226,1114658,2337,-3040,-1656,8192
69438574,4179,0,1.4599484,-0.7339676,-10.427954,-0.015130905,-0.009951913,-0.067672275,49.375,78.0,0.0023928226,1114658,-266,-2778,-3644,-8
69540548,4326,0,0.61096066,-1.4827482,-9.99444,0.001413725,0.017801864,-0.041770633,49.375,78.0,0.0023928226,1114658,-1003,-834,-4790,9749
69643322,4163,0,0.03036149,0.10597055,-8.980351,-0.020239064,0.011100119,-0.061885085,49.375,78.0,0.0023928226,1114658,-1293,1283,-6471,8192
69745173,4166,0,-0.28438646,1.3639969,-8.982516,0.028174387,0.018390382,-0.063593924,49.25,78.0,0.0023928226,1114658,-2085,4389,-5223,8193
69842898,4276,0,0.4321994,1.4024527,-8.500662,-0.028891707,0.0040327343,-0.033741873,49.375,78.0,0.0023928226,1114658,-67,-600,-5425,9746
69943728,4306,0,0.29201204,1.2188371,-8.9449005,-0.010192769,-0.00978299,-0.015637422,49.375,78.0,0.0023928226,1114658,1917,1900,-3880,9742
70049686,4213,0,-0.08675039,-1.0454365,-11.290325,0.03204541,0.00860186,-0.05375311,49.375,78.0,0.0023928226,1114658,475,2964,626,8193
70147322,5142,0,-0.35411283,-1.3073214,-9.860536,0.0068335463,0.013590459,-0.080984734,49.375,78.0,0.0023928226,1114658,-1094,3177,-6885,9742
70250239,4110,0,-0.77039033,0.90421987,-10.573447,0.04705657,0.005339404,-0.03661301,49.375,78.0,0.0023928226,1114658,232,5037,-127,8192
70358373,4153,0,-0.28792346,1.2394757,-9.384427,0.005089654,-0.0073222145,-0.08114701,49.5,78.0,0.0023928226,1114658,103,3384,-8230,8193
70458181,4246,0,-0.38434076,0.08562056,-10.269058,-0.019540088,0.0030793985,-0.0675789,49.5,78.0,0.0023928226,1114658,-245,2957,-5576,8192
70558962,4199,0,0.087573364,-1.391848,-9.482736,-0.00051791663,-0.0011695151,-0.060082905,49.375,78.0,0.0023928226,1114658,5,3451,-5730,-8
70658716,5293,0,-0.53856033,-1.2640721,-10.627543,-0.034840222,-0.009047651,-0.063468195,49.5,78.0,0.0023928226,1114658,568,-768,-7571,2049
70763698,4226,0,0.5927297,1.6055732,-10.162536,0.03134551,0.01803443,-0.07243703,49.375,78.0,0.0023928226,1114658,1018,413,-558,9748
70863423,5242,0,0.22501399,2.058322,-9.177992,-0.008184078,0.009768195,-0.09184733,49.5,78.0,0.0023928226,1114658,-243,834,-6473,8192
70965299,5271,0,0.8661567,1.0019257,-9.655234,0.0279237,-0.007320115,-0.05495127,49.375,78.0,0.0023928226,1114658,129,73,-3863,11109
71066136,4263,0,1.6005832,-0.76710516,-9.240763,-0.010058271,-0.018544571,-0.024512606,49.375,78.0,0.0023928226,1114658,2253,-3305,-4205,9759
71164780,4186,0,1.8627769,-1.2557346,-10.88994,-0.018794155,-0.005169185,-0.057275817,49.375,78.0,0.0023928226,1114658,1147,-3902,-1017,2048
71270922,4300,0,0.6581599,1.2569911,-9.691726,0.036182184,0.004426421,-0.046249237,49.375,78.0,0.0023928226,1114658,2309,1218,-3801,9750
71372673,4130,0,0.6607745,1.7871307,-10.102708,-0.010604885,0.011550943,-0.06425377,49.375,78.0,0.0023928226,1114658,-1391,-893,-1470,8193
71476623,5251,0,0.17417836,0.64864594,-8.798267,-0.011528452,-0.007288659,-0.05965367,49.25,78.0,0.0023928226,1114658,71,1591,-7075,8193
71577423,4148,0,0.30896112,-1.1092238,-9.286272,-0.006079322,-0.009188351,-0.023517514,49.375,78.0,0.0023928226,1114658,521,232,-5581,9758
71678223,4088,0,-0.15333812,-1.1279688,-10.2361555,-0.025626203,0.0005519675,-0.07254751,49.375,78.0,0.0023928226,1114658,995,967,-2865,8192
71777992,4185,0,-0.7101745,-0.2617967,-8.806494,-0.0254915,0.0019660024,-0.060157012,49.625,78.0,0.0023928226,1114658,-618,1551,-7134,-8
71880873,4159,0,0.39108428,2.0374708,-9.489337,0.043254714,-0.0004656373,-0.002692014,49.25,78.0,0.0023928226,1114658,1247,2085,-555,2049
71981673,5199,0,1.7625386,1.4913001,-10.102072,0.015434253,-0.004618874,-0.065838456,49.375,78.0,0.0023928226,1114658,1704,-3155,-3084,8193
72086673,4195,0,-0.9312006,-0.8500291,-10.432203,0.011935636,-0.0022519017,-0.047586083,49.5,78.0,0.0023928226,1114658,1407,5451,-376,8193
