timestamp,integral_dt,error_count,x,y,z,x_integral,y_integral,z_integral,temperature,range_m_s2,scaling,device_id,x_raw,y_raw,z_raw,temperature_raw
41329423,3997,0,-0.22313118,1.573948,-9.84323,-0.0015939602,0.0009272939,-0.03885488,62.603878,156.9064,0.0047884034,1442850,93,110,-2155,9965
41429423,3954,0,0.54401255,-0.10992872,-9.840234,0.00032068632,0.004502654,-0.042223312,62.612186,156.9064,0.0047884034,1442850,130,-282,-2454,9968
41533435,4000,0,-0.15421204,0.7401765,-9.981302,0.0030109365,-0.0033152513,-0.04118187,62.595566,156.9064,0.0047884034,1442850,-117,16,-2519,9962
41633423,4000,0,0.11663736,-0.4802361,-9.752878,0.0021549398,0.00641504,-0.038328886,62.63435,156.9064,0.0047884034,1442850,233,-566,-2109,9976
41737423,4000,0,-0.22942573,-1.2757446,-9.4480715,-0.0032782839,-0.0010174225,-0.038213525,62.59834,156.9064,0.0047884034,1442850,16,-62,-1874,9963
41837430,4007,0,0.18104896,-0.06515865,-9.80988,-0.0038113873,-0.0162422,-0.039261326,62.609417,156.9064,0.0047884034,1442850,239,1019,-2028,9967
41937423,4000,0,0.18224855,0.3391588,-9.911986,-0.0076529277,-0.015672736,-0.0412297,62.61773,156.9064,0.0047884034,1442850,403,658,-1940,9970
42041423,4000,0,-0.504007,-1.9216366,-10.182669,-0.011068145,-0.0056339637,-0.038186584,62.606647,156.9064,0.0047884034,1442850,27,-233,-1800,9966
42145423,4000,0,-0.20673005,0.0628182,-9.766052,-0.00077813125,0.021215474,-0.037132394,62.63712,156.9064,0.0047884034,1442850,71,-1190,-1942,9977
42245423,4000,0,0.29191262,2.0130253,-9.525126,0.000941429,0.012762172,-0.039002188,62.587257,156.9064,0.0047884034,1442850,-89,-408,-2240,9959
42349430,4007,0,-0.12427304,0.67394394,-10.01851,-0.0071386416,-0.013628793,-0.033234097,62.6205,156.9064,0.0047884034,1442850,71,1128,-2498,9971
42449422,3999,0,-0.44898778,-0.46324846,-9.825851,0.010654932,0.006450804,-0.039371215,62.592796,156.9064,0.0047884034,1442850,-260,-158,-2156,9961
42553423,4000,0,-0.6375083,-0.6773306,-9.991128,-0.0006175325,-0.004188154,-0.03964694,62.595566,156.9064,0.0047884034,1442850,95,-597,-1340,9962
42653423,4000,0,-0.88042283,-0.039255768,-9.664721,0.016286118,0.015692178,-0.030790627,62.62327,156.9064,0.0047884034,1442850,-486,-1472,-2528,9972
42753423,4000,0,0.7912848,1.5459937,-10.167179,-0.009395764,-0.011065778,-0.03789205,62.606647,156.9064,0.0047884034,1442850,335,993,-1539,9966
42857423,3993,0,-1.2227594,1.7392442,-9.5532255,-0.016585998,-0.00796145,-0.02208139,62.60111,156.9064,0.0047884034,1442850,385,1310,-3462,9964
42961423,4000,0,-0.94369376,-0.14909604,-9.359233,0.03153312,0.007398239,-0.026903987,62.62327,156.9064,0.0047884034,1442850,-1549,-617,-2640,9972
43061461,4038,0,0.999975,0.7231857,-10.0286455,-0.015116818,0.015678065,-0.04499772,62.614956,156.9064,0.0047884034,1442850,1462,-233,-3004,9969
43165423,4000,0,0.4776832,0.26730072,-9.974654,-0.03394671,-0.00019754947,-0.043859627,62.626038,156.9064,0.0047884034,1442850,1403,-394,-3056,9973
43265423,4000,0,2.0401433,-0.81014925,-9.233962,-0.062236927,-0.0043153716,-0.03249588,62.612186,156.9064,0.0047884034,1442850,4764,-184,-1806,9968
43365423,4000,0,1.3205196,0.20968117,-9.906592,0.008816512,0.017646415,-0.07538982,62.609417,156.9064,0.0047884034,1442850,2337,-787,-3401,9967
43469423,3986,0,-1.4078658,0.019479668,-9.21253,-0.049976178,0.0076352507,-0.05060388,62.603878,156.9064,0.0047884034,1442850,-280,-349,-4393,9965
43569423,4000,0,1.1100838,-0.6940251,-8.953499,0.045621406,0.010305943,-0.061631747,62.62327,156.9064,0.0047884034,1442850,80,-1165,-4522,9972
43669423,4000,0,0.69425744,0.5127575,-11.12244,-0.033688143,0.008086295,-0.042596187,62.587257,156.9064,0.0047884034,1442850,2789,-405,179,9959
43773423,4000,0,-0.87524927,1.2836175,-10.65322,0.002375924,0.006276998,-0.0401819,62.631577,156.9064,0.0047884034,1442850,-2542,276,24,9975
43873423,3963,0,0.43557024,0.3434662,-10.364321,0.03087244,-0.0059646787,-0.056501098,62.612186,156.9064,0.0047884034,1442850,-195,-876,-3027,9968
43977423,4000,0,0.54374456,-0.81206906,-10.701672,-0.033932384,0.0013949473,-0.017686814,62.62327,156.9064,0.0047884034,1442850,3022,-788,-1841,9972
44081423,4000,0,0.025184076,0.4809642,-9.755994,-0.042054936,-0.0014191929,-0.03519835,62.6205,156.9064,0.0047884034,1442850,1489,-546,-2338,9971
44181423,4000,0,0.8824934,1.2783682,-9.547021,0.027840167,-0.010163451,-0.019714577,62.60111,156.9064,0.0047884034,1442850,1692,295,-2587,9964
44283029,4006,0,0.5962302,-0.042535756,-10.076263,-0.022373516,-0.006692992,-0.055121012,62.609417,156.9064,0.0047884034,1442850,1695,120,-3256,9967
44387022,3993,0,-1.0260932,-1.5955833,-10.273169,0.010197174,-0.004545679,-0.06551623,62.606647,156.9064,0.0047884034,1442850,-754,-515,-4958,9966
44487023,3994,0,0.22694904,-0.5989725,-12.641543,-0.0018149957,0.006524782,-0.042442393,62.590027,156.9064,0.0047884034,1442850,1214,-186,229,9960
44587023,4000,0,-1.1821487,0.5651176,-10.463756,0.004236158,0.00933053,-0.059382766,62.626038,156.9064,0.0047884034,1442850,-658,-211,-3519,9973
44691023,4000,0,-0.43628728,1.5602826,-10.299309,-0.0023390385,0.0037656701,-0.018993653,62.631577,156.9064,0.0047884034,1442850,-1085,211,-2038,9975
44795023,3980,0,-0.2486676,-0.56995577,-11.002969,-0.020699268,-0.009853477,-0.03344681,62.628807,156.9064,0.0047884034,1442850,-393,436,-2695,9974
44895023,4001,0,1.2964565,-1.1276518,-11.793298,-0.003972913,-0.0064419643,-0.0630915,62.595566,156.9064,0.0047884034,1442850,2010,147,-1492,9962
44999023,4001,0,-0.21255988,-0.15183282,-9.37808,0.013688164,-0.0036377814,-0.054475654,62.60111,156.9064,0.0047884034,1442850,-280,-659,-3358,9964
45099023,4000,0,0.9969453,1.1166569,-9.356349,-0.014442803,0.009327809,-0.052452236,62.63435,156.9064,0.0047884034,1442850,2248,-844,-2759,9976
45199023,3996,0,-1.368046,1.289528,-9.357436,0.0025274474,0.0043729027,-0.0548539,62.60111,156.9064,0.0047884034,1442850,-1777,-73,-2864,9964
45303023,4000,0,1.0338688,-0.74091846,-10.660504,-0.026218466,-0.012871379,-0.015991896,62.603878,156.9064,0.0047884034,1442850,2166,432,-800,9965
45403023,4000,0,-0.70387655,-1.6703336,-10.1087885,0.006685147,-0.008292196,-0.04327272,62.612186,156.9064,0.0047884034,1442850,-1675,468,-2574,9968
45507023,4000,0,-0.27545258,-0.08149331,-10.156512,-0.0047887135,0.013392214,-0.047558945,62.614956,156.9064,0.0047884034,1442850,-570,-439,-2034,9969
45611023,4000,0,0.28029805,2.1694524,-9.640131,-0.014826465,-0.0003570211,-0.011312574,62.65374,156.9064,0.0047884034,1442850,988,305,-1086,9983
45711023,4000,0,-0.13267569,1.1678225,-8.7726555,0.007247469,-0.016311271,-0.059473395,62.645428,156.9064,0.0047884034,1442850,-823,756,-4985,9980
45815023,3994,0,0.28687257,-1.061943,-10.864298,-0.00961363,0.0036549969,-0.016060926,62.63435,156.9064,0.0047884034,1442850,456,781,-2004,9976
45915062,4022,0,0.06564358,-1.963837,-10.907871,-0.0150434,-0.0044612573,-0.031740155,62.63712,156.9064,0.0047884034,1442850,724,-112,-1956,9977
46015031,4008,0,0.016961318,-1.4117358,-12.111046,0.016139874,-0.005897649,-0.04753078,62.66205,156.9064,0.0047884034,1442850,56,-106,158,9986
46119029,4006,0,-0.0032940567,1.6716688,-11.178296,0.0021230439,-0.0019426675,-0.019661617,62.612186,156.9064,0.0047884034,1442850,1619,221,-100,9968
46219023,4000,0,0.27506185,1.7258805,-9.993823,0.028379645,-0.0029294644,-0.07425875,62.645428,156.9064,0.0047884034,1442850,-492,315,-2948,9980
46319038,4015,0,-0.73668957,-0.4117928,-9.441241,0.035775885,-0.003779743,-0.06080794,62.6205,156.9064,0.0047884034,1442850,-2193,38,-2624,9971
46423061,4039,0,-1.5882678,-1.9419613,-8.13614,-0.004827834,-0.020856665,-0.015935833,62.595566,156.9064,0.0047884034,1442850,-2111,52,-1967,9962
46523023,3988,0,-0.0668006,-0.21415916,-8.312619,-0.034643814,0.0057762843,-0.050408866,62.61773,156.9064,0.0047884034,1442850,2142,-1404,-2868,9970
46627023,4000,0,-1.2232829,1.3271269,-8.072433,-0.025764078,-0.005083925,-0.01601576,62.614956,156.9064,0.0047884034,1442850,-1009,567,-1494,9969
46727023,4000,0,0.846305,0.2825725,-9.528867,-0.0044337213,0.006034578,-0.0701854,62.62327,156.9064,0.0047884034,1442850,1969,-8,-1940,9972
47131023,3999,0,0.11936573,0.7553489,-8.531574,0.029658783,-0.0029124324,-0.054424983,62.570637,156.9064,0.0047884034,1442850,-669,388,-4382,9953
47335052,4029,0,-1.312996,-0.46774933,-9.289217,0.0005076141,0.0069477004,-0.026990518,62.570637,156.9064,0.0047884034,1442850,-1257,173,-1396,9953
47439029,4006,0,-0.40692478,1.6752626,-10.383401,0.027871788,0.012638741,-0.057197798,62.565098,156.9064,0.0047884034,1442850,-941,-146,-1359,9951
47539029,4006,0,-0.037299998,1.3419275,-10.711331,0.029590111,0.0019654948,-0.047583006,62.645428,156.9064,0.0047884034,1442850,-791,47,-4,9980
47639023,4000,0,1.2228281,0.06481709,-10.805021,0.01483272,-0.0070557874,-0.046767157,62.592796,156.9064,0.0047884034,1442850,933,860,-904,9961
47743023,3979,0,-0.49527934,-0.7049008,-10.117417,0.0039516925,0.005890324,-0.041099828,62.570637,156.9064,0.0047884034,1442850,55,-137,-1950,9953
47843034,4011,0,-0.56318074,-0.17470817,-10.812625,-0.02964976,0.0137415,-0.012515484,62.573406,156.9064,0.0047884034,1442850,67,93,-650,9954
47943023,4000,0,0.49569085,0.084323585,-9.848652,-0.021068985,0.013016765,-0.06838195,62.548477,156.9064,0.0047884034,1442850,2362,-1141,-1871,9945
48047023,4000,0,0.14898615,1.0069853,-10.731976,-0.010691935,0.004900122,-0.0038080106,62.576176,156.9064,0.0047884034,1442850,-73,774,-323,9955
48147022,3999,0,-0.65057933,-0.39205158,-10.024643,-0.0059721805,-0.014862126,-0.08007963,62.587257,156.9064,0.0047884034,1442850,-1031,-146,-4047,9959
48251023,4000,0,0.82920295,-1.4940286,-10.248604,-0.011110189,0.002639384,-0.078270465,62.587257,156.9064,0.0047884034,1442850,2056,-1380,-2816,9959
48351067,4037,0,0.53785235,-0.29855758,-10.397013,-0.01689091,0.008857004,-0.019601395,62.592796,156.9064,0.0047884034,1442850,2518,-322,-364,9961
48451031,4008,0,0.66399276,1.3393342,-9.383853,-0.004525693,0.013723822,-0.04604417,62.6205,156.9064,0.0047884034,1442850,2434,-526,-2537,9971
48555023,3994,0,-0.63414735,1.0612005,-9.328644,-0.024183424,-0.013500956,-0.036858354,62.565098,156.9064,0.0047884034,1442850,-534,863,-3762,9951
48655023,4000,0,0.12228113,-0.06435745,-11.204882,-0.038629755,-0.0007279441,-0.02164649,62.545704,156.9064,0.0047884034,1442850,1415,1147,-930,9944
48755059,4036,0,1.0799308,-0.9764109,-8.909537,0.038361214,-0.0035211593,-0.024848884,62.570637,156.9064,0.0047884034,1442850,751,-445,-1836,9953
48859029,4006,0,-1.8966515,0.79586643,-7.8325057,-0.0030760216,-0.0038769399,-0.030745916,62.518005,156.9064,0.0047884034,1442850,-2500,-131,-3418,9934
48959023,3988,0,0.58214825,1.2135978,-10.956562,-0.018935269,0.0075286105,-0.06175933,62.548477,156.9064,0.0047884034,1442850,1731,-558,165,9945
49063023,4000,0,0.5611713,0.13266024,-11.285242,-0.040466167,-0.010333126,-0.06522385,62.565098,156.9064,0.0047884034,1442850,1632,613,-1666,9951
49163023,3993,0,1.9581519,-1.3541895,-10.630833,0.005644237,-0.0042551835,-0.05156736,62.556786,156.9064,0.0047884034,1442850,2654,-254,-2515,9948
49263023,4000,0,-1.3493978,-2.3554845,-10.949238,0.03077557,-0.006958543,-0.017640145,62.567867,156.9064,0.0047884034,1442850,-2454,-274,-429,9952
49367031,4008,0,-0.039511275,0.41107976,-9.91682,0.038774867,0.006269267,-0.024468295,62.562325,156.9064,0.0047884034,1442850,-989,-516,-808,9950
49467023,4000,0,-0.5224913,1.5539527,-8.321521,-0.05914556,0.005062385,-0.047007218,62.512466,156.9064,0.0047884034,1442850,2016,-192,-2563,9932
49567023,3995,0,1.3664495,0.16761908,-7.569395,-0.0434995,-0.0054140473,-0.038227048,62.540165,156.9064,0.0047884034,1442850,3777,-102,-2607,9942
49671023,4000,0,2.190166,0.08160282,-7.8756304,-0.053451546,-0.003034328,-0.013741034,62.504154,156.9064,0.0047884034,1442850,4018,1069,-834,9929
49771022,3999,0,2.4796596,-1.0577521,-7.4666543,-0.046444207,-0.009034421,-0.048836123,62.512466,156.9064,0.0047884034,1442850,4684,-977,-2877,9932
49875023,3994,0,-0.22240323,0.9054014,-8.503483,0.042221382,-0.007863751,-0.012212234,62.523544,156.9064,0.0047884034,1442850,-2528,749,-1711,9936
49975023,4001,0,1.6822344,0.16956034,-10.04368,0.028156491,-0.005958279,-0.06742521,62.490303,156.9064,0.0047884034,1442850,1950,-440,-1461,9924
50075023,4000,0,-1.4888176,-0.9567224,-10.350433,-0.039503645,-0.009420464,-0.020887828,62.504154,156.9064,0.0047884034,1442850,-97,803,-1014,9929
50179029,3984,0,-0.15958805,-0.23720527,-9.468376,-0.04763762,0.017512698,-0.03989778,62.501385,156.9064,0.0047884034,1442850,1115,-723,-3117,9928
50279030,4007,0,0.7403674,0.7977603,-10.074966,0.032946862,0.0038677524,-0.024899404,62.584488,156.9064,0.0047884034,1442850,941,222,-1382,9958
50379023,4000,0,-1.0915551,2.1743302,-9.292118,0.015979027,0.015293118,-0.030451618,62.556786,156.9064,0.0047884034,1442850,-2110,-198,-2839,9948
50483023,4000,0,-0.49758786,1.4517188,-9.974144,0.029858934,-0.0036274563,-0.027964909,62.554016,156.9064,0.0047884034,1442850,-2237,658,-2116,9947
50583023,3988,0,-0.42633,-0.02995158,-11.189268,-0.039160036,-0.012141768,-0.029043056,62.537395,156.9064,0.0047884034,1442850,115,946,-2189,9941
50687023,4000,0,-0.893435,-1.6227918,-11.048643,-0.041569505,-0.009213605,-0.028306073,62.520775,156.9064,0.0047884034,1442850,204,691,-1833,9935
50787037,4007,0,-0.10759632,-1.107482,-11.087535,-0.030192032,0.020095952,-0.0773376,62.537395,156.9064,0.0047884034,1442850,2619,-1316,-648,9941
50887038,4015,0,-0.1673243,0.170562,-9.386609,0.041975066,0.0062506953,-0.051599026,62.537395,156.9064,0.0047884034,1442850,-201,-741,-5347,9941
50991023,4000,0,0.77315676,2.531113,-10.0939,0.020239629,-0.0050898865,-0.06352163,62.523544,156.9064,0.0047884034,1442850,1625,321,-3518,9936
51091023,4000,0,0.7496484,2.2117553,-10.733926,0.04107704,-0.0029960163,-0.07273262,62.567867,156.9064,0.0047884034,1442850,-1148,1171,-3137,9952
51191069,4046,0,-1.467998,0.07853571,-10.308458,-0.001540829,0.0042569055,-0.071668,62.540165,156.9064,0.0047884034,1442850,-2027,586,-4957,9942
51295033,4003,0,-1.7650782,-1.7078588,-11.607099,0.013430262,0.0047963182,-0.056316517,62.559555,156.9064,0.0047884034,1442850,-2525,118,-1593,9949
51395023,3988,0,-0.5653166,-1.0070125,-10.263587,-0.049896106,0.015764596,-0.055961452,62.562325,156.9064,0.0047884034,1442850,1742,-344,-2844,9950
51499029,4006,0,-0.5186903,1.5738919,-9.909074,-0.035516035,0.015680458,-0.04975882,62.592796,156.9064,0.0047884034,1442850,421,-126,-779,9961
51603029,4006,0,0.29764894,0.8829594,-10.942322,-0.042182095,-0.0032092987,-0.068292454,62.565098,156.9064,0.0047884034,1442850,1909,648,-939,9951
51703023,4000,0,0.892182,-0.8449914,-9.413654,0.050675586,-0.008653944,-0.01577394,62.578945,156.9064,0.0047884034,1442850,-784,775,-3551,9956
51807029,3981,0,-1.0321598,-0.951106,-9.752337,0.03507153,0.0014565494,-0.026819281,62.534626,156.9064,0.0047884034,1442850,-1963,656,-1337,9940
51907023,3991,0,0.0366324,0.26043096,-8.658649,-0.027817221,0.00369567,-0.030224632,62.62327,156.9064,0.0047884034,1442850,1877,-525,-2342,9972
52007023,4000,0,-1.81612,1.1521037,-8.842556,0.0027286569,-0.0065117045,-0.06808366,62.595566,156.9064,0.0047884034,1442850,-3022,-626,-2067,9962
52111023,4000,0,-0.9672969,0.45472687,-9.90508,-0.01192831,-0.017135648,-0.013852747,62.612186,156.9064,0.0047884034,1442850,-1793,680,-1041,9968
52211034,4011,0,1.9448214,-0.9578771,-9.680101,-0.0017078053,-0.005141066,-0.043053254,62.603878,156.9064,0.0047884034,1442850,3023,186,-2499,9965
52311023,4000,0,-0.20614684,-1.9384553,-9.869394,0.037937615,-0.002277234,-0.056539394,62.62327,156.9064,0.0047884034,1442850,-1335,-2,-1644,9972
52415023,4000,0,-0.48409584,0.2804366,-8.769505,0.03752355,0.010009689,-0.041080914,62.592796,156.9064,0.0047884034,1442850,-1505,-651,-3299,9961
52515023,3994,0,-1.1476868,1.7664092,-9.7905,-0.024053665,0.014461326,-0.018667411,62.62327,156.9064,0.0047884034,1442850,210,129,-1195,9972
52619039,4016,0,-0.9317398,0.89062524,-9.998616,-0.037361935,-5.2528107e-05,-0.05298585,62.65374,156.9064,0.0047884034,1442850,-1103,223,-2567,9983
52723023,4000,0,-0.43009812,-1.6808892,-9.690644,-0.037484344,-0.011373251,-0.0132300835,62.65097,156.9064,0.0047884034,1442850,784,512,-2063,9982
52823023,3985,0,-0.05778309,-1.2109196,-9.78821,0.02338674,0.011748004,-0.06442005,62.63435,156.9064,0.0047884034,1442850,-229,-281,-2398,9976
52927067,4044,0,1.0721258,0.67747045,-8.944165,0.030476613,0.011187842,-0.027837943,62.63435,156.9064,0.0047884034,1442850,1331,-442,-2537,9976
53027023,4000,0,-1.309818,2.0560663,-8.053811,-0.00917062,0.0016261715,-0.019283101,62.65928,156.9064,0.0047884034,1442850,-1555,457,-4058,9985
53127029,4006,0,0.5887057,1.4052428,-10.521982,-0.008075159,-0.0021593906,-0.06444822,62.645428,156.9064,0.0047884034,1442850,1244,94,-712,9980
53231023,4000,0,0.92251205,-1.3005117,-10.167813,-0.024399824,-0.01225778,-0.030484062,62.645428,156.9064,0.0047884034,1442850,2147,565,-2374,9980
53331043,4020,0,0.048442096,-2.0989027,-10.685328,0.025091216,0.0036004558,-0.070049085,62.64266,156.9064,0.0047884034,1442850,70,-736,-2074,9979
53431023,4000,0,-1.7370152,-1.1113384,-9.358305,0.0047131944,-0.0051632673,-0.016750958,62.631577,156.9064,0.0047884034,1442850,-1958,57,-1336,9975
53535023,4000,0,0.1942003,2.0647347,-9.262229,0.036518533,0.0025447167,-0.029945172,62.68975,156.9064,0.0047884034,1442850,-1173,999,-3258,9996
53635023,4000,0,-1.5629785,1.6511047,-9.009138,-0.0017920509,0.0018041701,-0.02809856,62.65374,156.9064,0.0047884034,1442850,-2035,12,-3252,9983
54963023,3977,0,-1.6524866,-0.61212325,-10.114344,0.019845234,0.005715883,-0.040036567,62.628807,156.9064,0.0047884034,1442850,-2721,-240,-713,9974
55063023,4000,0,-0.5807145,1.1764516,-9.0701885,-0.0240757,0.009584814,-0.015276565,62.64266,156.9064,0.0047884034,1442850,-386,-1076,-1681,9979
55167039,4009,0,-1.0457054,1.4513443,-9.509633,-0.0078013693,-0.009816122,-0.024796551,62.603878,156.9064,0.0047884034,1442850,-1905,-66,-1053,9965
55267023,4000,0,0.14671229,0.27659777,-9.675372,-0.019986898,-0.012376232,-0.039904546,62.67036,156.9064,0.0047884034,1442850,433,678,-3342,9989
55367023,3950,0,1.3132788,-1.2197784,-11.643422,-0.017908664,-0.0037223203,-0.040392257,62.626038,156.9064,0.0047884034,1442850,1329,208,1092,9973
55471050,4017,0,-1.6352437,-0.8514454,-10.294599,-0.027691113,0.011230666,-0.05176631,62.65374,156.9064,0.0047884034,1442850,-823,-856,-1234,9983
55571034,4011,0,-0.3704181,0.60269696,-9.697516,-0.020844268,0.0074504167,-0.0024767718,62.626038,156.9064,0.0047884034,1442850,995,-217,-1046,9973
55671023,4000,0,0.7898114,1.8122914,-9.765361,-0.00072252797,0.011517372,-0.06691503,62.65374,156.9064,0.0047884034,1442850,2118,-396,-2394,9983
55775071,4048,0,0.2404562,0.8732732,-10.037895,-0.023365406,-0.0027266187,-0.026781607,62.64266,156.9064,0.0047884034,1442850,1290,812,-2464,9979
55875025,4002,0,1.464666,-1.0480349,-11.241413,0.00027017994,-0.010107048,-0.074000224,62.61773,156.9064,0.0047884034,1442850,2416,524,-573,9970
55979023,4000,0,-0.4332413,-1.7415919,-10.322048,-0.04165715,0.0055237203,-0.05171472,62.6205,156.9064,0.0047884034,1442850,1574,-658,-2728,9971
56083026,4003,0,-1.5386069,1.1008798,-8.959219,0.011475653,0.008083296,-0.042176444,62.606647,156.9064,0.0047884034,1442850,-2154,-240,-4149,9966
56183023,3992,0,-0.71545297,1.8611636,-10.150682,-0.044172265,0.008021548,-0.044691924,62.537395,156.9064,0.0047884034,1442850,89,133,-1387,9941
56287023,4000,0,-0.92657495,-0.6262792,-9.452797,0.008517604,-0.0077532483,-0.04114435,62.576176,156.9064,0.0047884034,1442850,-2303,147,-3681,9955
56387023,4000,0,0.4574328,-1.4223949,-11.210362,-0.03778203,-0.009498281,-0.040280394,62.592796,156.9064,0.0047884034,1442850,1621,1478,-670,9961
56487069,4039,0,1.4852209,-2.2818644,-10.259477,-0.008071462,0.0012455478,-0.03349037,62.548477,156.9064,0.0047884034,1442850,2985,-930,-1151,9945
56591023,4000,0,1.169089,0.09627998,-10.453165,-0.0023707263,0.015656082,-0.033180553,62.565098,156.9064,0.0047884034,1442850,3065,-1123,-35,9951
56691023,4000,0,-1.401077,1.8383077,-7.915101,0.0059083644,0.0059430026,-0.026124125,62.570637,156.9064,0.0047884034,1442850,-2314,-446,-4260,9953
56791023,3991,0,0.1994035,1.1840134,-9.866159,-0.03542373,0.0023782512,-0.069036126,62.592796,156.9064,0.0047884034,1442850,806,-699,-1722,9961
56895023,3983,0,0.97262263,-0.491881,-9.935013,-0.03431864,-0.010788647,-0.023840593,62.578945,156.9064,0.0047884034,1442850,2231,841,-1779,9956
56995023,4000,0,1.0130671,-2.0059738,-9.961008,0.03191313,-0.0046838047,-0.0779917,62.612186,156.9064,0.0047884034,1442850,328,-783,-3460,9968
57099041,4018,0,-0.38289112,-0.39606282,-8.543015,0.038270257,0.002544724,-0.021543188,62.570637,156.9064,0.0047884034,1442850,-1075,-331,-3550,9953
57203846,4024,0,-0.6016178,2.4637687,-9.48751,0.039115958,0.0023376644,-0.027753912,62.612186,156.9064,0.0047884034,1442850,-1952,419,-2794,9968
57304635,4012,0,-1.0102429,0.5638953,-9.010694,-0.018690784,-0.012059311,-0.04504612,62.590027,156.9064,0.0047884034,1442850,-1684,-87,-3228,9960
57404622,3999,0,1.0615296,-0.020526621,-11.052289,-0.0022243755,-0.0058090966,-0.06938733,62.576176,156.9064,0.0047884034,1442850,1504,758,-2096,9955
57508630,4001,0,0.68391657,-1.5250709,-10.388952,-0.024196476,0.010107243,-0.03493561,62.573406,156.9064,0.0047884034,1442850,2278,-929,-525,9954
57612622,3999,0,0.6690776,0.56691414,-10.458357,-0.023662731,0.013965506,-0.027156591,62.573406,156.9064,0.0047884034,1442850,2417,-1203,300,9954
57712629,4006,0,0.8257045,2.3544238,-9.167046,0.021606386,-0.0025654924,-0.041715723,62.58172,156.9064,0.0047884034,1442850,921,-31,-3996,9957
57816632,4009,0,1.0311366,1.0928142,-10.2172985,-0.025400136,-0.0056118164,-0.04066532,62.595566,156.9064,0.0047884034,1442850,2154,773,-3543,9962
57916623,4000,0,1.4405184,-0.69778043,-11.581527,0.007871506,0.0016044072,-0.040965848,62.573406,156.9064,0.0047884034,1442850,1424,336,72,9954
58016623,3993,0,-0.2853309,-2.3826535,-9.861832,0.025338827,-0.000806798,-0.033369917,62.565098,156.9064,0.0047884034,1442850,-701,-668,-3639,9951
58120623,4001,0,0.30412087,-0.03587444,-10.213974,0.033371765,0.0048100315,-0.026489656,62.523544,156.9064,0.0047884034,1442850,624,-672,-1858,9936
58220623,3971,0,-1.34969,1.820033,-8.824407,0.024575701,0.009292654,-0.037280407,62.523544,156.9064,0.0047884034,1442850,-2394,-207,-2560,9936
58320631,4008,0,-0.47902933,1.5120463,-10.451402,-0.043237872,0.0064052125,-0.04690191,62.515236,156.9064,0.0047884034,1442850,851,-121,-614,9933
58424633,4010,0,-1.0073322,-0.8216767,-9.736201,-0.0033755973,-0.013252951,-0.04699401,62.548477,156.9064,0.0047884034,1442850,-1916,114,-2694,9945
58524623,4000,0,1.1519787,-1.2148423,-11.4479,-0.031245556,0.003654916,-0.034183063,62.495846,156.9064,0.0047884034,1442850,2189,367,733,9926
58628655,4032,0,-0.35990575,-0.31225735,-9.516266,-0.0486504,0.016862232,-0.042502217,62.531857,156.9064,0.0047884034,1442850,1688,-850,-2380,9939
58732631,4008,0,0.27940866,1.8398113,-9.386582,-0.040429186,0.008639325,-0.006193807,62.520775,156.9064,0.0047884034,1442850,1471,41,-1441,9935
58832623,3985,0,0.9553211,1.5851084,-9.70352,0.017466765,0.005125109,-0.07962824,62.534626,156.9064,0.0047884034,1442850,668,-482,-2232,9940
58936657,4035,0,2.1247926,-0.95585203,-10.24925,0.0028406717,-0.004038959,-0.0440717,62.509693,156.9064,0.0047884034,1442850,2750,-468,-1224,9931
59036623,3994,0,0.5145983,-1.9355454,-9.683423,0.023986714,-0.004657613,-0.058995254,62.495846,156.9064,0.0047884034,1442850,257,-286,-4876,9926
59136623,3956,0,-1.6602454,-0.48154137,-10.609692,0.018170837,0.0058130436,-0.033039268,62.531857,156.9064,0.0047884034,1442850,-2613,-3,716,9939
59240623,4000,0,-0.3687836,2.2151153,-8.343376,0.030962784,0.008188052,-0.046369568,62.512466,156.9064,0.0047884034,1442850,-1061,86,-5320,9932
59340677,4054,0,-0.9207664,1.5075501,-9.621833,-0.0035458063,0.009648559,-0.048422866,62.501385,156.9064,0.0047884034,1442850,-1667,-466,-818,9928
59440631,4008,0,0.0101844445,1.1570758,-10.918833,-0.030559672,-0.011848259,-0.019762734,62.487534,156.9064,0.0047884034,1442850,1234,1358,-880,9923
59544623,4001,0,-0.50631773,-1.6521893,-9.8607025,-0.03752296,-0.0071729934,-0.05702308,62.526314,156.9064,0.0047884034,1442850,145,-161,-3662,9937
59644623,4000,0,0.15847518,-1.4039828,-10.723667,-0.018506477,0.01794123,-0.053862907,62.526314,156.9064,0.0047884034,1442850,1850,-678,-1004,9937
59748625,4002,0,-0.6061398,1.3813777,-9.075266,-0.032280713,0.009882133,-0.015274708,62.490303,156.9064,0.0047884034,1442850,303,-334,-2526,9924
59852633,4010,0,-1.448169,1.3910568,-10.187857,0.006427433,-0.002622968,-0.044824697,62.493073,156.9064,0.0047884034,1442850,-3003,-38,-420,9925
59952657,4035,0,-0.39255485,0.68503624,-10.445293,-0.029190388,-0.01969767,-0.012747168,62.518005,156.9064,0.0047884034,1442850,346,1341,-1567,9934
60056667,4040,0,-1.0936162,-1.6379907,-10.544733,0.013670384,-0.0059910105,-0.06909892,62.551247,156.9064,0.0047884034,1442850,-2190,-130,-831,9946
60156623,4000,0,-1.3974843,-0.7176951,-10.429715,-0.014495064,0.00077172846,-0.041718002,62.573406,156.9064,0.0047884034,1442850,-1571,225,-1671,9954
60256623,3993,0,-0.95373124,0.818087,-9.812857,-0.022213748,0.016883858,-0.0030314247,62.542934,156.9064,0.0047884034,1442850,-158,-707,-1142,9943
60360623,3987,0,-0.89553064,1.6501795,-9.1521635,0.015982147,0.007055981,-0.052928187,62.559555,156.9064,0.0047884034,1442850,-2414,-362,-2288,9949
60460623,4000,0,-0.82350063,1.1027777,-10.625792,0.0038545853,-0.0011367437,-0.0308999,62.573406,156.9064,0.0047884034,1442850,-1743,475,-35,9954
60560669,4046,0,-1.1138824,-0.2579791,-10.107319,-0.010792604,-0.021983866,-0.038165107,62.556786,156.9064,0.0047884034,1442850,-1147,632,-2702,9948
60664631,4002,0,0.15645412,-1.7713137,-10.762061,0.030372059,0.0014291069,-0.05119638,62.512466,156.9064,0.0047884034,1442850,-357,-18,-853,9932
60764623,4000,0,-1.6085014,-0.40183094,-10.218513,0.03347559,-0.0026938468,-0.016825046,62.556786,156.9064,0.0047884034,1442850,-2410,150,-563,9948
60868655,4032,0,0.49626097,2.2521443,-9.740371,0.0010470459,0.0015367956,-0.07620664,62.481995,156.9064,0.0047884034,1442850,1978,-766,-2430,9921
60972623,3944,0,-1.1268753,0.94674534,-9.984628,-0.034639567,-0.008088814,-0.018505499,62.523544,156.9064,0.0047884034,1442850,-676,673,-2127,9936
61072623,4000,0,0.4084297,-0.7753638,-9.967314,-0.04209374,-0.00978037,-0.052571554,62.501385,156.9064,0.0047884034,1442850,1637,-58,-3399,9928
61176636,4013,0,-0.8353703,-1.2636831,-10.5117035,-0.016327871,-0.011317747,-0.031520274,62.501385,156.9064,0.0047884034,1442850,-820,-376,77,9928
61276623,4000,0,-0.9172309,0.37339675,-9.187046,0.0020714402,-0.0012342648,-0.014767965,62.512466,156.9064,0.0047884034,1442850,-1549,-192,-1875,9932
61376623,3967,0,-1.0849944,1.296769,-8.705633,-0.0186731,0.0077738147,-0.015720597,62.506924,156.9064,0.0047884034,1442850,-1139,-96,-2874,9930
61480625,4002,0,0.18275377,1.2374672,-10.458874,0.041132364,-0.0068673305,-0.032053165,62.470913,156.9064,0.0047884034,1442850,-1340,1315,-1384,9917
61580623,4000,0,-0.4314165,-0.08196858,-10.204204,0.027042463,-0.011116587,-0.03156116,62.518005,156.9064,0.0047884034,1442850,-1656,708,-2648,9934
61680633,4010,0,-0.80998325,-1.3923323,-9.469387,0.025054043,-0.011271278,-0.022481877,62.495846,156.9064,0.0047884034,1442850,-1901,141,-2974,9926
61784624,4001,0,0.45780417,-0.03063767,-10.873284,0.020315383,0.01103331,-0.044114936,62.512466,156.9064,0.0047884034,1442850,581,-742,774,9932
61884623,4000,0,1.100155,1.244146,-9.83181,0.014972139,0.0055795414,-0.027172439,62.473682,156.9064,0.0047884034,1442850,1890,-629,-1622,9918
61988667,4031,0,0.20366769,1.5053439,-9.743535,-0.037749935,0.0017500541,-0.057703037,62.520775,156.9064,0.0047884034,1442850,1541,93,-2707,9935
62092653,4030,0,-1.0391644,-1.2037481,-10.951358,-0.012093509,-0.015627952,-0.027360404,62.534626,156.9064,0.0047884034,1442850,-988,554,-322,9940
62192623,3994,0,-0.91633934,-1.2962266,-10.687038,-0.016145285,-0.0010757984,-0.015460826,62.518005,156.9064,0.0047884034,1442850,-1182,-369,-166,9934
62296630,4008,0,-0.49419478,0.9358073,-9.1912,0.037007313,0.011301363,-0.059867777,62.506924,156.9064,0.0047884034,1442850,-1184,-729,-4001,9930
62396623,4000,0,-0.11380805,1.3800851,-9.542996,0.02616057,0.007166867,-0.0732928,62.567867,156.9064,0.0047884034,1442850,-1060,-893,-2727,9952
62496651,3973,0,-0.31661895,1.1229843,-9.768175,0.026852759,-0.007485765,-0.049699385,62.542934,156.9064,0.0047884034,1442850,-1949,216,-1379,9943
62600623,3988,0,1.4642214,-1.3487309,-10.276685,0.01262402,-0.011984314,-0.043215353,62.537395,156.9064,0.0047884034,1442850,1805,-119,-1343,9941
62700623,3995,0,1.0074753,-1.8405777,-9.891301,0.0037703444,-0.011738083,-0.051896147,62.556786,156.9064,0.0047884034,1442850,1720,-392,-2512,9948
62800631,4008,0,0.6275068,-0.8598741,-9.432831,0.01363899,-0.00026059826,-0.03276229,62.567867,156.9064,0.0047884034,1442850,1719,-596,-2348,9952
62904623,4000,0,-0.8727898,1.1337787,-9.759995,-0.026641019,0.010117016,-0.039538745,62.542934,156.9064,0.0047884034,1442850,-179,152,-2706,9943
63004623,4000,0,-0.425985,1.7476251,-9.766356,-0.01392332,0.004236246,-0.038257264,62.578945,156.9064,0.0047884034,1442850,-465,1011,-2254,9956
63108672,4049,0,0.26423755,-0.6330223,-10.105725,0.03684148,-0.02163051,-0.020368025,62.570637,156.9064,0.0047884034,1442850,-463,771,-2014,9953
63212623,4000,0,-0.13126338,-1.4607214,-10.082401,-0.04048337,0.011023443,-0.06368472,62.584488,156.9064,0.0047884034,1442850,1049,-946,-2279,9958
63312623,4000,0,-0.42719257,0.38936242,-9.6769495,-0.026695933,0.023338692,-0.047683924,62.603878,156.9064,0.0047884034,1442850,775,-278,-3202,9965
63416671,4039,0,-0.49252138,1.874416,-9.415823,0.028996956,-0.0014920551,-0.027230006,62.578945,156.9064,0.0047884034,1442850,-1356,-80,-1615,9956
63516623,3961,0,0.5495887,1.0814482,-9.0784855,0.026534818,-0.016219756,-0.029126987,62.590027,156.9064,0.0047884034,1442850,-30,1100,-3834,9960
63616623,3977,0,0.64272314,-0.6631628,-9.944498,0.033157486,-0.01986516,-0.022958368,62.573406,156.9064,0.0047884034,1442850,-82,892,-2485,9954
63720623,3998,0,-0.57463706,-1.6080084,-10.40817,-0.0353017,-0.0019162493,-0.059709556,62.603878,156.9064,0.0047884034,1442850,364,-641,-2844,9965
63820623,3993,0,-1.013738,-0.44681352,-9.719704,0.0005244543,0.0137915,-0.061509423,62.548477,156.9064,0.0047884034,1442850,-1570,-409,-3628,9945
63920668,4016,0,-0.94536096,1.4007683,-9.260221,0.031438895,0.010658161,-0.06096279,62.565098,156.9064,0.0047884034,1442850,-2054,-397,-2446,9951
64024678,4055,0,0.029767133,1.8020357,-10.0928955,-0.034377422,0.0055499645,-0.0255593,62.578945,156.9064,0.0047884034,1442850,1444,-85,-177,9956
64124654,4031,0,-0.6917457,1.0098675,-10.071781,-0.016616656,-0.013429933,-0.020659598,62.590027,156.9064,0.0047884034,1442850,-1195,360,-1435,9960
64228626,4003,0,0.17022003,-1.6844493,-9.891861,0.0052707857,-0.006361345,-0.050771397,62.578945,156.9064,0.0047884034,1442850,627,-1124,-3110,9956
64332629,4006,0,-1.1358837,0.5352048,-9.798713,0.0028871058,0.017320318,-0.045444153,62.573406,156.9064,0.0047884034,1442850,-1844,-619,-1136,9954
64432623,3990,0,-0.5305425,1.5049971,-10.305323,0.014733402,0.012439427,-0.06394585,62.60111,156.9064,0.0047884034,1442850,-950,-267,-245,9964
64536630,4007,0,-0.13688648,1.7563486,-8.70176,-0.02482126,-0.00062536774,-0.028067704,62.576176,156.9064,0.0047884034,1442850,155,497,-4309,9955
64636623,4000,0,-0.7221145,0.30065084,-9.915964,0.011408839,-0.010964467,-0.07401579,62.576176,156.9064,0.0047884034,1442850,-2187,258,-3643,9955
64736623,3982,0,-0.093438186,-0.69973046,-10.119114,0.03516208,-0.006526243,-0.0637321,62.576176,156.9064,0.0047884034,1442850,-1697,652,-3041,9955
64840623,4001,0,-0.11926577,0.0077733314,-10.414078,-0.029652482,0.0029463512,-0.010149406,62.573406,156.9064,0.0047884034,1442850,1565,-532,-735,9954
64940623,4000,0,0.12766281,0.9778618,-9.014995,-0.01718589,0.0017554525,-0.0037638308,62.565098,156.9064,0.0047884034,1442850,1251,132,-2222,9951
65040675,4052,0,-0.813153,1.5796555,-8.745911,-0.020825088,-0.0005860027,-0.019326018,62.570637,156.9064,0.0047884034,1442850,-367,647,-3137,9953
65144623,3953,0,0.5399695,-0.37394443,-10.89763,0.036301535,-0.01060648,-0.053597134,62.592796,156.9064,0.0047884034,1442850,-483,-32,-1432,9961
65244623,4000,0,0.6533885,-1.3470706,-10.761827,0.015133569,-0.011624444,-0.039253883,62.595566,156.9064,0.0047884034,1442850,1445,610,-2450,9962
65348662,4039,0,-0.5595251,-0.50804806,-9.394267,-0.020657271,0.011455274,-0.027632814,62.6205,156.9064,0.0047884034,1442850,847,-558,-3651,9971
65448623,3985,0,-0.40770024,0.29586405,-9.134902,-0.0096211145,0.00921542,-0.03283806,62.63435,156.9064,0.0047884034,1442850,47,-734,-2903,9976
65548623,3970,0,-0.6702591,1.4485439,-9.299788,-0.023448847,0.002486314,-0.06032298,62.626038,156.9064,0.0047884034,1442850,-58,-735,-2373,9973
65652649,4026,0,0.7006981,0.20945956,-10.183135,0.024119038,-0.011955794,-0.036317743,62.614956,156.9064,0.0047884034,1442850,-69,1023,-2644,9969
65752640,4017,0,0.7079817,-0.6854398,-10.457588,0.0114818765,-0.009747315,-0.03590047,62.66759,156.9064,0.0047884034,1442850,91,266,-726,9988
65852667,4044,0,0.1888231,-0.9867099,-10.413031,-0.007918525,-0.0023362425,-0.033163294,62.614956,156.9064,0.0047884034,1442850,436,-166,-657,9969
65956655,4032,0,-0.829252,0.57825,-9.114298,-0.002227016,0.0035385722,-0.0565297,62.645428,156.9064,0.0047884034,1442850,-973,-454,-2849,9980
66056623,3989,0,-0.6154802,1.4793853,-9.087094,0.03129769,0.005622444,-0.05871333,62.645428,156.9064,0.0047884034,1442850,-1489,-260,-2756,9980
66160631,4009,0,-0.0980133,0.229704,-10.821417,-0.02080541,-0.00793762,-0.017890777,62.631577,156.9064,0.0047884034,1442850,336,649,43,9975
66260623,4000,0,-0.22673027,-1.2570733,-10.4351845,-0.030234028,-0.009539371,-0.02419322,62.609417,156.9064,0.0047884034,1442850,192,551,-1919,9967
66360622,3951,0,-0.95101124,-1.3589674,-10.465226,0.0005480964,-0.009344438,-0.028031882,62.590027,156.9064,0.0047884034,1442850,-1577,-114,-1217,9960
66464623,3998,0,-0.44188023,0.34285453,-9.148903,-0.028573852,0.0064739203,-0.02943995,62.595566,156.9064,0.0047884034,1442850,507,-369,-2020,9962
66564624,3976,0,-1.0274936,1.6080343,-8.678796,-0.009135593,0.0023340744,-0.0065393946,62.60111,156.9064,0.0047884034,1442850,-1194,569,-2134,9964
66664632,4009,0,0.16936685,1.0882212,-9.535674,0.028229818,-0.006220647,-0.026037281,62.609417,156.9064,0.0047884034,1442850,-319,1088,-2245,9967
66768623,3994,0,-0.6325381,-1.2645702,-9.440914,-0.011455502,-0.009712927,-0.041047566,62.612186,156.9064,0.0047884034,1442850,-1160,420,-4462,9968
66868633,4010,0,-0.32448518,-2.143417,-10.164398,0.0100911455,-0.007083147,-0.052939832,62.590027,156.9064,0.0047884034,1442850,-550,-880,-2872,9960
66972636,4013,0,-1.3139578,0.8314592,-10.108956,-0.008919328,0.012909658,-0.048404533,62.603878,156.9064,0.0047884034,1442850,-1457,-255,-1194,9965
67072633,4010,0,-0.008473204,1.7179245,-10.374191,0.02968169,0.008481751,-0.04277291,62.626038,156.9064,0.0047884034,1442850,87,582,-1361,9973
67172623,3993,0,0.2789231,1.8301666,-10.340994,-0.015422695,-0.0017881551,-0.039207023,62.64266,156.9064,0.0047884034,1442850,964,-541,103,9979
67276623,4000,0,1.4799048,0.073046066,-9.938524,0.009876423,-0.016100882,-0.035966218,62.626038,156.9064,0.0047884034,1442850,1538,70,-2891,9973
67376623,4000,0,0.2764256,-1.329232,-9.79801,-0.021034354,-0.0026243178,-0.030496104,62.64266,156.9064,0.0047884034,1442850,926,95,-2627,9979
67476668,4042,0,-0.8082404,-1.1505517,-9.404674,-0.029740393,0.0018166828,-0.014441799,62.63712,156.9064,0.0047884034,1442850,-780,307,-2762,9977
67580622,3999,0,0.7304952,0.2585418,-9.022027,0.022366876,0.0037374278,-0.046306502,62.631577,156.9064,0.0047884034,1442850,1542,11,-3949,9975
67680623,4001,0,0.75448763,1.6464273,-9.599606,-0.0115683805,0.006237858,-0.062411614,62.67036,156.9064,0.0047884034,1442850,1816,-1008,-2413,9989
67784667,4044,0,-0.7963194,1.203239,-9.971588,0.0010304791,-0.0099615725,-0.025909336,62.631577,156.9064,0.0047884034,1442850,-1268,1308,-1868,9975
67884623,4001,0,-0.3991659,-0.43550056,-10.320615,-0.0006723935,-0.013127908,-0.024940293,62.664818,156.9064,0.0047884034,1442850,-1531,253,-677,9987
67984623,3967,0,-1.1079279,-1.5714182,-10.062582,0.011226178,-0.008046845,-0.019069983,62.63435,156.9064,0.0047884034,1442850,-1744,118,-1518,9976
68088643,4020,0,0.007926369,0.05636788,-10.712294,0.010945652,0.020813081,-0.052839886,62.6205,156.9064,0.0047884034,1442850,1024,-195,-237,9971
68188623,4000,0,1.1663653,1.3703057,-9.872104,0.013508612,0.0087066945,-0.042041022,62.65097,156.9064,0.0047884034,1442850,1668,-272,-1082,9982
68288671,4048,0,0.3434374,1.7814132,-8.867788,0.02278027,0.00032637955,-0.045690764,62.609417,156.9064,0.0047884034,1442850,168,-87,-2975,9967
68392639,4016,0,1.2119752,-0.13122433,-10.69473,-0.0133748995,-0.01085277,-0.015378414,62.67867,156.9064,0.0047884034,1442850,2154,906,-349,9992
68492630,4007,0,1.0369446,-1.2155358,-10.401016,0.00081423763,0.0060139582,-0.05102498,62.63989,156.9064,0.0047884034,1442850,1742,101,-3675,9978
68596632,4009,0,-0.20177709,0.2511933,-9.693752,-0.012276426,0.012510511,-0.011312729,62.65651,156.9064,0.0047884034,1442850,956,84,-1671,9984
68700631,4008,0,-0.5894269,1.8396927,-9.801891,-0.0223618,0.009335173,-0.002932315,62.648197,156.9064,0.0047884034,1442850,59,656,-1113,9981
68800623,4000,0,0.45131174,1.1080866,-9.977201,-0.0268821,-0.009636189,-0.0510471,62.65651,156.9064,0.0047884034,1442850,2018,971,-3202,9984
68904630,4006,0,-0.28301027,-1.7012637,-9.679249,-0.024848308,-0.007305913,-0.028163444,62.664818,156.9064,0.0047884034,1442850,733,719,-4428,9987
69004623,4000,0,-0.35938317,-1.2398871,-11.363702,-0.023227181,0.010064297,-0.017175036,62.626038,156.9064,0.0047884034,1442850,907,-374,279,9973
69104657,4027,0,0.35638222,-0.9347831,-9.820832,0.0049062497,0.010936844,-0.08027074,62.65097,156.9064,0.0047884034,1442850,1579,-1632,-2054,9982
69208623,4000,0,0.29977152,2.4011557,-9.484251,-0.03792098,0.006092909,-0.049143992,62.65097,156.9064,0.0047884034,1442850,1744,-161,-3436,9982
69308622,3999,0,0.6122486,1.9076699,-10.69917,-0.0034595742,-0.006761669,-0.045397364,62.67313,156.9064,0.0047884034,1442850,1675,243,212,9990
69408649,4027,0,0.13058648,-0.07746251,-9.65591,0.031923536,-0.007944426,-0.067343146,62.65374,156.9064,0.0047884034,1442850,-992,363,-4934,9983
69512623,3960,0,0.67988634,-2.8789418,-9.310182,0.024408676,-0.011754366,-0.04809483,62.71468,156.9064,0.0047884034,1442850,23,-933,-4173,10005
69612623,4000,0,-2.3561049,-1.0182892,-10.184343,-0.009308735,0.0011006386,-0.033879794,62.65651,156.9064,0.0047884034,1442850,-2237,328,-528,9984
69716697,4074,0,-0.86609656,1.9238529,-8.957952,-0.004216218,0.005426763,-0.04772053,62.65374,156.9064,0.0047884034,1442850,-2154,-474,-2126,9983
69820635,4012,0,-1.26887,0.6784052,-8.895461,-0.01367678,-0.008762153,-0.04864938,62.69806,156.9064,0.0047884034,1442850,-1440,-272,-4403,9999
69920623,4000,0,1.2369064,-0.3280987,-11.354507,0.0008208952,-0.019033384,-0.04332768,62.6759,156.9064,0.0047884034,1442850,1668,1157,11,9991
70024632,4009,0,0.92686737,-1.6065252,-11.136258,-0.0040490334,-0.0031741199,-0.06307835,62.69252,156.9064,0.0047884034,1442850,2323,-432,544,9997
70124623,3950,0,-1.3636616,-0.09020291,-9.785425,0.033536814,0.009116604,-0.01951629,62.65374,156.9064,0.0047884034,1442850,-2469,182,-1861,9983
70224623,3956,0,-1.4423463,1.4107733,-9.579771,-0.029820135,0.0234688,-0.057183173,62.6759,156.9064,0.0047884034,1442850,-1115,-1051,-2820,9991
70328623,3992,0,-0.79700947,1.1933292,-9.078298,-0.010638092,-0.002772443,-0.03069223,62.67313,156.9064,0.0047884034,1442850,-1546,224,-3792,9990
70430232,4009,0,0.8279045,-0.57141113,-11.151395,-0.023390073,-0.015159673,-0.017177396,62.7036,156.9064,0.0047884034,1442850,1676,350,755,10001
70530223,3951,0,-0.9244053,-1.5058876,-9.953591,0.021929402,-0.0004894424,-0.03306688,62.645428,156.9064,0.0047884034,1442850,-2192,231,-1379,9980
70630226,3997,0,-0.3123395,-1.5992992,-9.76993,-0.043305412,0.002738689,-0.06097333,62.66759,156.9064,0.0047884034,1442850,1431,-1174,-3852,9988
70734223,4000,0,-1.11592,0.4510597,-8.595453,-0.030023217,0.021233924,-0.0465274,62.65374,156.9064,0.0047884034,1442850,141,-1792,-3342,9983
70834273,4050,0,0.69685364,1.8192066,-9.5189495,-0.020050216,0.0062237736,-0.048602264,62.67036,156.9064,0.0047884034,1442850,2269,-372,-2437,9989
70934229,4006,0,1.0647167,2.078419,-9.204023,0.027812349,-0.007928163,-0.019990914,62.65928,156.9064,0.0047884034,1442850,1230,513,-2410,9985
71038239,4009,0,2.008478,-0.3396135,-11.242503,0.0074601327,-0.002739088,-0.03293759,62.66205,156.9064,0.0047884034,1442850,1839,480,550,9986
71138223,3997,0,0.16562992,-1.8202157,-9.880949,0.023968574,0.0061653676,-0.02596864,62.67036,156.9064,0.0047884034,1442850,182,-99,-2245,9989
71242223,3989,0,0.45434007,-0.08623364,-10.492817,0.011429926,0.02175025,-0.04748839,62.68144,156.9064,0.0047884034,1442850,1577,-845,-303,9993
71342223,4000,0,0.27720773,2.1534293,-9.25751,0.039119896,-0.0004109969,-0.033060104,62.67036,156.9064,0.0047884034,1442850,-569,-81,-2280,9989
71442228,4005,0,-1.1787043,2.5976574,-8.532398,0.024150804,0.008791351,-0.051696315,62.645428,156.9064,0.0047884034,1442850,-2104,25,-4078,9980
71546223,4000,0,0.42878425,0.56478155,-8.864622,0.033313833,-0.016800532,-0.04678729,62.68144,156.9064,0.0047884034,1442850,-475,1142,-5657,9993
71646223,4000,0,-0.6787608,-0.3205698,-10.505663,0.023900293,-0.012007124,-0.04726307,62.69529,156.9064,0.0047884034,1442850,-2532,526,-357,9998
71746223,3982,0,-0.9735034,-1.7725303,-10.210131,-0.032453448,-0.008609886,-0.015390152,62.72576,156.9064,0.0047884034,1442850,-494,288,-1912,10009
71850260,4037,0,-2.378607,-0.7454005,-10.704751,0.00063620694,0.006683142,-0.04340304,62.67036,156.9064,0.0047884034,1442850,-2636,-597,-298,9989
71950223,3988,0,-1.1953021,0.77345246,-9.282786,-0.033246495,0.015265774,-0.018462341,62.66759,156.9064,0.0047884034,1442850,-154,-1047,-1189,9988
72054223,4000,0,-0.79048216,2.0214334,-10.389497,-0.03248803,0.0031372816,-0.028815508,62.684208,156.9064,0.0047884034,1442850,-634,209,-1336,9994
72158223,4000,0,-1.0781507,-0.17884031,-10.62745,0.018987257,-0.0023534396,-0.060342558,62.68144,156.9064,0.0047884034,1442850,-2826,318,-1292,9993
72258223,3993,0,0.59967667,-1.3030851,-11.00113,-0.045232974,-0.019466657,-0.011487749,62.65374,156.9064,0.0047884034,1442850,2351,1192,-1002,9983
72362223,4000,0,-0.565059,-0.7530945,-10.715364,-0.043501407,0.012992639,-0.0442179,62.648197,156.9064,0.0047884034,1442850,1053,-621,-54,9981
72462268,3996,0,0.542512,-0.21587335,-9.253664,0.02640539,-0.0033932235,-0.011377213,62.67313,156.9064,0.0047884034,1442850,1136,-251,-3101,9990
72562231,4008,0,-1.7009442,2.313721,-8.922076,0.023765896,0.014453943,-0.029125497,62.68698,156.9064,0.0047884034,1442850,-2417,-659,-2309,9995
72666223,4000,0,-1.2451662,1.6915039,-9.89397,0.0061649033,0.0014728126,-0.019235771,62.65374,156.9064,0.0047884034,1442850,-2166,200,-744,9983
72766227,4004,0,1.0968245,0.21625005,-9.55579,-0.03879986,-0.0118936,-0.04054736,62.65374,156.9064,0.0047884034,1442850,2300,856,-3438,9983
72866233,4010,0,-0.6698027,-1.550407,-10.274756,0.04049193,0.0026165554,-0.061130717,62.68975,156.9064,0.0047884034,1442850,-1965,15,-3960,9996
72970238,4015,0,-1.3175772,-0.9794553,-8.896272,0.016954042,-0.00241572,-0.01675579,62.67313,156.9064,0.0047884034,1442850,-2537,-335,-2738,9990
73070223,4000,0,-1.3552936,0.533068,-9.371117,-0.04476119,0.017719109,-0.03468409,62.66205,156.9064,0.0047884034,1442850,785,-715,-2859,9986
73174242,4013,0,0.5151689,1.9217305,-9.904012,-0.037558544,0.008566911,-0.005184508,62.67036,156.9064,0.0047884034,1442850,1384,273,-1481,9989
73278230,4007,0,0.40664455,0.1653099,-11.171139,-0.041538663,-0.00090809626,-0.03769072,62.67036,156.9064,0.0047884034,1442850,1389,798,-734,9989
73378261,4032,0,1.6554898,-0.9525891,-10.268871,0.032609783,-0.013126664,-0.03632915,62.64266,156.9064,0.0047884034,1442850,1157,260,-2446,9979
73482223,4000,0,0.88893425,-1.6170763,-9.514867,0.012783368,0.011287244,-0.0666267,62.66759,156.9064,0.0047884034,1442850,2121,-1278,-2838,9988
73582223,4000,0,-1.6656923,0.6640124,-10.0210085,0.027051441,0.012149378,-0.024134498,62.65374,156.9064,0.0047884034,1442850,-2193,79,-2233,9983
73682233,4010,0,-1.1677443,1.389825,-9.276022,-0.022891529,0.003444124,-0.021925278,62.645428,156.9064,0.0047884034,1442850,-818,-872,-809,9980
73786223,3987,0,-1.1375842,0.75240046,-9.887173,-0.011442292,-0.011477956,-0.07396159,62.62327,156.9064,0.0047884034,1442850,-1892,-68,-1872,9972
73886272,4017,0,1.0447695,0.067387275,-11.240633,-0.02556536,-0.00572195,-0.033991467,62.645428,156.9064,0.0047884034,1442850,2010,930,264,9980
73990252,4029,0,0.16083167,-1.0002041,-9.501451,-0.030757895,0.0017312146,-0.019118112,62.63989,156.9064,0.0047884034,1442850,1200,-166,-1671,9978
74094223,3994,0,0.49688953,1.0078498,-9.755212,-0.026620556,0.019538,-0.049489606,62.603878,156.9064,0.0047884034,1442850,2196,-449,-966,9965
74198223,4000,0,1.3768727,1.2369525,-10.660521,-0.012321411,0.0027666166,-0.03501531,62.63712,156.9064,0.0047884034,1442850,2463,265,247,9977
74298229,4006,0,-0.5453666,0.066904575,-9.843297,0.03937421,-0.009921653,-0.020320393,62.63435,156.9064,0.0047884034,1442850,-2257,779,-1920,9976
74402230,4001,0,-0.56925654,-1.8105916,-9.136528,0.008780089,-0.0004247286,-0.07536508,62.64266,156.9064,0.0047884034,1442850,-389,-783,-5156,9979
74502223,4000,0,-1.2071345,-0.28097707,-9.973309,0.0034506428,0.0073211784,-0.05166271,62.6759,156.9064,0.0047884034,1442850,-2315,-1191,87,9991
74602253,4030,0,-0.67880434,1.243825,-10.174442,-0.02684208,0.0141116325,-0.008853956,62.65097,156.9064,0.0047884034,1442850,767,288,-905,9982
74706281,4058,0,-1.479102,1.7009085,-9.722706,-0.008538386,3.320456e-05,-0.051686954,62.69252,156.9064,0.0047884034,1442850,-1821,434,-2755,9997
74806223,4000,0,0.031046383,1.2768037,-11.391918,-0.034443047,-0.001459768,-0.021347167,62.69529,156.9064,0.0047884034,1442850,924,1054,150,9998
74910223,4000,0,-0.3861308,-1.2260641,-10.233926,-0.028080344,-0.0020813441,-0.038119763,62.66759,156.9064,0.0047884034,1442850,485,422,-2643,9988
75014269,4046,0,-1.2667388,0.24319333,-9.60968,0.0004162928,0.013662437,-0.00040873978,62.63989,156.9064,0.0047884034,1442850,-1375,-389,-1192,9978
75114262,4039,0,-0.85667694,0.62990826,-9.076865,-0.033353075,0.012660183,-0.03512694,62.664818,156.9064,0.0047884034,1442850,137,-1258,-2309,9987
75218223,4000,0,-0.9962857,1.4532831,-10.346362,-0.008438652,-0.00017844487,-0.026074361,62.65928,156.9064,0.0047884034,1442850,-1927,284,-421,9985
75318223,3999,0,-1.0010395,0.24167776,-9.931474,-0.039199788,-0.02146228,-0.022507008,62.648197,156.9064,0.0047884034,1442850,183,963,-2072,9981
75418223,4000,0,1.2836028,-1.3828859,-9.685109,-0.025368296,-0.002292029,-0.03729216,62.70637,156.9064,0.0047884034,1442850,2535,277,-3395,10002
75522231,4008,0,-0.30072093,-0.25705135,-9.979642,-0.03805283,0.004961,-0.0033043057,62.66759,156.9064,0.0047884034,1442850,1452,477,-1571,9988
75622223,4000,0,0.59925944,0.22865835,-9.373176,0.009515036,0.018706392,-0.031834252,62.68144,156.9064,0.0047884034,1442850,2068,-959,-1164,9993
75722223,3994,0,-0.58675534,1.7824707,-8.399731,0.021061828,0.0046840743,-0.04726497,62.71191,156.9064,0.0047884034,1442850,-1777,-706,-4718,10004
75826242,4019,0,-0.62558115,1.5282127,-10.104446,0.041815184,-0.0073786685,-0.023410449,62.71191,156.9064,0.0047884034,1442850,-2486,892,-1776,10004
75926229,3968,0,-1.2700638,0.1611027,-9.4080305,-0.015609082,-0.02103388,-0.041412733,62.684208,156.9064,0.0047884034,1442850,-2278,722,-3574,9994
76030223,4000,0,-1.6257252,-2.1774175,-10.5193615,0.00083668716,-0.011329619,-0.015555205,62.70083,156.9064,0.0047884034,1442850,-2273,298,-263,10000
76130260,4037,0,-1.1897789,-1.160292,-9.650925,-0.0436417,0.009124789,-0.039987236,62.71468,156.9064,0.0047884034,1442850,-124,-636,-3816,10005
76230229,4006,0,-0.13028556,-0.5027425,-10.762758,-0.021675423,0.019352324,-0.07246343,62.71468,156.9064,0.0047884034,1442850,2006,-1492,-112,10005
76738223,4000,0,-0.6220207,-0.9739067,-9.646865,-0.05330352,0.003109865,-0.04714052,62.70637,156.9064,0.0047884034,1442850,1394,-676,-3671,10002
77146262,4028,0,-0.043692343,-1.075479,-10.648179,-0.04018641,-0.010043824,-0.053021252,62.720222,156.9064,0.0047884034,1442850,254,805,-2540,10007
77246278,4055,0,1.780269,-1.613062,-10.48075,0.015896183,-0.012797063,-0.030845746,62.722992,156.9064,0.0047884034,1442850,2421,-504,-1750,10008
77350223,3994,0,0.037762042,-0.76253873,-9.78504,0.026784606,0.011433901,-0.06617015,62.71745,156.9064,0.0047884034,1442850,1019,-565,-2508,10006
77454223,3951,0,0.60238314,2.0245855,-8.538486,0.035001315,-0.00014231354,-0.053308576,62.72853,156.9064,0.0047884034,1442850,721,-403,-4772,10010
77554229,4007,0,-1.232684,1.5644492,-10.511906,-0.026375227,-0.0033006617,-0.053096347,62.722992,156.9064,0.0047884034,1442850,-1914,-14,247,10008
77658224,4001,0,-1.2102455,-1.3101271,-9.851758,-0.017796079,-0.015954342,-0.04680498,62.722992,156.9064,0.0047884034,1442850,-1422,14,-3172,10008
77758223,4000,0,1.3035173,-1.6093376,-11.201555,-0.0062836083,0.00017191446,-0.04897035,62.75069,156.9064,0.0047884034,1442850,2690,155,217,10018
77858223,4000,0,-1.6273326,-1.9966848,-9.333182,0.025964323,0.0068549216,-0.012249886,62.73407,156.9064,0.0047884034,1442850,-2428,-451,-2936,10012
77962223,4000,0,-0.45838127,1.501313,-9.487885,0.045453046,0.014195205,-0.018262804,62.71745,156.9064,0.0047884034,1442850,-1296,-476,-2921,10006
78062231,4008,0,-1.0453653,1.701657,-8.538952,-0.022603188,-0.0015376139,-0.029289749,62.75069,156.9064,0.0047884034,1442850,-987,-292,-2500,10018
78162238,4015,0,1.3364592,1.7437934,-10.258893,0.0018185554,0.0013184221,-0.07901458,62.75346,156.9064,0.0047884034,1442850,1980,-59,-1069,10019
78266223,3985,0,1.5623127,-1.0604279,-9.877128,-0.024421455,-0.0018448577,-0.032010652,62.75346,156.9064,0.0047884034,1442850,2385,120,-1336,10019
78366223,4000,0,0.95974356,-2.0598147,-10.080217,0.027227266,0.00446688,-0.05693448,62.761772,156.9064,0.0047884034,1442850,1168,-1070,-3512,10022
78466223,4000,0,-2.2574215,-0.27527404,-10.239136,0.02554788,0.0034349142,-0.018551802,62.736843,156.9064,0.0047884034,1442850,-2829,578,-915,10013
78570276,4048,0,0.4003305,2.4149277,-8.796967,0.03089944,0.0060749347,-0.058207676,62.77008,156.9064,0.0047884034,1442850,-221,-135,-5297,10025
78670223,3993,0,-1.0955982,2.0098166,-10.262555,0.0047744666,0.0066225724,-0.045246363,62.772854,156.9064,0.0047884034,1442850,-2228,235,-505,10026
78774223,4000,0,-0.67430425,-0.5071727,-9.801135,0.03192586,-0.005208757,-0.04875236,62.739613,156.9064,0.0047884034,1442850,-2146,70,-2856,10014
78878272,4043,0,-0.16386898,-1.9063962,-10.056265,0.029045478,-0.0038622404,-0.011940139,62.74515,156.9064,0.0047884034,1442850,-858,-177,84,10016
78978223,4000,0,-2.0190928,-0.6651393,-9.586253,0.0065421103,0.0071177837,-0.054426886,62.722992,156.9064,0.0047884034,1442850,-2271,-461,-3846,10008
79082229,4006,0,-1.4501344,2.0419052,-9.510991,0.012230758,0.007933029,-0.024934972,62.742382,156.9064,0.0047884034,1442850,-2830,-440,200,10015
79182229,3962,0,-0.5673172,1.5799183,-8.779775,-0.035176016,0.0056378837,-0.023719877,62.74792,156.9064,0.0047884034,1442850,430,594,-4301,10017
79282226,4003,0,1.5120403,0.79467,-9.59192,0.026469475,-0.003906567,-0.056824915,62.759003,156.9064,0.0047884034,1442850,1948,-277,-3336,10021
79386223,4000,0,1.3551506,-1.4875436,-11.042181,-0.01239746,-0.0036599296,-0.036462285,62.742382,156.9064,0.0047884034,1442850,2814,-359,204,10015
79486223,4000,0,0.031974524,-1.7259053,-9.149198,0.025458902,-0.0032045138,-0.030723302,62.74792,156.9064,0.0047884034,1442850,391,-623,-3941,10017
79590223,4000,0,0.6155278,1.2462347,-9.974504,0.007303283,0.00351165,-0.03825421,62.74792,156.9064,0.0047884034,1442850,2012,-650,115,10017
79690260,4037,0,0.53996027,2.5314586,-8.726323,0.032980926,0.010990538,-0.046471648,62.70914,156.9064,0.0047884034,1442850,-12,-573,-5196,10003
79790223,4000,0,-0.33293304,1.9398842,-10.582818,0.024401383,-0.0012044895,-0.055011522,62.756233,156.9064,0.0047884034,1442850,-2055,772,-339,10020
79894223,4000,0,0.63455933,-1.1100544,-10.176849,0.030818572,-0.011774339,-0.055268988,62.74515,156.9064,0.0047884034,1442850,650,587,-4690,10016
79998234,4011,0,0.7504459,-1.8378847,-9.699503,-0.016576568,0.0024449416,-0.036197174,62.75069,156.9064,0.0047884034,1442850,2316,-845,-1545,10018
80098223,4000,0,0.23228186,-0.4535143,-9.678595,0.028227441,-0.0004457527,-0.061170407,62.739613,156.9064,0.0047884034,1442850,707,-538,-3746,10014
80202223,4000,0,1.2120191,2.02816,-9.303222,0.0012081545,0.00041300972,-0.03336915,62.73407,156.9064,0.0047884034,1442850,2636,126,-983,10012
80302233,4010,0,1.0465249,1.5109597,-9.455409,0.028990462,0.0013065191,-0.053088576,62.742382,156.9064,0.0047884034,1442850,1103,-662,-3796,10015
80402224,4001,0,0.108918086,0.40715933,-10.769324,0.03227963,-0.008620589,-0.06527772,62.720222,156.9064,0.0047884034,1442850,-759,489,-952,10007
80506223,3993,0,1.8097512,-1.8432555,-9.874048,0.01627655,-0.0051349793,-0.044876974,62.761772,156.9064,0.0047884034,1442850,2284,-1024,-1372,10022
80606258,4035,0,-0.8890324,-0.87253463,-8.634195,0.021195948,0.003964853,-0.031427875,62.71745,156.9064,0.0047884034,1442850,-644,47,-5848,10006
80710223,3962,0,0.9368842,1.84234,-9.1423435,0.023563828,-0.0016970527,-0.014652995,62.74792,156.9064,0.0047884034,1442850,1600,62,-3294,10017
80814223,4000,0,0.91284007,1.8567032,-10.849231,-0.023138292,-0.006800162,-0.068608195,62.73407,156.9064,0.0047884034,1442850,2620,408,-1344,10012
80914223,4000,0,1.8148422,-0.36713558,-10.589196,0.0319686,-0.015934959,-0.03402306,62.76731,156.9064,0.0047884034,1442850,1386,201,-1593,10024
81014223,4000,0,-0.65771574,-1.5959959,-9.211146,0.02318949,-0.0149970455,-0.030115373,62.756233,156.9064,0.0047884034,1442850,-1295,218,-3778,10020
81118237,4014,0,0.45441014,-0.8452969,-10.2060175,0.03330052,-0.00361748,-0.0198539,62.761772,156.9064,0.0047884034,1442850,266,-316,-886,10022
81218223,3993,0,-2.2827542,1.0931128,-9.047942,0.011845121,0.011402378,-0.02603564,62.739613,156.9064,0.0047884034,1442850,-2761,-632,-1456,10014
81322223,3975,0,0.25408295,2.4844635,-9.613691,0.030750973,0.0025757835,-0.019431304,62.720222,156.9064,0.0047884034,1442850,-1550,489,-786,10007
81422223,4000,0,-1.6920213,0.84870213,-9.376559,-0.012707562,-0.005086673,-0.039115082,62.7313,156.9064,0.0047884034,1442850,-2099,321,-4272,10011
81522223,4000,0,0.6733461,-0.42318913,-11.019526,-0.025207348,-0.010235443,-0.07052908,62.739613,156.9064,0.0047884034,1442850,1788,375,-295,10014
81626223,3994,0,-0.8593815,-1.674403,-9.868339,-0.04184975,0.0022372128,-0.048201926,62.73407,156.9064,0.0047884034,1442850,603,-419,-2691,10012
81726223,3957,0,0.8104174,-1.5071995,-10.3282585,0.019333042,0.0050584683,-0.030967353,62.68975,156.9064,0.0047884034,1442850,1951,-646,-1476,9996
81830263,4040,0,1.3862424,1.7776784,-10.012656,0.023511862,0.004903393,-0.053095832,62.70083,156.9064,0.0047884034,1442850,2014,-206,-1468,10000
81934223,3993,0,0.932325,2.0363698,-9.822201,0.024926962,-0.011716323,-0.06997442,62.720222,156.9064,0.0047884034,1442850,1228,476,-3954,10007
82034224,4001,0,-0.96309894,0.017462634,-10.458747,-0.006938541,-0.0054980516,-0.024859963,62.736843,156.9064,0.0047884034,1442850,-2085,398,-1258,10013
82138226,4003,0,-1.7488757,-1.60359,-10.536837,-0.049822096,0.0071633803,-0.057358727,62.720222,156.9064,0.0047884034,1442850,-378,-422,-1480,10007
82238223,4000,0,0.9548431,-0.683379,-8.7779,0.027362628,0.0008550257,-0.005462468,62.722992,156.9064,0.0047884034,1442850,1852,-800,-2300,10008
82338223,3996,0,-1.3691639,0.83085406,-9.016546,0.00043165917,0.014541883,-0.05065689,62.7313,156.9064,0.0047884034,1442850,-1829,-372,-4639,10011
82442267,4044,0,-1.1978409,1.2693481,-8.973452,-0.04487316,-9.649398e-05,-0.019128187,62.71745,156.9064,0.0047884034,1442850,-661,366,-2038,10006
82543823,4000,0,1.1684214,-0.33047497,-9.735455,0.037997067,-0.0074725053,-0.08503112,62.69806,156.9064,0.0047884034,1442850,189,-160,-4129,9999
82643846,4024,0,-1.3416195,-1.3423041,-11.002752,0.00063085835,-0.0031042676,-0.036312327,62.6759,156.9064,0.0047884034,1442850,-1852,494,-996,9991
82743824,3989,0,0.6689275,-2.0512264,-9.788419,-0.047093056,-0.0019291267,-0.032334153,62.67867,156.9064,0.0047884034,1442850,2699,-697,-1293,9992
82847823,4000,0,0.34657514,1.0990968,-9.663774,-0.038137984,0.017264353,-0.005483735,62.664818,156.9064,0.0047884034,1442850,2667,-538,-672,9987
82947823,4001,0,0.046782415,1.8279346,-9.942905,0.04465129,0.010004395,-0.058096927,62.664818,156.9064,0.0047884034,1442850,-756,-134,-2581,9987
83051823,3951,0,1.0279192,1.2486429,-9.426087,0.03409083,-0.004792236,-0.08028084,62.63712,156.9064,0.0047884034,1442850,-112,-97,-4717,9977
83151823,4000,0,-1.5966117,-0.46728188,-10.747363,-0.011835065,-0.010518605,-0.021955062,62.664818,156.9064,0.0047884034,1442850,-1524,530,-1052,9987
83251829,4006,0,1.7765441,-1.1510698,-9.73849,-0.021127043,-0.007962265,-0.045475267,62.65374,156.9064,0.0047884034,1442850,3120,245,-3435,9983
83355839,4010,0,1.2206761,-0.44647625,-9.5219965,0.002901202,0.012210911,-0.026743904,62.63712,156.9064,0.0047884034,1442850,2200,-575,-540,9977
83455822,3975,0,-1.5750469,1.0739506,-8.384549,0.018999374,0.002454442,-0.048839398,62.64266,156.9064,0.0047884034,1442850,-2306,-632,-4003,9979
83555823,4001,0,0.61259407,1.9094568,-10.363044,-0.01958951,0.012856057,-0.020329516,62.63435,156.9064,0.0047884034,1442850,2510,13,38,9976
83659823,4000,0,1.5978608,0.67403615,-10.808753,-0.011625428,-0.007854049,-0.07784707,62.66759,156.9064,0.0047884034,1442850,2536,373,-1347,9988
83759823,4000,0,1.2563801,-1.2202085,-10.205966,0.033691395,-0.011676704,-0.030796304,62.61773,156.9064,0.0047884034,1442850,-14,509,-2415,9970
83859823,3988,0,-1.5751072,-1.9034271,-10.514819,-0.0017281687,-0.0045252233,-0.06093387,62.631577,156.9064,0.0047884034,1442850,-2028,-334,-891,9975
83963861,4038,0,-1.8588302,0.08582173,-9.279804,0.009943121,0.004123413,-0.058105327,62.64266,156.9064,0.0047884034,1442850,-2721,-777,-2934,9979
84063856,4033,0,-0.5972458,1.2165983,-9.576552,-0.03259345,0.01215931,0.0021724068,62.68698,156.9064,0.0047884034,1442850,760,-597,-725,9995
84167832,4009,0,0.18554173,1.6155598,-10.477585,-0.04167209,0.00535853,-0.03691191,62.66205,156.9064,0.0047884034,1442850,1603,802,-1569,9986
84271823,4000,0,-0.05557891,-1.1501808,-10.374562,-0.047830075,-0.015493022,-0.06443112,62.664818,156.9064,0.0047884034,1442850,1361,645,-3395,9987
84371828,3997,0,0.87435895,-1.2337366,-10.799582,-0.0009302874,0.0076129944,-0.0242962,62.631577,156.9064,0.0047884034,1442850,2179,-175,-723,9975
84475823,4000,0,0.4482213,-0.029616628,-10.732678,-0.008952836,0.01716814,-0.06310671,62.578945,156.9064,0.0047884034,1442850,1963,-1241,376,9956
84575840,4011,0,-1.2481459,1.6248798,-8.663397,0.01609464,0.0039167656,-0.018380594,62.61773,156.9064,0.0047884034,1442850,-2470,61,-2840,9970
84675823,3985,0,0.93614197,2.3063765,-9.935146,-0.04496704,0.012233947,-0.046404,62.609417,156.9064,0.0047884034,1442850,2961,467,-1659,9967
84779823,4000,0,1.4001938,0.42231044,-11.145415,-0.03712619,-0.0050649773,-0.05783111,62.576176,156.9064,0.0047884034,1442850,2894,786,-1942,9955
84879829,4006,0,-0.47344756,-1.6441004,-9.924948,0.03815718,-0.009578768,-0.013595926,62.61773,156.9064,0.0047884034,1442850,-2597,352,-1940,9970
84979823,4000,0,0.0009987793,-1.9357346,-11.203018,-0.053448208,-0.005071635,-0.023966776,62.6205,156.9064,0.0047884034,1442850,1595,159,-596,9971
85083834,4011,0,0.8476033,0.22848827,-10.564018,-0.009801479,0.022734901,-0.032456655,62.65097,156.9064,0.0047884034,1442850,2866,-1198,1166,9982
85183825,4002,0,-1.2924967,1.6482036,-8.75153,-0.028990004,-0.000633952,-0.03844625,62.60111,156.9064,0.0047884034,1442850,-194,308,-4224,9964
85287822,3999,0,1.0274197,0.8053183,-9.795034,-0.03065572,-0.0055739824,-0.052466214,62.576176,156.9064,0.0047884034,1442850,2270,347,-3518,9955
