timestamp,integral_dt,error_count,x,y,z,x_integral,y_integral,z_integral,temperature,range_m_s2,scaling,device_id,x_raw,y_raw,z_raw,temperature_raw
32383743,4200,0,0.37359214,0.22206737,-9.728793,0.00077527424,0.00019580715,-0.04007637,47.875,78.0,0.0023928226,1114658,121,446,-3237,9696
32487693,4200,0,-0.16019505,0.6165773,-9.832247,0.003976064,0.004200992,-0.040396735,48.0,78.0,0.0023928226,1114658,533,890,-3561,16960
32586392,4200,0,0.50060457,0.71805865,-9.662539,0.0034824903,-0.0009756271,-0.03967203,47.75,78.0,0.0023928226,1114658,389,407,-3762,8192
32688243,4150,0,0.48023078,1.73652,-10.304513,0.001802811,0.007775418,-0.04061394,48.0,78.0,0.0023928226,1114658,883,281,-2897,9257
32791159,4216,0,0.2170354,0.03731648,-10.408967,0.011045159,0.019295383,-0.04809384,48.0,78.0,0.0023928226,1114658,-1513,1421,-2341,-6
32893032,4239,0,0.18653396,-1.6724912,-10.250531,0.0068754684,0.006808658,-0.041642405,47.875,78.0,0.0023928226,1114658,-1614,292,-3981,2049
32995914,4221,0,0.6338951,0.45510876,-10.063942,0.0044220593,0.015430232,-0.039595596,47.875,78.0,0.0023928226,1114658,-805,193,-2220,8193
33094612,4220,0,0.5945492,0.48883915,-9.7669525,0.010357758,0.018870944,-0.035493135,47.875,78.0,0.0023928226,1114658,-1038,467,-3098,2048
33196442,4199,0,1.0230869,1.762678,-9.412541,-0.0071257255,0.0071550235,-0.035361584,47.875,78.0,0.0023928226,1114658,312,-884,-4154,-6
33304593,5202,0,0.045031272,-0.5581601,-9.7971525,0.008409194,-0.004100377,-0.051799368,47.75,78.0,0.0023928226,1114658,-198,959,-3573,9721
33403338,4245,0,0.17436066,-0.6126005,-9.839939,0.0130989095,0.005147922,-0.037091058,48.0,78.0,0.0023928226,1114658,-578,562,-2507,9718
33501993,4200,0,1.0703583,0.33020467,-9.862039,0.00503841,0.0062622884,-0.03988828,47.875,78.0,0.0023928226,1114658,-912,461,-2110,8192
33605976,5284,0,0.11824485,0.7897184,-9.307042,-0.007438572,0.00081718137,-0.055197403,47.875,78.0,0.0023928226,1114658,891,731,-4754,2049
33706743,4175,0,-0.07731649,0.063395545,-10.036435,0.008487769,0.0025142964,-0.044331107,47.875,78.0,0.0023928226,1114658,21,1864,-2776,2048
33808593,4200,0,1.4483472,0.93331504,-9.658978,-0.0040197414,0.0010765565,-0.035551075,47.875,78.0,0.0023928226,1114658,-106,-1357,-3452,-6
33909392,4199,0,-0.30854994,0.043467697,-9.684641,0.00040310543,-0.007430641,-0.037938006,47.875,78.0,0.0023928226,1114658,1004,1018,-4127,8193
34012293,4155,0,0.007999959,-0.10080239,-9.777882,0.0022205622,0.012427084,-0.035934202,47.875,78.0,0.0023928226,1114658,-1670,1864,-2784,8192
34114164,4213,0,0.91039133,1.7981782,-9.629774,-0.0025954668,0.0053498056,-0.036198355,47.875,78.0,0.0023928226,1114658,1646,-164,-4373,8192
34217053,4160,0,-0.43594685,-0.75669175,-10.004363,-0.011961815,-0.00853313,-0.040856287,48.0,78.0,0.0023928226,1114658,-57,343,-2736,8193
34318893,4200,0,0.8131119,0.4679094,-9.518724,0.021378523,0.010945777,-0.046501484,48.0,78.0,0.0023928226,1114658,113,1644,-4332,2048
34419708,4215,0,-0.2984701,0.25009748,-9.766553,-0.0047728834,-0.002425322,-0.03937249,48.0,78.0,0.0023928226,1114658,306,-136,-4117,0
34521543,4200,0,1.9901328,0.9341407,-9.761241,-0.013472323,-0.0013505886,-0.04906692,47.875,78.0,0.0023928226,1114658,1518,-1428,-4367,8193
34624443,4200,0,2.1070678,1.5806565,-9.774524,0.0032370721,-0.003822903,-0.034116182,47.875,78.0,0.0023928226,1114658,827,-773,-4006,8192
34728426,4208,0,-0.81924665,-0.08254799,-9.903816,-0.0064232093,-0.011538274,-0.03848355,47.875,78.0,0.0023928226,1114658,1117,33,-2943,2049
34828161,5268,0,0.28848585,0.74524546,-9.687408,0.020679744,0.028923178,-0.052596044,47.875,78.0,0.0023928226,1114658,-24,1883,-3120,8192
34931043,4200,0,0.2871749,-0.6202872,-9.960936,0.02904729,0.018102262,-0.043292273,47.875,78.0,0.0023928226,1114658,-1985,2654,-3521,8193
35030804,4208,0,0.6178276,-0.72857416,-10.195609,0.023323512,0.011248141,-0.03808176,47.875,78.0,0.0023928226,1114658,-2187,1965,-1912,9270
35133742,4204,0,-1.0521681,-0.17678247,-9.614688,-0.019249413,-0.004475687,-0.04438502,47.75,78.0,0.0023928226,1114658,186,1249,-3317,9738
35235543,4153,0,1.271809,0.77677786,-10.079412,-0.0011637892,0.008916122,-0.039977953,48.125,78.0,0.0023928226,1114658,408,-1771,-2005,8193
35336342,4193,0,0.2365815,-0.038458876,-9.934039,0.0479013,0.0085036205,-0.0395445,48.0,78.0,0.0023928226,1114658,-886,3742,-2630,2049
35437161,4196,0,-0.20486793,0.59633976,-10.082143,0.059706636,0.013114693,-0.067103356,47.875,78.0,0.0023928226,1114658,391,5505,-5052,2049
35538993,4200,0,3.1685455,0.7572626,-11.279138,0.022915443,0.014568435,-0.024776516,47.875,78.0,0.0023928226,1114658,-264,-4322,-690,9758
35638743,4192,0,-3.722132,0.021274626,-8.281446,-0.02263338,-0.009902062,-0.014825626,47.875,78.0,0.0023928226,1114658,179,6940,-5949,9768
35739554,4193,0,-3.4483016,0.30917946,-9.710009,-0.030540332,0.010557449,-0.045756444,47.75,78.0,0.0023928226,1114658,-1253,5906,-3624,8193
35840343,4174,0,-2.9957354,0.4142596,-8.672988,-0.014073205,0.0018710581,-0.050090134,47.875,78.0,0.0023928226,1114658,-490,5280,-6360,-6
35942192,4199,0,0.14214492,0.22382075,-9.034777,0.03563578,0.011529993,-0.07876611,47.875,78.0,0.0023928226,1114658,-158,5803,-6156,9756
36048261,4171,0,-1.7051326,-0.3744738,-8.521907,-0.021537058,0.004140517,-0.063491754,47.875,78.0,0.0023928226,1114658,-1226,2782,-6441,-6
36149083,4177,0,1.9430695,0.4392066,-8.887196,0.018865189,-0.00034495897,-0.05999667,47.875,78.0,0.0023928226,1114658,762,-3922,-5395,8193
36248793,5250,0,-1.0176889,0.068120725,-9.087808,-0.032474857,0.0067750677,-0.04883981,47.875,78.0,0.0023928226,1114658,859,2583,-8733,9759
36349639,4247,0,0.596756,-0.8121908,-8.80523,-0.041853268,-0.0044287117,-0.028460758,48.0,78.0,0.0023928226,1114658,-3579,-3245,-6527,0
36451443,4116,0,-0.20183778,0.5796459,-10.543161,-0.02540895,0.0046558087,-0.041857984,48.0,78.0,0.0023928226,1114658,-1279,1058,-1596,9770
36552243,4112,0,-0.38995633,0.29395625,-9.480574,-0.018659588,-0.003628268,-0.030202476,48.0,78.0,0.0023928226,1114658,13,-214,-7077,9787
36656197,4204,0,1.5704209,-0.4662034,-11.049267,0.022999227,-0.007944719,-0.044952232,48.0,78.0,0.0023928226,1114658,373,-2490,1188,9785
36757012,4219,0,0.44937888,0.26503593,-10.80145,0.0029393302,0.017775202,-0.062634245,47.875,78.0,0.0023928226,1114658,1247,-258,-998,9790
36858843,4200,0,-2.1517208,-0.47692385,-8.736052,0.018621067,-0.004350512,-0.04855102,47.875,78.0,0.0023928226,1114658,735,7239,-7504,9794
36959691,4248,0,-0.32856366,-0.2024678,-9.959022,0.033726096,-0.0054125194,-0.043447904,47.875,78.0,0.0023928226,1114658,747,-2035,-2604,0
37061492,5249,0,-1.2833587,-0.8287754,-9.342332,-0.024804255,-0.004644999,-0.047900487,47.875,78.0,0.0023928226,1114658,757,4197,-6524,0
37163366,5274,0,0.053551737,-0.42424816,-8.8864765,-0.03357394,0.004078601,-0.04517491,47.875,78.0,0.0023928226,1114658,-2456,-2066,-7816,9787
37264143,4200,0,-0.702928,0.58382773,-10.559838,-0.028072504,0.009184198,-0.051342797,47.875,78.0,0.0023928226,1114658,-1080,-144,-1174,9799
37364967,4224,0,-0.5330524,0.4142547,-9.630624,-0.011158435,0.010861294,-0.019974692,47.875,78.0,0.0023928226,1114658,-1141,4314,-4043,9261
37466822,4195,0,-0.39106786,0.74499476,-11.263017,0.029236795,-0.011267155,-0.08739709,47.875,78.0,0.0023928226,1114658,1251,2594,107,-6
37567593,4152,0,0.3877287,0.4263759,-11.369589,-0.003217918,-0.014994316,-0.010555591,47.875,78.0,0.0023928226,1114658,1606,-3557,-3736,16959
37669442,4199,0,-0.35103336,-0.6072981,-10.365997,-0.032329164,0.0062117903,-0.060958672,48.0,78.0,0.0023928226,1114658,-158,-1137,-4952,9803
37775493,4159,0,-0.18340603,0.13400902,-9.976009,-0.023675404,0.0098889815,-0.044442374,47.875,78.0,0.0023928226,1114658,701,345,-7578,2048
37876293,4155,0,0.20422642,0.69446987,-10.543022,0.029824559,-0.0062200767,-0.043549854,47.875,78.0,0.0023928226,1114658,1411,1214,-1692,9817
37978162,4220,0,-0.749151,0.399659,-10.552518,0.03422788,-0.004810861,-0.034450077,48.0,78.0,0.0023928226,1114658,1564,5226,-2727,2049
38078951,4209,0,0.96849066,-0.6591735,-10.740491,0.015501193,-0.008827532,-0.0027475615,47.875,78.0,0.0023928226,1114658,485,-3231,-720,8192
38180792,4199,0,-0.21961193,-0.6501334,-9.128518,-0.030570524,0.0066463114,-0.020608464,48.0,78.0,0.0023928226,1114658,-310,287,-4657,9824
38282676,5284,0,0.15004423,0.26967895,-10.297973,0.038030952,-0.0028408177,-0.07119544,47.875,78.0,0.0023928226,1114658,1968,1356,-2676,9271
38385543,4198,0,-1.3171126,0.87084466,-9.825415,-0.024670836,0.005090781,-0.021147331,47.875,78.0,0.0023928226,1114658,313,1785,-1784,8193
38482163,4221,0,-0.09822007,1.52247,-9.848308,-0.0141311735,0.0027106998,-0.03731078,47.75,78.0,0.0023928226,1114658,1245,642,-4888,8192
39099543,4185,0,-0.75073844,-0.78159076,-8.309134,-0.031228688,-4.5325345e-05,-0.04403519,48.0,78.0,0.0023928226,1114658,-760,2280,-6683,8193
39200343,4163,0,-1.1837251,-1.0728701,-8.340639,-0.037797946,0.00054012955,-0.060164046,48.125,78.0,0.0023928226,1114658,82,2526,-6319,9277
39300140,5297,0,-0.21100575,-0.28424782,-9.204467,-0.05632166,0.010900582,-0.023795258,48.0,78.0,0.0023928226,1114658,-52,-2303,-1816,9289
39402993,4190,0,0.029674591,0.85340863,-8.636083,-0.013497152,-0.0038961708,-0.02193486,47.875,78.0,0.0023928226,1114658,1325,363,-3654,2049
39504895,4252,0,-0.7859258,1.0126106,-8.946324,0.037152626,-0.007770529,-0.019206287,48.0,78.0,0.0023928226,1114658,2809,6015,-2866,9272
39606693,5250,0,0.715308,-0.027096935,-9.646196,0.046690434,-0.015209324,-0.029899796,47.875,78.0,0.0023928226,1114658,3257,653,-2659,8192
39707497,4139,0,0.79825526,-1.1285354,-8.996651,0.0023546708,-0.00670652,-0.02599016,47.875,78.0,0.0023928226,1114658,-447,-4400,-4920,16959
39808293,4147,0,0.43143657,-0.450394,-9.095656,-0.018008154,0.008098514,-0.03326801,48.0,78.0,0.0023928226,1114658,-368,-5210,-5246,8192
39910161,4216,0,-0.9051405,1.3828001,-9.638452,-0.017659655,0.018491628,-0.043458886,47.875,78.0,0.0023928226,1114658,1353,3375,-4061,2049
40017266,4223,0,0.10011958,0.76627225,-10.660351,-0.032922275,0.0035449783,-0.05174756,48.0,78.0,0.0023928226,1114658,-564,279,-1105,8192
40118048,5250,0,-1.0630137,-0.10033593,-9.532243,-0.009950955,-0.008669679,-0.06915965,47.875,78.0,0.0023928226,1114658,831,4724,-7851,8193
40215693,4200,0,-1.3140544,-0.5467697,-9.858077,-0.012336714,-0.0017998638,-0.058536835,47.875,78.0,0.0023928226,1114658,1065,4818,-4828,9876
40320739,4246,0,0.26993617,-0.16368623,-10.193102,-0.007712001,0.006921473,-0.05570699,48.0,78.0,0.0023928226,1114658,-454,-4042,-2256,2049
40419410,4218,0,0.32549077,0.094990805,-10.586317,-0.013995651,0.015623354,-0.012368531,48.0,78.0,0.0023928226,1114658,-1247,-4304,-44,9875
40521243,5242,0,0.049075942,1.2785839,-8.875028,-0.03382075,0.019440604,-0.06813423,47.875,78.0,0.0023928226,1114658,-918,-2190,-8063,9268
40624152,4193,0,-0.038319267,0.78945315,-10.259551,0.042263415,-0.008737279,-0.040574882,48.0,78.0,0.0023928226,1114658,2732,3893,-5274,8192
40723899,4206,0,2.2313752,-0.52736455,-12.796447,0.0133718215,-0.020526221,-0.044451956,48.0,78.0,0.0023928226,1114658,260,-3696,2665,8193
40828939,4246,0,-0.35866356,-1.1114225,-11.39163,0.034916844,0.0020600883,-0.04446124,48.0,78.0,0.0023928226,1114658,272,3950,-94,9892
40928643,4200,0,-0.02474095,-1.0556084,-10.213232,0.037404224,0.00014391216,-0.022185944,48.0,78.0,0.0023928226,1114658,-250,1524,-696,9264
41030545,4253,0,0.8773027,0.8595118,-9.354114,0.027625825,0.0058210185,-0.039324965,48.125,78.0,0.0023928226,1114658,-319,-2114,-3528,9892
41131373,4281,0,0.7294723,1.382884,-10.096053,0.005821227,0.007841039,-0.05726718,48.0,78.0,0.0023928226,1114658,805,-2168,-356,9260
41231043,5207,0,0.71468216,0.9236445,-10.546931,0.01918661,0.005025838,-0.06608274,47.875,78.0,0.0023928226,1114658,1119,-1619,1276,8193
41333943,4155,0,1.623967,-0.77512014,-10.411735,0.017892158,-0.0063490723,-0.03791535,48.0,78.0,0.0023928226,1114658,656,-2423,-112,9897
41433794,4302,0,-0.7439405,-0.9195512,-9.789075,0.034024812,-0.007387734,-0.030308988,47.875,78.0,0.0023928226,1114658,1587,4593,-943,9908
41538693,6300,0,-0.15778461,0.33620134,-8.951247,0.028786683,0.009506204,-0.06668116,48.0,78.0,0.0023928226,1114658,-600,-2709,-5502,-6
41640543,4194,0,1.048406,0.7240978,-9.937611,-0.014237833,-0.0065947305,-0.04808446,47.875,78.0,0.0023928226,1114658,289,-4771,-1493,8193
41739287,4244,0,0.7614618,0.9659164,-10.366757,0.04669615,-0.005501366,-0.053963568,48.0,78.0,0.0023928226,1114658,1749,1711,-1019,9259
41841093,4105,0,0.74697924,-0.24033144,-10.924712,0.047960896,-0.0056420257,-0.056562833,48.0,78.0,0.0023928226,1114658,2212,2237,886,9902
41941893,4141,0,-0.87995654,-0.78507334,-10.991284,0.031507853,-0.00922007,-0.062148586,48.0,78.0,0.0023928226,1114658,1819,5025,-1030,9254
42043743,4187,0,-1.6042416,0.39710936,-10.530622,0.03904117,0.0010002942,-0.030505741,47.875,78.0,0.0023928226,1114658,1950,7378,1796,2048
42145592,5249,0,-1.4608396,1.5844231,-10.122704,0.0097957365,0.015885346,-0.05111215,48.0,78.0,0.0023928226,1114658,1553,5556,697,2049
42248493,4200,0,-0.22434019,1.2579347,-9.973085,0.042351246,-0.010384629,-0.010400406,48.0,78.0,0.0023928226,1114658,1954,4010,1031,9926
42350342,5249,0,-2.061222,-0.27300355,-9.598448,0.0053036707,0.011484135,-0.07055733,48.0,78.0,0.0023928226,1114658,-690,8175,-388,8193
42455392,4210,0,-0.8391366,-0.124168,-6.1973724,-0.02758749,0.0020167262,-0.018879838,48.0,78.0,0.0023928226,1114658,-994,1424,-6880,9923
42557212,4214,0,1.5904325,0.20089889,-8.408447,0.0288706,-0.014881243,-0.056050353,47.875,78.0,0.0023928226,1114658,-1845,-2748,-698,2049
42658035,4242,0,-1.5247887,0.88035446,-9.11069,-0.0138300555,0.021899046,-0.075386345,48.0,78.0,0.0023928226,1114658,845,3681,-6595,2049
42759846,4169,0,-1.5650086,-0.40862575,-9.227581,0.001036756,-4.422436e-05,-0.031283762,48.0,78.0,0.0023928226,1114658,-484,4818,-3071,0
42861745,5302,0,-1.3646336,-0.51353174,-10.015032,0.020741183,0.0015456196,-0.04540438,48.0,78.0,0.0023928226,1114658,592,6148,179,9931
42962537,4245,0,0.63074595,-0.26474082,-10.533843,0.022476476,-0.0026910945,-0.07021681,48.0,78.0,0.0023928226,1114658,-777,-727,1676,9936
43062298,4255,0,0.7047462,0.42877623,-9.148129,0.016134076,-0.005852942,-0.04572768,48.125,78.0,0.0023928226,1114658,-638,-2878,-7414,2048
43163043,4200,0,0.44291362,0.51221114,-8.797992,-0.018742856,0.010870944,-0.050080873,47.875,78.0,0.0023928226,1114658,206,-875,-10704,8193
43264964,5273,0,0.16147037,0.8863657,-10.042975,0.046491995,-0.010397411,-0.097125664,47.875,78.0,0.0023928226,1114658,2747,3344,-7318,9952
43366743,5251,0,0.6576622,-1.3110442,-11.348006,-0.01990744,-0.009416606,-0.032495804,48.0,78.0,0.0023928226,1114658,-1730,-1144,2592,9945
43467559,4198,0,-0.32448187,-1.9805231,-10.6105585,0.019301238,-0.0049621454,-0.06195073,48.125,78.0,0.0023928226,1114658,883,1171,-7359,8193
43572543,4199,0,-1.4601175,0.7933056,-9.247479,0.0027423091,0.0026923772,-0.062453937,48.0,78.0,0.0023928226,1114658,642,4659,-8825,8193
43670236,4234,0,-1.1887587,1.3735255,-9.4973135,0.023224765,0.014923525,-0.07755116,48.0,78.0,0.0023928226,1114658,145,4279,-6366,9266
43774144,4201,0,-0.25862432,2.0404978,-10.671719,0.0060677193,0.010660297,-0.05823891,48.0,78.0,0.0023928226,1114658,1582,3721,-3567,2049
43874942,4199,0,0.91070604,0.80731136,-10.572263,0.024672665,-0.011129655,-0.047127098,48.0,78.0,0.0023928226,1114658,327,-64,-1725,9957
43974693,5251,0,1.1475288,-0.48905578,-10.278404,0.03365007,-0.029519474,-0.060783014,48.0,78.0,0.0023928226,1114658,1795,-1219,-6010,9971
44080743,4200,0,-1.1615455,-0.57766414,-9.444822,0.0015384246,0.008177753,-0.036842283,48.0,78.0,0.0023928226,1114658,1585,4637,-7534,9264
44179443,4150,0,-0.9896015,0.38091826,-10.850172,0.033484574,-0.0013017093,-0.05805844,48.0,78.0,0.0023928226,1114658,1163,4781,-2122,9981
44279192,4199,0,0.2616695,1.0773922,-9.384479,0.008272429,0.001266918,-0.050617877,48.0,78.0,0.0023928226,1114658,-159,-2851,-7497,9959
44384199,4206,0,-0.74190265,1.1171091,-8.782034,0.00038561452,0.005923448,-0.051875222,48.0,78.0,0.0023928226,1114658,1726,3402,-9154,9982
44483943,4200,0,-0.7417076,-0.113049954,-10.835442,-0.0335049,0.002301304,-0.059490025,48.0,78.0,0.0023928226,1114658,1278,1845,-3054,-7
44588977,4235,0,-1.1003342,-1.1583608,-9.696851,0.022062603,0.0053433874,-0.06153927,48.0,78.0,0.0023928226,1114658,708,4697,-8127,-7
44686596,4204,0,-0.66562,-0.30002466,-10.587101,-0.03827208,0.012138519,-0.05900587,48.125,78.0,0.0023928226,1114658,-449,-2286,2420,9989
44787413,4221,0,0.47780395,0.42032477,-8.645797,-0.033234414,0.024416644,-0.045533102,48.0,78.0,0.0023928226,1114658,-2797,-3978,-5330,8193
44889276,4230,0,1.3329962,0.342804,-8.605897,-0.012497022,-0.0011582795,-0.030108837,48.125,78.0,0.0023928226,1114658,-2601,-3754,-3938,9993
44991092,5238,0,1.0715683,1.6375195,-10.564417,0.0126866065,-0.011611095,-0.046514407,48.0,78.0,0.0023928226,1114658,2967,-3003,-1998,-7
45093991,4169,0,0.21284564,-0.54655427,-9.719497,0.043769974,-0.019698266,-0.05021639,47.875,78.0,0.0023928226,1114658,2964,4470,-5772,2049
45195843,5226,0,-1.591553,-1.8158978,-10.907508,-0.01998456,0.0036345886,-0.0696226,48.0,78.0,0.0023928226,1114658,69,5383,-434,2048
45296672,4229,0,-0.7990889,-1.4605886,-8.907192,-0.043870516,0.009690392,-0.026302624,48.0,78.0,0.0023928226,1114658,-2467,-888,-3574,2049
45400593,4200,0,0.67995,0.16296501,-9.276324,0.04394747,-0.007346544,-0.05835839,48.0,78.0,0.0023928226,1114658,1828,800,-5433,8193
45502443,5251,0,-0.41214845,0.95855,-8.938197,-0.029720847,0.003485356,-0.041028038,48.125,78.0,0.0023928226,1114658,-1672,2370,153,8192
45603287,4244,0,-0.3128187,1.084508,-9.641586,-0.018837247,-0.0019962345,-0.05967937,48.125,78.0,0.0023928226,1114658,-997,2277,-2751,9269
45701943,4191,0,0.1048156,-0.021320844,-9.720646,-0.007473831,0.0049486873,-0.016902255,48.0,78.0,0.0023928226,1114658,1907,-4094,-2965,10023
45808024,4232,0,0.21763593,-0.46670985,-9.766285,-0.023879321,0.0014351343,-0.033161763,47.875,78.0,0.0023928226,1114658,409,-3411,3,-7
45909847,4180,0,-0.50681746,0.36554304,-8.923885,0.043335814,-0.0015755579,-0.02605296,48.125,78.0,0.0023928226,1114658,1583,3203,-2883,10017
46010643,4200,0,-1.2060815,1.1188118,-8.566023,-0.04285928,0.0083815735,-0.06178165,48.125,78.0,0.0023928226,1114658,-576,2338,-4738,10030
46112493,4194,0,0.5605083,-0.11895055,-10.058921,-0.02475322,-0.014440552,-0.008522565,48.125,78.0,0.0023928226,1114658,235,-4293,-4575,0
46216443,4197,0,1.6417127,-1.5586016,-10.330282,-0.00797573,-0.008511555,-0.016715933,48.125,78.0,0.0023928226,1114658,-1655,-5334,104,8192
46321443,4200,0,0.7868876,-0.24526845,-10.576725,-0.027455272,0.0130569935,-0.03026784,48.125,78.0,0.0023928226,1114658,-2868,-4219,2251,10036
46425393,4200,0,1.6834856,1.4024591,-10.041663,-0.004306405,-0.0045000515,-0.038213983,48.0,78.0,0.0023928226,1114658,-30,-6737,1401,-6
46526192,4199,0,0.48818412,0.9555356,-10.213583,0.035788488,-0.009589505,-0.077409685,48.0,78.0,0.0023928226,1114658,1066,2715,-3019,8192
46628117,4252,0,-0.9833637,-1.0652424,-9.807762,-0.0013633809,-0.008501407,-0.021710314,48.125,78.0,0.0023928226,1114658,153,4878,-2920,9284
46726743,4122,0,1.483034,-1.4353887,-10.27937,0.012547177,-0.010627457,-0.064351276,48.0,78.0,0.0023928226,1114658,-1235,-5277,-5105,10044
46828593,4183,0,-0.23156366,-0.74537516,-9.367549,0.04455442,0.005193657,-0.022280905,47.875,78.0,0.0023928226,1114658,361,1675,-5562,2048
46929393,4200,0,-2.0332303,1.3160146,-9.65045,0.01726641,0.01030229,-0.03281169,48.0,78.0,0.0023928226,1114658,265,4752,-4589,8193
47031267,4224,0,-1.1111054,1.9154131,-9.603787,-0.024804518,0.02548019,-0.0697145,48.0,78.0,0.0023928226,1114658,-1156,2704,-2899,9280
47134159,4216,0,0.108148485,-0.30743778,-9.646556,-0.030907294,0.0043297657,-0.038731523,48.0,78.0,0.0023928226,1114658,-1643,480,-2182,2049
47236023,4225,0,1.5402302,-1.4079146,-10.797051,-0.024136716,-0.002442337,-0.060745083,48.0,78.0,0.0023928226,1114658,-1508,-5183,-3405,2049
47337889,5296,0,0.752521,-1.1114712,-11.555565,-0.019242719,0.016965779,-0.050335914,48.125,78.0,0.0023928226,1114658,-1528,-4128,1585,10069
47440743,6300,0,-0.22898412,0.3506463,-9.692137,-0.02788766,0.020216428,-0.025101459,48.0,78.0,0.0023928226,1114658,-1201,2648,-3167,8192
47544693,4197,0,-0.09181564,0.960283,-10.029848,0.03817953,0.00348322,-0.06992321,48.0,78.0,0.0023928226,1114658,397,656,-4156,10062
48056131,4289,0,0.34821552,0.30976912,-9.064433,0.024997244,-0.024872568,-0.028165897,48.0,78.0,0.0023928226,1114658,3668,-1742,-5698,9297
48563192,4200,0,-0.6132129,0.5965593,-9.085773,-0.021399232,-0.00034745573,-0.03951062,48.125,78.0,0.0023928226,1114658,-8,3676,-4893,8192
48669243,4200,0,-0.7995421,-0.0022415353,-10.830866,0.011483822,-0.01163524,-0.04333695,48.25,78.0,0.0023928226,1114658,4838,1537,-2593,9290
48770043,4200,0,-0.2662272,-0.6608014,-9.831311,0.0047345343,0.02875889,-0.08266817,48.125,78.0,0.0023928226,1114658,-1476,1816,-5080,8193
48866644,4200,0,-0.7834908,-0.48922274,-10.990034,0.004337833,-0.006068962,0.0066715023,48.125,78.0,0.0023928226,1114658,-1112,1906,2095,10083
48970599,4207,0,0.15941514,1.1639421,-10.140214,0.004481872,-0.01800323,-0.006553319,48.0,78.0,0.0023928226,1114658,-880,-1594,2032,10101
49072443,4197,0,0.46270987,0.071948074,-9.989245,0.011926494,-0.023723202,-0.06515694,48.125,78.0,0.0023928226,1114658,1477,-2136,-5249,9315
49175365,4207,0,1.054955,-0.44966277,-11.525855,0.002798509,-0.033530526,-0.039416227,48.125,78.0,0.0023928226,1114658,1411,-2796,2725,9305
49277246,4230,0,-0.57719266,-0.5300065,-9.71769,-0.012156493,-0.016822828,-0.019166118,48.0,78.0,0.0023928226,1114658,-1749,1221,-566,2048
49375916,4224,0,0.12936085,0.10975157,-10.292508,-0.0083628865,0.0012554826,-0.07303172,48.0,78.0,0.0023928226,1114658,1553,-690,-3590,-7
49477745,4202,0,0.76589453,1.7666976,-10.699221,0.0026459657,0.0067380574,-0.080138884,48.125,78.0,0.0023928226,1114658,2376,-486,-1920,10119
49581738,5295,0,0.6993087,0.9149425,-10.782576,-0.014472474,-0.017327048,-0.022274178,48.125,78.0,0.0023928226,1114658,3397,-2153,1011,10109
49682521,4227,0,-0.12687588,-0.47703367,-10.238847,-0.0076204576,-0.013433133,0.0034376674,48.125,78.0,0.0023928226,1114658,-1007,716,1079,9305
49783372,4263,0,-0.048382424,-0.9701585,-10.062496,-0.007173003,-0.015810933,-0.035297416,48.125,78.0,0.0023928226,1114658,43,-524,1202,10122
49885161,4217,0,-0.04303809,-0.28640157,-9.139657,0.00042461726,-0.017464397,-0.04988354,48.125,78.0,0.0023928226,1114658,-2419,-1742,-2571,-6
49985943,4168,0,0.8747334,1.474289,-11.335519,-0.0024789853,-0.010250494,-0.029192317,48.125,78.0,0.0023928226,1114658,1113,-2159,4357,-6
50089893,4155,0,0.49945536,-0.28519326,-9.0647745,-0.011267314,-0.009005381,-0.032152854,48.0,78.0,0.0023928226,1114658,-1237,-3121,-5936,9318
50187555,4189,0,-2.155477,0.17060754,-8.812443,-0.045761276,0.0020539055,-0.046976116,48.0,78.0,0.0023928226,1114658,85,4424,-5698,8193
50292551,4208,0,1.3131526,-1.2187046,-9.929302,0.023644721,0.004674702,-0.08730407,48.0,78.0,0.0023928226,1114658,-1715,166,-3934,8193
50392294,4122,0,0.10134003,-1.1004624,-10.007204,-0.018567014,0.005345745,-0.028094437,48.25,78.0,0.0023928226,1114658,-3484,2288,-2118,8193
50493093,4155,0,-1.4078728,0.7704182,-9.486579,-0.023922905,0.028904922,-0.020301035,48.125,78.0,0.0023928226,1114658,771,3451,-7047,9316
50597049,4182,0,0.15469615,0.74316037,-9.742946,0.00024719082,0.00892371,-0.053393546,48.0,78.0,0.0023928226,1114658,-74,-314,-8212,8193
50697843,4161,0,-0.51916856,0.7728759,-9.703884,-0.03243567,0.012448305,-0.06139516,48.125,78.0,0.0023928226,1114658,1619,1179,-4472,10135
50799692,4181,0,-0.9946447,-0.65961486,-9.248027,0.007986292,-0.006644771,-0.03484641,48.125,78.0,0.0023928226,1114658,1495,5803,-3703,0
50905753,5260,0,-1.1430156,0.013282304,-9.447081,-0.033636097,0.0036503784,-0.024184974,48.125,78.0,0.0023928226,1114658,164,-1418,-1945,10142
51008645,4202,0,-1.167379,1.2623384,-8.88325,-0.013405959,0.0041337814,-0.033243995,48.0,78.0,0.0023928226,1114658,-105,4400,-3353,-6
51110567,5309,0,0.20372064,0.4839604,-9.500369,0.02345198,-0.009670835,-0.039135043,48.25,78.0,0.0023928226,1114658,1937,6589,-3365,-6
51213399,4206,0,0.28024197,-0.94686246,-9.379326,0.042569064,-0.0072955964,-0.065610945,48.125,78.0,0.0023928226,1114658,540,2888,-8417,8192
51313159,4169,0,-1.551745,-1.2615546,-8.926967,-0.00073033,-0.0009170825,-0.035285614,48.25,78.0,0.0023928226,1114658,626,5683,-8715,10143
51416117,4275,0,-2.2076983,1.5802407,-10.029528,0.011654526,0.018808257,-0.055139616,48.0,78.0,0.0023928226,1114658,894,8104,-1076,9303
51522093,4200,0,0.7174502,2.214367,-9.404057,0.050209317,0.0015521989,-0.0831718,48.25,78.0,0.0023928226,1114658,501,2330,-6882,8193
51622924,4231,0,-0.74543524,1.4029804,-9.86826,0.024717106,-0.00583205,-0.020655606,48.125,78.0,0.0023928226,1114658,1581,5811,-2878,8193
51724743,5250,0,-0.7346934,0.15769361,-10.403473,-0.044822652,-0.0002527123,-0.07265826,48.0,78.0,0.0023928226,1114658,484,561,-7245,10144
51829808,4256,0,-1.4048479,-0.8129626,-9.460413,0.0037679027,0.009602894,-0.027761305,48.125,78.0,0.0023928226,1114658,783,5405,-4121,10158
51929492,5236,0,0.21572308,-0.54876363,-9.047766,-0.05691596,0.020754058,-0.053427428,48.125,78.0,0.0023928226,1114658,-2173,-6362,-6641,9308
52030339,4247,0,1.7216617,1.6546304,-10.365565,0.033941474,0.00854483,-0.05458704,48.125,78.0,0.0023928226,1114658,-608,-3269,1091,2049
52136343,4151,0,1.5852509,1.5101734,-9.828095,-0.0016578301,-0.0049254913,-0.06779527,48.125,78.0,0.0023928226,1114658,17,-5221,-2852,8193
52237176,6332,0,-0.7429286,-0.055807725,-10.200265,0.048412226,-0.0070581995,-0.0874382,48.125,78.0,0.0023928226,1114658,857,1347,-2802,8192
52341093,4147,0,0.17508394,-1.3387954,-9.74756,0.040577147,-0.008147015,-0.032312986,48.125,78.0,0.0023928226,1114658,-122,-1475,-3210,10162
52440874,5282,0,-1.4152951,0.11607755,-9.013419,0.011235812,0.0066215773,-0.027464123,48.125,78.0,0.0023928226,1114658,228,5568,-4124,9312
52541667,4192,0,-1.7384747,1.5816709,-8.167525,-0.0219596,0.010789137,-0.010255219,48.25,78.0,0.0023928226,1114658,214,4785,-4087,9301
52645616,5259,0,-1.2243621,1.9004593,-8.362099,-0.0038445364,0.0009647293,-0.06303779,48.0,78.0,0.0023928226,1114658,301,5344,-7222,-7
52744294,4130,0,-0.48765597,1.4800749,-8.815038,-0.045541227,2.0154315e-05,-0.03648267,48.125,78.0,0.0023928226,1114658,671,914,-7061,10174
52845094,4142,0,-0.42389023,0.3263017,-9.876817,-0.02149145,0.008681033,-0.03487357,48.125,78.0,0.0023928226,1114658,-429,2330,-2722,-7
52948001,4209,0,-1.3009225,-0.19972414,-10.034752,0.023730233,-0.005898851,-0.04929621,48.125,78.0,0.0023928226,1114658,2668,6105,-3424,-7
53049866,4192,0,-0.34707153,0.3385118,-9.342451,0.041089397,-0.012391256,-0.03126199,48.125,78.0,0.0023928226,1114658,2922,3759,-3314,9303
53151693,5219,0,0.55805683,1.1884187,-10.312873,0.037785895,-0.0068035754,-0.027668832,48.125,78.0,0.0023928226,1114658,231,-366,116,8192
53254608,4193,0,1.6274431,1.5069945,-10.00952,-0.041069787,-0.0012363794,-0.024113704,48.125,78.0,0.0023928226,1114658,552,-5558,114,8192
53356443,5251,0,-0.5301004,0.24832146,-9.964119,-0.021569993,0.014511584,-0.081701316,48.125,78.0,0.0023928226,1114658,-919,2612,-4205,-6
53461443,4200,0,0.60515547,-1.2044084,-10.525139,0.022625934,-0.02080433,-0.008169161,48.125,78.0,0.0023928226,1114658,571,-2474,-900,9306
53560187,4233,0,0.26773196,-0.30667174,-10.677055,0.018876957,-0.012235333,-0.05637173,48.125,78.0,0.0023928226,1114658,2067,-2691,-1442,10201
53661993,4199,0,1.2153593,0.7440693,-10.642177,0.0023464598,0.011076345,-0.04519724,48.25,78.0,0.0023928226,1114658,-2259,-4526,2387,10201
53762793,4196,0,0.63874614,1.6162719,-10.761831,-0.021270871,0.020336615,-0.039372116,48.25,78.0,0.0023928226,1114658,797,-3441,422,10209
53863593,4200,0,0.8370717,1.2900635,-10.382233,-0.0410822,0.016558265,-0.048154317,48.125,78.0,0.0023928226,1114658,1137,-3342,-3039,8192
53965447,4204,0,-0.71761537,0.085614905,-10.378719,0.010924746,0.002981131,-0.06517732,48.125,78.0,0.0023928226,1114658,1170,4886,-3037,-6
54067342,5295,0,0.6708658,-1.4925126,-9.739575,0.028456409,-0.013771733,-0.07633503,48.125,78.0,0.0023928226,1114658,853,-1805,-7239,10203
54170192,4200,0,-1.1803628,0.57959783,-8.906298,0.000109579094,0.025920782,-0.053328488,48.125,78.0,0.0023928226,1114658,-1428,3302,-7732,-7
54272120,5328,0,1.2266738,1.2148424,-9.170301,0.014966896,-0.01861029,-0.026704773,48.125,78.0,0.0023928226,1114658,311,-1342,-1616,9304
54377049,4182,0,0.87417346,0.3140272,-9.565506,0.021132473,-0.01836716,-0.035374105,48.125,78.0,0.0023928226,1114658,2190,215,-2969,8193
54477843,4176,0,1.4247088,-0.60181725,-10.515782,-0.029075896,0.0031972,-0.038161647,48.125,78.0,0.0023928226,1114658,166,-3459,-1376,10218
54579715,5248,0,-1.2403079,0.14067988,-8.779567,-0.03884375,0.014587832,-0.04226296,48.25,78.0,0.0023928226,1114658,-1373,2486,-4051,0
54680493,4200,0,0.15392707,1.0902724,-10.171414,0.027455328,-0.0007787499,-0.050146036,48.125,78.0,0.0023928226,1114658,54,1221,-2558,10217
54782367,4209,0,-0.6697656,1.8246167,-9.103873,0.00031250998,0.010221478,-0.022511756,48.125,78.0,0.0023928226,1114658,1904,4833,-6018,2049
54883159,4217,0,0.99136764,0.07325973,-10.479961,-0.0117837405,-0.0049088676,-0.046077274,48.125,78.0,0.0023928226,1114658,-1255,-3283,-3508,8192
54983942,4200,0,-0.94500315,-0.19219881,-9.9037895,0.0048843417,-0.000112654256,-0.014930424,48.125,78.0,0.0023928226,1114658,1677,4366,-3264,10235
55085793,5250,0,0.7663241,-0.9246782,-10.065546,0.024398783,0.006878547,-0.0893756,48.25,78.0,0.0023928226,1114658,-2242,-1320,-3383,10232
55188693,4169,0,-0.9508613,0.61145467,-8.21989,-0.030105837,0.0026239,-0.008088377,48.125,78.0,0.0023928226,1114658,672,1835,-2831,9317
55290582,5286,0,0.37801254,1.2811874,-9.417966,0.041126113,-0.0050545866,-0.05832386,48.25,78.0,0.0023928226,1114658,2518,2860,-3281,8193
55393443,4200,0,1.5872114,-0.40737352,-11.331549,-0.014235447,0.005235428,-0.054832064,48.375,78.0,0.0023928226,1114658,-804,-3959,1529,-7
55495342,5297,0,0.48654073,-1.2424843,-10.454195,-0.014717459,0.008741831,-0.056595873,48.25,78.0,0.0023928226,1114658,-653,-2837,-3192,10235
55596164,4269,0,0.12774321,-0.11989989,-9.385334,-0.002938666,0.013656065,-0.035062958,48.25,78.0,0.0023928226,1114658,-802,-494,-3466,10234
55697943,4196,0,0.30470806,1.1936543,-9.287638,-0.0101305535,0.011523491,-0.029743562,48.25,78.0,0.0023928226,1114658,131,-704,-1106,10232
55800907,4264,0,0.97296935,1.1703987,-8.973583,-0.02312427,-0.009162994,-0.0021835687,48.125,78.0,0.0023928226,1114658,945,-3752,-2635,-7
55901707,4262,0,1.422935,0.36303586,-9.563773,0.029898606,-0.02143306,-0.008536672,48.125,78.0,0.0023928226,1114658,2434,-1998,-2996,-7
56001393,5187,0,-1.0080677,-0.62279,-9.812259,0.03471599,-0.004867647,-0.07371369,48.125,78.0,0.0023928226,1114658,1197,6718,-7864,8192
56104293,4134,0,-0.90601903,-1.0587171,-9.610883,0.032332335,-0.00500875,-0.022483634,48.125,78.0,0.0023928226,1114658,351,4715,-4002,8192
56206171,5233,0,-1.799034,1.0290841,-9.201495,0.009185384,0.021421717,-0.0717989,48.375,78.0,0.0023928226,1114658,71,5464,-7093,8192
56309049,5256,0,-1.6252489,2.5522246,-9.51765,-0.014562649,0.026504781,-0.044218928,48.125,78.0,0.0023928226,1114658,-344,3397,-2840,8193
56409864,4197,0,-0.09882835,1.655639,-9.180332,-0.042848013,0.0037471703,-0.027053138,48.125,78.0,0.0023928226,1114658,1385,1226,-6182,10258
56511693,4197,0,-0.47524318,-0.17049491,-10.344873,-0.038303595,0.0018521117,-0.051541954,48.25,78.0,0.0023928226,1114658,471,24,-3955,-7
56612493,4200,0,1.6469212,-1.1927457,-10.409933,-0.022072569,0.0074716597,-0.051425666,48.25,78.0,0.0023928226,1114658,-1672,-5149,-2722,2048
56715399,4207,0,0.058701053,-0.049719356,-10.978004,-0.021663984,0.022145232,-0.052174006,48.125,78.0,0.0023928226,1114658,-974,-3796,680,10270
56817244,4196,0,0.8642448,0.98525524,-10.515487,-0.016287282,0.018640999,-0.06271135,48.125,78.0,0.0023928226,1114658,-896,-4514,1405,8192
56918079,4226,0,0.87315696,1.3080848,-9.97274,-0.023486858,0.012340666,-0.040663738,48.125,78.0,0.0023928226,1114658,-1803,-4745,-820,8193
57014643,4176,0,0.9084728,1.7124027,-8.82201,0.025199246,-0.02112468,-0.053152785,48.125,78.0,0.0023928226,1114658,3471,-183,-6991,10259
57120693,4200,0,-0.73879576,-0.4263697,-10.541631,-0.02901784,0.0037492157,-0.046154723,48.25,78.0,0.0023928226,1114658,1475,827,-3250,2048
57221493,4185,0,-1.2836965,-1.1009305,-9.085073,-0.018493561,0.008212262,-0.028287489,48.125,78.0,0.0023928226,1114658,51,3311,-5909,8192
57322293,4173,0,-0.82723707,0.35980955,-8.794993,0.02092645,-0.0050859656,-0.023244295,48.125,78.0,0.0023928226,1114658,2621,4474,-4280,10274
57422043,4188,0,-0.21778502,1.8339521,-10.570084,0.021554347,0.0034577087,-0.053561967,48.375,78.0,0.0023928226,1114658,3552,2133,-1372,8193
57527043,6300,0,0.6011761,1.5322429,-9.827258,-0.03561716,0.020353913,-0.06872283,48.125,78.0,0.0023928226,1114658,1678,523,-3846,8193
57628946,5304,0,-0.39999026,0.66940135,-9.839184,0.02739809,-0.0048946915,-0.087184854,48.125,78.0,0.0023928226,1114658,2311,5378,-7618,10285
57729786,4293,0,1.3357065,-1.1777216,-9.658109,0.028065406,-0.016759193,-0.047353413,48.125,78.0,0.0023928226,1114658,-380,-1518,-3706,9326
57831572,4193,0,0.2271353,-0.536182,-10.198747,-0.026995651,0.006118301,-0.020570382,48.125,78.0,0.0023928226,1114658,-2432,-4348,676,8193
57932342,4165,0,-0.43637836,0.53297144,-9.794848,-0.03377335,0.032450814,-0.04530984,48.125,78.0,0.0023928226,1114658,-1993,-276,-3137,-7
58033144,4175,0,0.2857366,1.4438245,-8.613367,-0.037381794,0.020761672,-0.04283397,48.25,78.0,0.0023928226,1114658,-823,-1121,-6600,8192
58132935,4243,0,-1.0599703,1.9038631,-8.943699,-0.04355297,-0.0006968379,-0.0042808536,48.25,78.0,0.0023928226,1114658,2256,1449,-3957,9329
58235792,4199,0,-0.68903,-0.18436453,-9.466509,-0.014538192,-0.020317001,-0.02358803,48.125,78.0,0.0023928226,1114658,877,4412,-4940,10294
58337695,4253,0,-0.03490971,-1.0591155,-9.55466,0.01720522,-0.010377143,-0.032953504,48.25,78.0,0.0023928226,1114658,403,2835,-6066,9335
58438467,4208,0,-1.1284109,-0.4290637,-9.8147135,-0.009636955,0.0013661375,-0.030297408,48.25,78.0,0.0023928226,1114658,-893,4256,-3210,9345
58539243,4182,0,0.027274046,0.0490621,-9.133241,-0.031318612,0.016490845,-0.065051846,48.25,78.0,0.0023928226,1114658,-2111,-2033,-3268,2049
58643192,4200,0,0.02609087,1.8015598,-9.967316,0.005168681,0.017586527,-0.051780872,48.125,78.0,0.0023928226,1114658,2638,3074,-2693,2049
58743992,4200,0,-0.7627251,0.95738125,-10.868487,0.0073446054,0.012675222,-0.068447225,48.375,78.0,0.0023928226,1114658,1663,5206,-2176,-6
58847942,4199,0,0.43718535,-0.97262645,-10.6053505,0.032653656,-0.012010412,-0.045425724,48.25,78.0,0.0023928226,1114658,1765,-1756,-2576,-6
58948742,4199,0,-0.3931673,-0.31630644,-10.606372,0.02666877,0.012373309,-0.077442124,48.125,78.0,0.0023928226,1114658,202,2067,-637,-6
59050609,5254,0,0.42463973,0.9488501,-10.184861,0.0029240707,0.022997838,-0.06961015,48.25,78.0,0.0023928226,1114658,-1276,-908,-1665,-6
59151408,4189,0,0.73215437,1.5544804,-9.757754,-0.014877849,0.0052671204,-0.052775733,48.125,78.0,0.0023928226,1114658,-202,-2565,-2631,-6
60375692,6284,0,0.10482502,-0.31210536,-11.440783,0.020253072,-0.010206646,-0.053212274,48.375,78.0,0.0023928226,1114658,124,549,1464,-6
60479690,4231,0,-0.49885765,0.519789,-8.555009,-0.035797182,0.015634801,-0.023214718,48.25,78.0,0.0023928226,1114658,-509,1678,-6958,0
60580443,4200,0,-0.71386844,1.6726356,-9.197155,-0.014328845,0.013608659,-0.028984558,48.25,78.0,0.0023928226,1114658,951,3429,-3205,10350
60680213,4221,0,-0.9217014,1.2856128,-9.436145,-0.008068336,0.004892248,-0.050501607,48.25,78.0,0.0023928226,1114658,926,4243,-5316,8193
60785193,4161,0,-0.20798539,0.2690904,-11.997949,0.047770932,-0.013197698,-0.014865013,48.25,78.0,0.0023928226,1114658,2158,3864,4181,10356
60884958,4215,0,0.9355356,-1.0813042,-11.104192,0.039915808,-0.009025404,-0.05879907,48.25,78.0,0.0023928226,1114658,751,-466,-1371,10352
60985766,4223,0,0.0795423,-1.3513571,-9.744856,0.024970029,-0.0019877143,-0.060150784,48.25,78.0,0.0023928226,1114658,-1333,700,-5709,9345
61089807,4307,0,0.2918812,0.17854951,-10.080437,-0.008238223,0.012963258,-0.03999461,48.125,78.0,0.0023928226,1114658,-1393,-112,-2106,10356
61190564,4271,0,1.0302212,1.1103518,-8.634727,-0.009280393,0.0051017334,-0.026822872,48.25,78.0,0.0023928226,1114658,4,-3369,-7743,10368
61292342,4200,0,0.17326051,-0.057473302,-9.501453,-0.033883847,0.0066158106,-0.053675935,48.125,78.0,0.0023928226,1114658,-846,-803,-6106,10358
61393159,4201,0,-0.7428767,-0.98688644,-9.749507,-0.036542922,-0.0010660707,-0.05340548,48.25,78.0,0.0023928226,1114658,661,504,-6015,10370
61494993,5206,0,-1.1874447,-0.74811244,-9.001137,0.012181081,0.010391399,-0.063381106,48.25,78.0,0.0023928226,1114658,-580,6038,-7037,10364
61595793,4200,0,-1.2552876,0.7930371,-9.216123,0.012515821,0.014415726,-0.057786744,48.375,78.0,0.0023928226,1114658,-576,5297,-3872,10370
61697667,4224,0,-0.6609746,1.5651081,-8.848613,0.030072177,0.012488319,-0.06385608,48.25,78.0,0.0023928226,1114658,748,3672,-5983,9347
61796342,4173,0,-0.8082706,1.2370006,-8.607504,-0.009326911,0.006174482,-0.040465113,48.25,78.0,0.0023928226,1114658,-116,3629,-5884,10372
61898193,5221,0,0.21486285,0.17389305,-9.637991,-0.026797548,-0.0052122627,-0.045704704,48.25,78.0,0.0023928226,1114658,754,-386,-5295,10374
62003192,4200,0,-0.9075278,-1.1611143,-9.3519535,-0.030458322,-0.0032254036,-0.02508778,48.375,78.0,0.0023928226,1114658,-310,2048,-3486,8192
62105066,4179,0,0.013215387,-0.2831731,-8.348372,-0.037381835,0.013053241,-0.017280454,48.25,78.0,0.0023928226,1114658,-1444,-1390,-5489,-7
62211093,5209,0,-0.0042570406,1.7727023,-10.4881315,0.008851121,0.016543375,-0.066556156,48.125,78.0,0.0023928226,1114658,872,6493,-259,-7
62313993,4184,0,0.16651829,0.4130654,-9.909507,0.0517095,-0.0061473525,-0.037548557,48.25,78.0,0.0023928226,1114658,1860,4726,-6824,9355
62415842,5249,0,-0.05945923,-1.2011805,-9.904916,0.03344132,-0.011043779,-0.056886744,48.25,78.0,0.0023928226,1114658,1285,3187,-5565,8192
62615389,4226,0,-0.69848424,-0.71100277,-9.931134,0.010807842,-0.005026191,-0.017743738,48.25,78.0,0.0023928226,1114658,-842,4963,-2643,10378
62721394,4201,0,1.0049703,1.4829895,-10.229696,-0.008973036,0.009064332,-0.052086536,48.25,78.0,0.0023928226,1114658,1079,-3714,-3558,8193
62825343,5180,0,-0.27848065,0.71159714,-10.221953,0.0034727564,-0.013553707,-0.049139936,48.125,78.0,0.0023928226,1114658,857,3876,-4031,8192
62923022,6330,0,-0.03805483,0.94654477,-10.726428,-0.0065288185,-0.0073562497,-0.04819039,48.25,78.0,0.0023928226,1114658,755,3784,-1262,-7
63026942,4199,0,1.0285593,-1.3725003,-10.215367,0.016937304,-0.0036754499,-0.04537286,48.25,78.0,0.0023928226,1114658,-586,-1246,-1131,-8
63127742,4199,0,0.18654841,-0.7393895,-9.697417,-0.03307447,0.007969469,-0.014436047,48.25,78.0,0.0023928226,1114658,-921,-2727,-2162,-8
63229647,4236,0,-0.60367185,0.5586101,-8.178024,-0.004611147,2.9963267e-06,-0.047880612,48.25,78.0,0.0023928226,1114658,75,3563,-6797,0
63331443,5210,0,0.16652429,0.9306553,-9.037364,0.02667143,-0.0066807317,-0.051397774,48.25,78.0,0.0023928226,1114658,605,2401,-4458,9358
63434343,6273,0,1.256238,0.30019498,-10.119248,-0.0196112,-0.007542138,-0.028469097,48.25,78.0,0.0023928226,1114658,803,-1318,-2658,-8
63534093,4200,0,-0.9588524,-0.57625437,-10.358708,-0.0029051413,-0.0019339485,-0.021572761,48.375,78.0,0.0023928226,1114658,1999,4992,-806,8193
63634893,4199,0,0.9936943,-0.63623273,-10.696512,0.019731058,-0.0011241612,-0.054855518,48.25,78.0,0.0023928226,1114658,2634,-2161,-294,8193
63735693,4200,0,-0.61884046,-0.28911766,-10.880845,-0.008231481,0.010006501,-0.046451394,48.25,78.0,0.0023928226,1114658,-436,1288,333,10392
63839692,4249,0,1.3821223,1.5170285,-9.85195,0.0069031524,0.009052006,-0.05126765,48.375,78.0,0.0023928226,1114658,1339,-3198,-137,0
63945714,5264,0,0.17632322,0.20257224,-8.91752,0.018622031,-0.019314675,-0.05600103,48.25,78.0,0.0023928226,1114658,1589,3497,-7619,9355
64046540,4247,0,-0.22018903,-0.98718643,-10.551612,-0.0007532545,-0.0072144144,-0.041453753,48.25,78.0,0.0023928226,1114658,409,1954,-1516,10420
64148343,4167,0,0.09925882,-0.5817748,-9.028326,-0.01742887,0.0074584647,-0.014914539,48.375,78.0,0.0023928226,1114658,-203,-1764,-6744,10414
64247043,4178,0,-0.08136147,-0.06203529,-9.72559,-0.028005777,0.008266968,9.7975266e-05,48.25,78.0,0.0023928226,1114658,-1135,-820,-120,8193
64348967,5296,0,-0.3552665,1.0495231,-8.2987175,0.010982317,0.0105500845,-0.05583082,48.25,78.0,0.0023928226,1114658,-891,3337,-5845,10416
64453893,4105,0,1.2660906,0.72649604,-11.328644,0.014546028,-0.013545662,-0.044740196,48.375,78.0,0.0023928226,1114658,1768,-2033,3513,-7
64551543,4153,0,0.6130392,0.038268186,-11.378963,0.027627902,0.0002831006,-0.06627384,48.25,78.0,0.0023928226,1114658,2369,3434,2390,8193
64654467,4224,0,0.8037962,-1.31496,-9.732735,9.992449e-05,-0.010090792,-0.019264465,48.375,78.0,0.0023928226,1114658,645,-2185,-2619,9371
64753159,4194,0,-0.44479343,-0.83346856,-9.714902,0.023280175,-0.0006762767,-0.06282353,48.25,78.0,0.0023928226,1114658,966,2726,-3945,10419
64857097,4139,0,0.77102274,0.97290087,-9.927677,0.017000325,-0.0082286745,-0.004819994,48.25,78.0,0.0023928226,1114658,-47,-3136,367,10423
64957904,4130,0,1.1532142,2.353221,-9.520014,0.037923917,-0.009419909,-0.05506015,48.375,78.0,0.0023928226,1114658,1384,207,-3340,10426
65066043,4200,0,0.0022213971,-1.1573416,-9.873602,-0.026666405,0.0072486172,-0.06901669,48.25,78.0,0.0023928226,1114658,-414,2669,-3000,8193
65162643,4176,0,1.408056,-0.98143196,-11.626565,0.0072996276,-0.001640778,-0.06027826,48.25,78.0,0.0023928226,1114658,318,-2836,1326,9364
65268692,4198,0,-0.7383377,0.9519041,-10.3309145,-0.03362422,0.019086065,-0.033961173,48.5,78.0,0.0023928226,1114658,-211,49,1699,-7
65370596,4252,0,1.2738593,1.4580238,-8.863012,-0.022782573,0.012206921,-0.021757215,48.25,78.0,0.0023928226,1114658,-392,-5286,-5349,8193
65471386,4228,0,1.3714781,1.931754,-10.467473,0.022011485,-0.012367928,-0.08281142,48.25,78.0,0.0023928226,1114658,51,-2813,-2357,10447
65571097,5254,0,-1.3977824,1.5332073,-10.3109865,0.004741884,-0.0037935812,-0.045673184,48.25,78.0,0.0023928226,1114658,1990,5855,-1589,-7
65673993,4161,0,-0.74914116,-1.1163852,-11.260973,0.012743199,-0.009749317,-0.04350836,48.375,78.0,0.0023928226,1114658,1651,6254,577,10445
65772692,4155,0,1.5535707,-2.0960217,-10.507282,-0.03932597,-0.0007314051,-0.026029916,48.25,78.0,0.0023928226,1114658,-1151,-5090,-1731,10442
65874577,4235,0,0.976323,-1.3198055,-10.66887,0.013477078,0.0018670564,-0.038805842,48.25,78.0,0.0023928226,1114658,-1757,-4552,-134,8193
65975371,4213,0,-1.0852863,0.6765313,-8.670331,0.054853756,0.004172833,-0.03796959,48.25,78.0,0.0023928226,1114658,1165,5324,-5513,10443
66079347,4255,0,0.92569935,2.56037,-9.337298,0.04882887,-0.013522562,-0.022982795,48.25,78.0,0.0023928226,1114658,1847,417,-3460,10447
66181159,4161,0,0.31311184,0.77207416,-9.679806,0.04920839,-0.009701797,-0.052726332,48.25,78.0,0.0023928226,1114658,2886,3752,-7093,10441
66281943,4179,0,-0.7086628,-0.45054534,-9.765792,0.01855169,-0.0015159976,-0.06865557,48.375,78.0,0.0023928226,1114658,1158,5972,-2351,10457
66385893,4155,0,-1.0522938,-1.0182203,-10.250901,0.036391016,-0.004142391,-0.031001749,48.375,78.0,0.0023928226,1114658,1219,4576,-108,10456
66486692,4178,0,-0.95182484,-0.06329,-9.270656,0.028674543,0.0034569032,-0.056673605,48.25,78.0,0.0023928226,1114658,127,5765,-3768,9362
66588543,4200,0,-0.55677253,1.7516695,-8.746563,0.045412626,0.0046230755,-0.08014235,48.375,78.0,0.0023928226,1114658,432,5537,-9719,8193
66690393,5216,0,-0.35160872,1.806831,-9.540622,0.048221186,0.003726917,-0.08036107,48.25,78.0,0.0023928226,1114658,1256,5155,-5278,-7
66786992,4200,0,-0.5412361,1.5592661,-9.177734,-0.04096897,0.007824595,-0.06273296,48.25,78.0,0.0023928226,1114658,373,232,-6601,10462
66890943,4200,0,-0.47504488,-0.45093435,-10.694528,0.021047315,-0.016104633,-0.03638291,48.25,78.0,0.0023928226,1114658,2207,4871,-2483,-7
66993843,4133,0,0.83153164,-1.3477476,-9.661562,0.019306723,-0.0137198875,-0.047836166,48.375,78.0,0.0023928226,1114658,-920,-2550,-3235,9370
67095694,4201,0,0.61706257,0.29551426,-8.87443,0.008652529,-0.0058175004,-0.055276643,48.25,78.0,0.0023928226,1114658,-2127,-3646,-6097,10472
67194416,4224,0,0.25466558,1.3718766,-8.609182,0.030210586,-0.0027268908,-0.04967706,48.25,78.0,0.0023928226,1114658,-765,-871,-6943,8193
67296243,4172,0,1.2507633,1.2208331,-10.0686655,0.015637277,-0.003831043,-0.068365954,48.0,78.0,0.0023928226,1114658,-824,-3329,-2852,10481
67401242,4199,0,-0.16075204,-0.22845863,-10.618837,-0.04110743,0.006826884,-0.011431806,48.375,78.0,0.0023928226,1114658,923,-373,-400,8193
67507347,4255,0,0.926189,-0.5884851,-9.20361,0.035045255,-0.006175057,-0.053565953,48.25,78.0,0.0023928226,1114658,-811,-597,-5505,10480
67609150,4157,0,1.3103142,1.0119116,-9.654203,0.018139465,0.0023210833,-0.05840005,48.25,78.0,0.0023928226,1114658,-1544,-3063,-4882,8192
67709944,4161,0,1.2900971,1.2978759,-9.50999,0.0050430745,-0.0064855334,-0.074083075,48.375,78.0,0.0023928226,1114658,-865,-3802,-5615,-7
67811792,4200,0,0.9195998,0.38448218,-9.983063,-0.012831773,-0.0018338921,-0.055139586,48.25,78.0,0.0023928226,1114658,-96,-3737,-6548,-7
67912592,6299,0,0.39800638,-0.42225015,-10.498278,-0.017247519,-0.0041177236,-0.07268455,48.25,78.0,0.0023928226,1114658,-1374,-3572,-5376,-7
68016543,4168,0,-1.5392408,0.27152196,-10.266082,0.026087841,0.015812049,-0.04710767,48.25,78.0,0.0023928226,1114658,2095,6838,-54,8193
68116293,5228,0,-1.6042179,1.258721,-9.821636,0.017909402,0.027784916,-0.07540587,48.25,78.0,0.0023928226,1114658,-518,6017,-3090,8192
68219205,4213,0,1.3578203,1.6905963,-10.3989935,0.0072927936,-0.004169901,-0.049651988,48.375,78.0,0.0023928226,1114658,1665,-3598,337,8192
68321043,5251,0,1.3969452,0.37158844,-10.824812,-0.012245694,-0.0101087075,-0.046982665,48.375,78.0,0.0023928226,1114658,846,-3941,139,8193
68417667,4176,0,1.0089186,-0.30435997,-9.808195,0.02626429,-0.02107954,-0.071800396,48.375,78.0,0.0023928226,1114658,1306,-320,-6173,9392
68520543,4200,0,0.49872527,-1.4058198,-10.830792,-0.04099731,0.0084602,-0.042088382,48.25,78.0,0.0023928226,1114658,-20,-3026,-1592,8193
68626631,4237,0,0.48226926,0.598511,-9.020167,0.025790047,0.0034565984,-0.05513885,48.375,78.0,0.0023928226,1114658,-1559,-1821,-4719,-7
68730545,5252,0,0.67231905,1.7391993,-10.549183,-0.02980443,0.003000704,-0.049031477,48.25,78.0,0.0023928226,1114658,2030,-3207,699,8193
68829243,4185,0,1.3666692,1.2279266,-10.7037945,-0.018143607,0.008603318,-0.034858003,48.375,78.0,0.0023928226,1114658,-42,-6207,531,8192
68931101,4209,0,1.1745857,-0.33286017,-10.185624,-0.032442786,-0.0009602875,-0.0011226112,48.375,78.0,0.0023928226,1114658,433,-5046,-1762,8193
69033993,4178,0,0.27295583,-1.4767227,-10.268722,-0.049103312,0.012480003,-0.043207902,48.125,78.0,0.0023928226,1114658,15,-3614,-5159,10517
69133747,5244,0,0.99105835,-1.4134718,-11.314636,0.0030300224,0.008482166,-0.061885353,48.25,78.0,0.0023928226,1114658,-1931,-3973,1379,10505
69235593,5251,0,0.7119539,-0.19320695,-9.340623,0.050099667,0.0019205865,-0.06866811,48.25,78.0,0.0023928226,1114658,-1073,660,-8051,9385
69338557,4265,0,1.2903496,2.4621396,-9.222245,0.038231585,-0.011176543,-0.04075691,48.25,78.0,0.0023928226,1114658,645,-592,-4504,10510
69440342,5250,0,0.010348801,1.9485868,-10.14279,0.051384017,-0.011686974,-0.07986518,48.25,78.0,0.0023928226,1114658,3692,5198,-3958,10510
69542206,5225,0,-0.77352715,-0.44715983,-9.417324,-0.001656285,-0.00295435,-0.04605812,48.5,78.0,0.0023928226,1114658,1190,4823,-6905,8192
69643020,4227,0,0.03614282,-1.1995953,-11.3671875,-0.04061213,-0.004166648,-0.046178203,48.375,78.0,0.0023928226,1114658,713,-2293,1490,8192
69743792,4153,0,0.57010734,-1.4332694,-9.315049,0.035457764,-0.002580409,-0.033171084,48.25,78.0,0.0023928226,1114658,-1322,-2194,-4223,-7
69845674,4231,0,-1.4929878,0.818516,-9.820009,0.049871266,0.004841019,-0.044505324,48.375,78.0,0.0023928226,1114658,2064,6574,-1990,9387
69946487,4244,0,-0.9629211,2.038828,-8.883068,0.0028234064,0.014570129,-0.029325427,48.25,78.0,0.0023928226,1114658,-1118,4306,-4179,9388
70050394,4201,0,-1.8139342,1.3398795,-9.557773,-0.011781671,-0.011278317,-0.026397215,48.25,78.0,0.0023928226,1114658,1468,4357,-4307,-7
70150159,5219,0,-0.44745407,1.4663353,-9.735665,-0.03806225,-0.0064633586,-0.06501509,48.375,78.0,0.0023928226,1114658,1644,-5526,-7766,10522
70250943,4176,0,2.2922926,-1.5652626,-11.257289,0.017387468,-0.016727904,-0.038273524,48.375,78.0,0.0023928226,1114658,-1566,-4751,1546,10532
70355942,4199,0,0.43243456,-1.6969459,-10.743444,-0.028948175,0.008176397,-0.02739668,48.375,78.0,0.0023928226,1114658,-3509,-5808,1350,-7
70457832,4224,0,0.48412815,0.6096789,-9.269183,0.038641848,-0.007849682,-0.055713333,48.375,78.0,0.0023928226,1114658,381,382,-6288,10530
70559690,5297,0,-1.6618346,3.014,-9.475746,0.048661303,0.0047403662,-0.027834462,48.375,78.0,0.0023928226,1114658,3046,6685,-1600,0
70662553,6310,0,-0.826469,1.1157813,-9.515268,0.013374746,0.00046074082,-0.074457645,48.375,78.0,0.0023928226,1114658,1838,7118,-3851,8193
70764422,4228,0,-1.5660976,-0.4416658,-9.780083,-0.008795472,-0.0028428033,-0.026036534,48.375,78.0,0.0023928226,1114658,418,4076,-2346,-7
70870467,4224,0,-0.67345905,-0.05334849,-10.690676,0.030285489,0.0023504582,-0.06322796,48.5,78.0,0.0023928226,1114658,1108,4281,2681,9387
70969158,4192,0,-0.019983705,-0.5423584,-9.394697,-0.049260914,0.023899654,-0.0681664,48.25,78.0,0.0023928226,1114658,-2707,-3349,-4039,10538
71068966,4244,0,1.4265568,0.17720288,-9.994597,0.011658612,0.00040477273,-0.030891785,48.375,78.0,0.0023928226,1114658,-2271,-4009,790,10531
71173893,4112,0,-0.5395048,0.6372053,-8.944772,-0.036293715,0.010018301,-0.04654476,48.375,78.0,0.0023928226,1114658,-1122,-534,-5103,10533
71273668,4225,0,1.4275768,-0.24943812,-9.592232,-0.008142808,-0.012908819,-0.058144834,48.375,78.0,0.0023928226,1114658,-1154,-5616,-5186,9391
71374467,4224,0,1.6507714,-1.0211962,-9.599987,-0.0031139837,-0.0075005386,-0.044615977,48.375,78.0,0.0023928226,1114658,-1108,-4930,-5600,9398
71474193,5227,0,0.7756687,-1.1159008,-9.129902,0.017764702,-0.0088135125,-0.036921937,48.375,78.0,0.0023928226,1114658,-294,-2006,-4250,-7
71577099,4127,0,0.072392,-0.5545177,-9.233062,-0.04275904,0.011614976,-0.03860963,48.25,78.0,0.0023928226,1114658,-1654,-3523,-2088,10554
71681087,4199,0,-0.5471865,1.4951901,-8.764836,0.014819022,0.017107824,-0.070661336,48.375,78.0,0.0023928226,1114658,857,3790,-9223,-7
71781887,4220,0,-0.58019453,1.1688389,-9.107025,0.03711057,-0.009327889,-0.072988525,48.375,78.0,0.0023928226,1114658,2944,5216,-7773,-7
71883692,5225,0,1.1928716,-0.041058216,-9.6986475,0.03765042,-0.027139315,-0.05744767,48.375,78.0,0.0023928226,1114658,3443,-456,-5495,10560
71986604,4212,0,0.07747716,-0.9367403,-9.936688,-0.04025058,0.012391389,-0.011210984,48.375,78.0,0.0023928226,1114658,-1003,-1556,-1306,10552
72086343,4171,0,-0.8346138,0.5680488,-9.721277,-0.017248742,0.027467625,-0.04756178,48.375,78.0,0.0023928226,1114658,149,1734,-4499,-7
72187160,4177,0,-1.4120178,0.97768825,-8.510994,-0.00017274004,0.013010313,-0.05685948,48.375,78.0,0.0023928226,1114658,-1799,5914,-6450,2049
72286893,5172,0,-0.5041813,1.9548557,-9.556648,0.022623925,0.0053071557,-0.0458988,48.375,78.0,0.0023928226,1114658,3021,4747,-3186,0
72389811,4218,0,0.7913195,0.34255478,-10.214481,-0.032536987,-0.0015480962,-0.033142548,48.375,78.0,0.0023928226,1114658,1581,-5224,-2279,10567
72491643,5251,0,-1.2018644,-0.87437403,-9.940104,-0.028147334,0.00803613,-0.07287709,48.375,78.0,0.0023928226,1114658,-462,2726,-6346,8192
72592443,4200,0,-0.058404494,-0.55128586,-9.241933,0.025088407,-0.008335702,-0.02954495,48.375,78.0,0.0023928226,1114658,921,1448,-3866,10577
72694300,4207,0,0.16833028,-0.06575238,-9.139983,-0.024703735,0.0021484103,-0.020059463,48.25,78.0,0.0023928226,1114658,-2122,-2018,-2411,8192
72795093,4201,0,-0.8126376,1.1487353,-9.77546,-0.014809323,0.014889058,-0.039132856,48.5,78.0,0.0023928226,1114658,157,3830,-1531,-7
72895892,4200,0,0.44675985,0.72208947,-8.731042,0.040063504,0.003625733,-0.07544399,48.375,78.0,0.0023928226,1114658,936,2718,-10127,-7
72997774,5282,0,0.7417123,-0.43576184,-10.033068,0.0060928627,-0.01859786,-0.023577644,48.375,78.0,0.0023928226,1114658,993,-1925,-1400,9400
73099657,5315,0,-0.24101068,-1.2108221,-10.019561,-0.032420307,-0.008172312,-0.030163158,48.375,78.0,0.0023928226,1114658,1137,-1018,-4916,0
73200427,4212,0,-0.38570738,-0.3111974,-10.493262,0.024767261,0.005900921,-0.04140712,48.375,78.0,0.0023928226,1114658,947,2099,-1703,-7
73305402,6310,0,0.08413999,1.2072877,-10.0366,-0.033948775,0.011444014,-0.043273218,48.375,78.0,0.0023928226,1114658,842,338,-2338,8193
73407273,4230,0,-0.33327273,1.2479184,-10.027623,0.041043367,0.0001531521,-0.058732133,48.375,78.0,0.0023928226,1114658,1539,4852,-2265,9407
73509093,5251,0,1.2276137,-0.78627455,-10.545434,0.017370028,-0.0012241048,-0.076789536,48.375,78.0,0.0023928226,1114658,-589,-2231,-3921,10587
73614093,4200,0,-1.6829759,-1.0924622,-10.369847,0.010286129,0.007288529,-0.056141928,48.375,78.0,0.0023928226,1114658,1180,5823,-2104,10593
73713843,5250,0,-0.3927801,-0.017250622,-8.760703,0.03222772,0.0032499866,-0.076954834,48.25,78.0,0.0023928226,1114658,-190,3041,-9632,-7
73814642,4166,0,0.93668234,0.8518178,-9.975566,0.021839894,0.0026399104,-0.03308873,48.5,78.0,0.0023928226,1114658,-748,-576,-6,8192
73913343,4182,0,1.8642995,1.446463,-10.364718,0.010632167,0.0036317986,-0.048698865,48.375,78.0,0.0023928226,1114658,936,-3446,645,-7
74015192,5249,0,0.050330363,1.4302255,-9.901742,-0.036534835,0.015579804,-0.05672974,48.375,78.0,0.0023928226,1114658,1251,-798,-3464,8192
74120221,4218,0,0.42271155,-0.792039,-11.112782,0.0352286,-0.0060539986,-0.022554372,48.375,78.0,0.0023928226,1114658,1597,40,-1749,10585
74222043,4169,0,0.1310012,-0.6947838,-10.620129,-0.0023068984,0.007886122,-0.052735683,48.375,78.0,0.0023928226,1114658,-625,-4735,2811,8193
74321793,5249,0,0.85399985,-0.13818216,-9.499881,0.004028314,0.014551172,-0.053382788,48.375,78.0,0.0023928226,1114658,-2854,-3278,-3646,9420
74424692,4199,0,-0.51383626,1.1326934,-9.048361,-0.035298083,0.014635947,-0.052654415,48.25,78.0,0.0023928226,1114658,-1395,-129,-5931,8193
74527592,4195,0,-0.955514,0.75796795,-9.184101,0.0263336,-0.0019190016,-0.0626488,48.25,78.0,0.0023928226,1114658,405,6677,-6989,16961
74629442,4199,0,0.8403367,-0.41661882,-9.558971,0.03046422,-0.010238185,-0.08478456,48.375,78.0,0.0023928226,1114658,904,713,-8581,-7
74728169,4226,0,-0.09295126,-0.9307017,-9.957994,0.02060173,-0.010486694,-0.023951758,48.5,78.0,0.0023928226,1114658,2008,2240,-5944,10587
74834203,5238,0,-0.7632929,0.066706866,-8.895475,-0.036326077,0.022608042,-0.018285893,48.375,78.0,0.0023928226,1114658,-914,-90,-2950,8192
74932963,4271,0,0.22003202,1.2830024,-9.641316,-0.034205765,0.01595426,0.00021076624,48.375,78.0,0.0023928226,1114658,-45,-2719,-1628,10605
75034743,4197,0,-0.8205931,1.7471172,-9.439313,-0.010124729,0.0014498612,-0.026385,48.375,78.0,0.0023928226,1114658,1595,4923,-1281,10618
75135543,4197,0,-0.6625785,1.2983791,-10.123177,0.014209062,-0.006041087,-0.047275774,48.375,78.0,0.0023928226,1114658,1578,5001,-2515,8193
75239494,4154,0,0.6679061,-0.9975328,-10.950367,0.007931478,-0.0034137073,-0.04255127,48.375,78.0,0.0023928226,1114658,-643,-3260,2811,9403
75340295,4155,0,0.98872495,-0.94462234,-10.9361925,-8.331139e-05,0.014605531,-0.050425403,48.375,78.0,0.0023928226,1114658,-988,-4139,369,10610
75440070,4228,0,0.97564554,-0.9000221,-10.462627,0.03019177,0.00407452,-0.061092652,48.375,78.0,0.0023928226,1114658,-3621,-1427,-1203,8193
75543992,5249,0,0.592398,1.4786996,-10.383311,-0.030668031,0.021046296,-0.049781103,48.375,78.0,0.0023928226,1114658,442,-3504,-1156,2049
75646893,4200,0,0.031054998,0.8272933,-10.535243,-0.025629973,-0.006628031,-0.0006371666,48.375,78.0,0.0023928226,1114658,2618,-75,-586,8193
75743495,4151,0,1.095857,-0.043075576,-10.525162,0.018322831,0.0031951887,-0.081173785,48.375,78.0,0.0023928226,1114658,-182,325,-3462,2048
75847445,4172,0,0.4577746,-0.8426436,-10.974233,-0.031341,0.009740945,-0.0074139894,48.375,78.0,0.0023928226,1114658,-21,-4057,210,16961
75954591,4248,0,-0.7964367,2.033053,-8.784972,0.04895738,-0.0032210865,-0.081879415,48.375,78.0,0.0023928226,1114658,1668,4735,-7979,-7
76052193,4201,0,-0.9306672,2.1681356,-8.622225,-0.021195015,0.03493143,-0.04014801,48.625,78.0,0.0023928226,1114658,-770,3093,-9124,10617
76155093,4188,0,-0.75820726,2.1977468,-10.218135,-0.0057100686,0.00017518259,-0.036345955,48.5,78.0,0.0023928226,1114658,1878,5568,-620,-7
76256972,4222,0,-0.9872118,0.09669598,-9.170028,0.009564883,-0.013866493,-0.02562044,48.25,78.0,0.0023928226,1114658,1891,6424,-5407,9417
76356692,5213,0,0.24878027,-0.851692,-9.798767,-0.062021207,-0.0048289197,-0.03262321,48.375,78.0,0.0023928226,1114658,1112,-3155,-4263,2049
76461760,4267,0,-2.6611147,-0.07573686,-10.135819,-0.0166973,0.017693032,-0.035382006,48.375,78.0,0.0023928226,1114658,-18,5853,59,10637
76563543,4199,0,-1.6265289,1.5058916,-8.904192,-0.025395649,0.026604183,-0.016386863,48.375,78.0,0.0023928226,1114658,-915,3782,-3278,8193
76664343,4174,0,0.71630293,1.5612323,-8.949372,-0.04890568,0.01568301,-0.03206826,48.375,78.0,0.0023928226,1114658,-938,-4206,-6360,10628
76766195,4201,0,1.5879196,1.3419818,-10.385136,-0.04011764,0.0012127211,-0.057198048,48.375,78.0,0.0023928226,1114658,672,-5314,-3114,-7
76868070,5277,0,2.1435282,-0.4956757,-11.470322,-0.004895457,-0.009658559,-0.04757852,48.5,78.0,0.0023928226,1114658,1170,-5141,1079,8193
76968867,4225,0,0.96265006,-1.7262661,-10.014402,0.02785393,-0.005570561,-0.042290423,48.625,78.0,0.0023928226,1114658,131,-1538,-1178,9409
77072803,5245,0,0.080599844,-0.26355448,-10.184556,0.040287025,0.013821161,-0.08199878,48.625,78.0,0.0023928226,1114658,-328,1022,-2068,-7
77175693,4158,0,0.5760007,2.0763898,-9.022673,0.04776021,-0.00021014104,-0.033547577,48.375,78.0,0.0023928226,1114658,550,-62,-2788,10635
77275443,4176,0,-0.5582974,1.9215734,-8.715283,0.015424958,0.00737096,-0.038131177,48.375,78.0,0.0023928226,1114658,405,5182,-8958,10640
77376243,4173,0,-1.1464789,0.4305585,-9.617774,-0.020425465,-0.0100186765,-0.06443962,48.5,78.0,0.0023928226,1114658,-327,4583,-4001,8193
77478093,4200,0,-0.25819895,-0.84766746,-10.923014,-0.037004143,-0.016200237,-0.044655923,48.375,78.0,0.0023928226,1114658,1878,685,-54,9428
77578893,4200,0,0.7567574,-1.5292989,-10.045237,-0.054112975,0.009448976,-0.0014181817,48.5,78.0,0.0023928226,1114658,358,-4786,-3992,8193
77680742,4199,0,0.3983964,-0.6262199,-8.98062,-0.042471897,0.023746235,-0.026780356,48.375,78.0,0.0023928226,1114658,-2516,-4204,-2350,-7
77782593,5251,0,1.2431848,0.86525065,-9.693762,0.009732611,0.022197135,-0.06748661,48.5,78.0,0.0023928226,1114658,-2683,-4035,-2733,2048
77883393,4201,0,1.7811265,2.0478435,-10.497208,0.025335085,0.0032787782,-0.06144594,48.5,78.0,0.0023928226,1114658,77,-4039,181,10648
77985247,4204,0,1.068745,0.8570031,-10.646888,0.046760395,-0.010808753,-0.05793323,48.5,78.0,0.0023928226,1114658,2051,590,-2074,-7
78090249,4200,0,1.930774,-1.9303124,-9.910492,-0.011654011,-0.008596667,-0.05560156,48.5,78.0,0.0023928226,1114658,-1197,-5638,-4547,10654
78192121,5278,0,0.9253783,-1.1775242,-10.212006,-0.00031827876,0.0053844955,-0.07455614,48.375,78.0,0.0023928226,1114658,-2091,-4636,-3481,10659
78292966,4274,0,0.7533243,0.15999468,-10.260212,0.043723375,-0.0057638753,-0.046603467,48.375,78.0,0.0023928226,1114658,-464,-792,789,10651
78396867,4224,0,0.97403455,2.1863024,-9.363702,0.026604688,-0.016107904,-0.014478618,48.5,78.0,0.0023928226,1114658,935,-1508,-3278,9416
78497731,4288,0,0.7035755,1.6375413,-9.102463,0.033252265,-0.013188998,-0.04274283,48.375,78.0,0.0023928226,1114658,3581,1404,-7021,9419
78599492,4147,0,0.14170232,-0.33179975,-9.865074,0.03682636,-0.013055705,-0.064099565,48.375,78.0,0.0023928226,1114658,2946,5080,-5912,-6
78698193,4183,0,0.039167218,-1.6995035,-9.332852,-0.04231807,0.008042729,-0.051967613,48.5,78.0,0.0023928226,1114658,-1548,-1633,-6445,-6
