timestamp,integral_dt,error_count,x,y,z,x_integral,y_integral,z_integral,temperature,range_m_s2,scaling,device_id,x_raw,y_raw,z_raw,temperature_raw
35564234,4011,0,-0.24898201,0.58304113,-10.043608,-0.0025150992,0.0036982587,-0.038969908,63.243767,156.9064,0.0047884034,1442850,128,-92,-2141,10196
35664223,4000,0,-0.16859192,0.37304232,-10.023884,0.0064344546,-0.0055248467,-0.04305375,63.279778,156.9064,0.0047884034,1442850,-172,385,-1945,10209
35764229,4006,0,0.39005283,-1.2496896,-10.073505,0.0015362846,0.0028821342,-0.040206153,63.232685,156.9064,0.0047884034,1442850,18,-366,-1954,10192
35868228,4005,0,-0.25273994,-0.94543093,-10.518241,0.00082900346,-0.00964693,-0.040048983,63.25485,156.9064,0.0047884034,1442850,96,270,-1555,10200
35968260,4037,0,0.757318,2.4140298,-10.3369875,-0.005961413,-0.0119914245,-0.0457741,63.249306,156.9064,0.0047884034,1442850,467,1269,-2514,10198
36068223,4000,0,1.0114433,3.3852336,-9.9377,0.011161482,0.013492416,-0.051875874,63.268696,156.9064,0.0047884034,1442850,130,42,-2603,10205
36172223,4000,0,1.0170994,3.0427105,-10.112329,-0.008203146,-0.0026709842,-0.040968098,63.249306,156.9064,0.0047884034,1442850,626,1005,-2556,10198
36272223,4000,0,-0.47855347,0.100035466,-9.9809885,0.000117101226,-0.012923891,-0.04308782,63.240997,156.9064,0.0047884034,1442850,148,896,-2534,10195
36372264,4039,0,0.73808867,0.591554,-9.801208,0.0014755997,0.0097419135,-0.033461034,63.263157,156.9064,0.0047884034,1442850,81,-516,-2004,10203
36476231,4009,0,0.14316754,0.7525846,-9.783629,0.017390016,0.0070802625,-0.040027134,63.27424,156.9064,0.0047884034,1442850,-1190,-125,-2354,10207
36576229,4006,0,-1.975287,-1.5302569,-9.739328,-0.0023290697,0.006419859,-0.03368225,63.249306,156.9064,0.0047884034,1442850,-572,-1423,-1820,10198
36680272,4049,0,-1.3271573,-1.6242276,-10.156702,-0.005011193,0.005739324,-0.046388593,63.282547,156.9064,0.0047884034,1442850,-198,-816,-1411,10210
36784223,4000,0,-1.0846844,-1.3640994,-9.983426,0.011417969,0.0002671196,-0.035857037,63.27147,156.9064,0.0047884034,1442850,-678,-1011,-2035,10206
36884223,4000,0,-1.2652038,-0.38267326,-10.080523,-0.0051964214,-0.008947559,-0.03535768,63.25485,156.9064,0.0047884034,1442850,-87,230,-1555,10200
36988223,3999,0,0.1436182,0.45865566,-9.915909,-0.01347979,-0.0127112605,-0.036977943,63.260387,156.9064,0.0047884034,1442850,358,561,-1894,10202
37088223,3994,0,0.049890645,-0.019229384,-9.8727045,0.019304724,0.012501512,-0.04293758,63.277008,156.9064,0.0047884034,1442850,-896,-593,-1950,10208
37188223,3984,0,0.08084979,1.035311,-9.810627,-0.006026977,-0.01149773,-0.039307628,63.25485,156.9064,0.0047884034,1442850,34,726,-2203,10200
37292223,4000,0,-0.014906793,0.08492064,-9.787724,0.015792817,0.013847421,-0.037319053,63.25485,156.9064,0.0047884034,1442850,-445,-585,-2049,10200
37392229,3967,0,-0.9762246,0.020867953,-10.043079,-0.024838187,-0.008366339,-0.043817747,63.257618,156.9064,0.0047884034,1442850,1042,534,-2197,10201
37492223,4000,0,1.1542497,0.8744847,-9.866307,-0.016097225,-0.0062232614,-0.04806883,63.277008,156.9064,0.0047884034,1442850,798,637,-2062,10208
37596259,4036,0,-1.5362391,-0.75150126,-9.726541,-0.002279242,-0.0018693915,-0.032353282,63.268696,156.9064,0.0047884034,1442850,-221,-739,-2721,10205
37696223,4000,0,0.2834792,2.348835,-10.347021,-0.016321814,-0.025319355,-0.03242346,63.28809,156.9064,0.0047884034,1442850,1121,1955,-1867,10212
37800223,4000,0,-0.26885462,0.108291715,-9.715357,0.033587486,-0.011501665,-0.0322141,63.28809,156.9064,0.0047884034,1442850,-1133,33,-2340,10212
37900223,4000,0,1.7029102,0.5721339,-9.642965,-0.025065232,0.011953454,-0.037362285,63.27424,156.9064,0.0047884034,1442850,2681,-54,-1897,10207
38000239,4016,0,-0.3378141,-0.3360804,-9.815908,0.04853829,0.007350323,-0.0491997,63.265926,156.9064,0.0047884034,1442850,-2265,-332,-2433,10204
38104223,4000,0,2.030993,0.2617314,-11.378761,-0.0018960615,0.024289047,-0.050727237,63.268696,156.9064,0.0047884034,1442850,2724,-813,-1232,10205
38204223,4000,0,-1.4193734,1.0542959,-12.075654,-0.059682954,0.009942869,-0.036607243,63.285316,156.9064,0.0047884034,1442850,612,230,-492,10211
38304223,4000,0,0.8393441,0.34740362,-11.080371,0.057042304,0.008554285,-0.04805752,63.263157,156.9064,0.0047884034,1442850,121,-587,-1435,10203
38408223,3958,0,0.17202505,-0.7150857,-10.2016735,-0.050555967,0.010598643,-0.05520008,63.27147,156.9064,0.0047884034,1442850,1435,-802,-2499,10206
38508268,4039,0,-1.0163096,0.75852287,-10.433818,0.015302646,0.008851716,-0.066652395,63.265926,156.9064,0.0047884034,1442850,-2710,-638,-575,10204
38612225,4002,0,-1.0117306,1.2340319,-10.042776,0.028620858,0.005263382,-0.041390996,63.268696,156.9064,0.0047884034,1442850,-2550,3,-2935,10205
38712229,4006,0,-1.0246971,0.9644846,-10.273295,-0.046417676,0.008830492,-0.06668405,63.2964,156.9064,0.0047884034,1442850,550,-726,-2028,10215
38812229,3999,0,-0.80264527,0.041143287,-9.188157,0.018715689,0.005121864,-0.035169326,63.282547,156.9064,0.0047884034,1442850,-1322,-265,-3868,10210
38916223,4000,0,0.07055444,-0.025634302,-10.913137,0.028520808,0.0077930274,-0.084114134,63.27424,156.9064,0.0047884034,1442850,372,-594,-2324,10207
39016223,3990,0,0.30296716,-0.8916652,-12.424461,0.0076926155,-0.0027982262,-0.0709437,63.277008,156.9064,0.0047884034,1442850,1270,-809,-2466,10208
39116225,4002,0,0.56972003,-0.5639701,-11.045537,-0.023181485,0.008008558,-0.034216207,63.29086,156.9064,0.0047884034,1442850,1019,-205,-2335,10213
39220243,4020,0,0.5229059,0.6280867,-10.685167,-0.002640714,0.017799672,-0.04565673,63.282547,156.9064,0.0047884034,1442850,2434,-1137,-2441,10210
39320223,4000,0,0.7092528,0.5482334,-10.209345,-0.013398653,-0.011029077,-0.038849574,63.243767,156.9064,0.0047884034,1442850,1939,-149,-3975,10196
39424223,3994,0,0.034272354,-0.8856049,-12.49988,0.01522895,-0.010240104,-0.075542286,63.28809,156.9064,0.0047884034,1442850,4,-30,-292,10212
39528222,3999,0,-0.4656957,-0.028894695,-11.662223,-0.0067465967,0.0010751707,-0.06956947,63.238228,156.9064,0.0047884034,1442850,-331,33,-1394,10194
39628223,4000,0,0.52881795,1.1468123,-10.954894,0.0059503634,0.004156459,-0.049392384,63.285316,156.9064,0.0047884034,1442850,1934,-428,-2465,10211
39732223,3982,0,1.0356869,1.7000109,-11.766433,0.0135326125,-0.014027199,-0.08702862,63.25485,156.9064,0.0047884034,1442850,1304,939,-2781,10200
39832223,4000,0,1.2501136,-0.09964521,-11.3758135,-0.004284539,-0.0028094363,-0.05838692,63.243767,156.9064,0.0047884034,1442850,1680,255,-2432,10196
39932222,3999,0,-0.09490844,-1.1099545,-13.049371,0.014596466,-0.004971613,-0.07123393,63.246536,156.9064,0.0047884034,1442850,-973,488,-54,10197
40036223,4000,0,-1.0628573,0.16550468,-9.442231,-0.036719106,0.019414965,-0.059971627,63.235455,156.9064,0.0047884034,1442850,27,-1570,-3250,10193
40136223,4000,0,0.44255298,0.77138627,-8.643511,-0.034358412,0.01017599,-0.055088162,63.252075,156.9064,0.0047884034,1442850,1867,-974,-2577,10199
40236223,4000,0,1.5859401,1.4587098,-9.140072,0.026840849,0.0053651826,-0.060895793,63.224377,156.9064,0.0047884034,1442850,1527,-195,-2736,10189
40340230,4007,0,1.4766779,-0.35666794,-10.263733,0.033252776,0.002871363,-0.012044271,63.232685,156.9064,0.0047884034,1442850,616,459,51,10192
40440229,3986,0,-1.7910315,-0.5988679,-8.8381815,-0.010822301,0.002600347,-0.035539452,63.204987,156.9064,0.0047884034,1442850,-2854,-481,-2306,10182
40544274,4051,0,-1.6722426,1.8326548,-8.822767,0.0034799436,0.008200572,-0.051528875,63.210526,156.9064,0.0047884034,1442850,-2720,-560,-2322,10184
40644223,4000,0,0.2911959,0.7659573,-9.665558,-0.030467259,-0.005468453,-0.05889483,63.229916,156.9064,0.0047884034,1442850,1594,129,-2379,10191
40744223,3998,0,1.1201845,-0.045573544,-9.925223,0.025107753,-0.005655582,-0.076556884,63.193905,156.9064,0.0047884034,1442850,607,575,-2269,10178
40848223,4000,0,0.90402037,-0.9678039,-9.390747,0.020226963,0.0042948565,-0.02703857,63.235455,156.9064,0.0047884034,1442850,1326,-70,-2043,10193
40948273,4044,0,-1.6255553,1.0943388,-8.3960285,0.004312302,0.008936303,-0.002657462,63.243767,156.9064,0.0047884034,1442850,-1986,-417,-2349,10196
41048227,4004,0,1.0359508,1.6765196,-8.861937,-0.01649518,-0.00071762863,-0.025220351,63.229916,156.9064,0.0047884034,1442850,2210,-268,-695,10191
41149827,3998,0,0.3774277,0.8739004,-9.202678,0.037104685,-0.016297914,-0.06600231,63.224377,156.9064,0.0047884034,1442850,-573,984,-4581,10189
41253823,4000,0,0.39718077,-1.395854,-10.4065,0.04927525,-0.010486014,-0.022405524,63.235455,156.9064,0.0047884034,1442850,-975,848,-1225,10193
41353829,4006,0,-1.6223291,-0.9322904,-9.269833,-0.020379748,0.0062735984,-0.013475887,63.193905,156.9064,0.0047884034,1442850,-2042,-365,-1288,10178
41457823,4000,0,-2.0621989,2.0795498,-9.532145,-0.0075777774,0.011397506,-0.05067299,63.210526,156.9064,0.0047884034,1442850,-2328,-284,-1151,10184
41561830,4007,0,-1.124679,0.2702249,-8.939165,0.016673002,-0.011126274,-0.027227636,63.235455,156.9064,0.0047884034,1442850,-2347,627,-3022,10193
41661830,4008,0,0.26549774,-1.4786489,-10.292575,-0.0349891,-0.018691443,-0.022197966,63.240997,156.9064,0.0047884034,1442850,662,807,-2021,10195
41765823,4000,0,-1.4873478,-0.772794,-10.232379,0.01602231,-0.00027372886,-0.024907883,63.174515,156.9064,0.0047884034,1442850,-1588,-460,-1625,10171
41865823,4000,0,0.39928806,0.9058426,-10.356092,0.014477069,0.009444924,-0.07863328,63.229916,156.9064,0.0047884034,1442850,338,-389,-1485,10191
41965835,4012,0,0.7132976,1.813464,-9.42982,0.0047900523,0.002903245,-0.021782864,63.240997,156.9064,0.0047884034,1442850,1580,1,-1693,10195
42069829,4006,0,-0.17636496,0.27881405,-9.809234,0.02373067,-0.010761161,-0.020647826,63.210526,156.9064,0.0047884034,1442850,-1798,969,-2387,10184
42169823,3982,0,0.5004942,-1.1065398,-11.180846,0.004703421,0.00027758256,-0.07260704,63.240997,156.9064,0.0047884034,1442850,324,-66,-2007,10195
42269823,4001,0,-0.1800558,-0.5077065,-10.476592,-0.0031243255,0.014327444,0.0036781929,63.235455,156.9064,0.0047884034,1442850,1008,-362,-1071,10193
42373823,4000,0,0.15954022,1.7128838,-10.53731,0.021358738,0.0078053307,-0.034680866,63.240997,156.9064,0.0047884034,1442850,-30,-257,378,10195
42473823,4000,0,0.31291842,1.1927301,-10.367932,-0.024250306,-0.005412684,-0.023716863,63.207756,156.9064,0.0047884034,1442850,2311,552,-280,10183
42577823,3994,0,-0.5127729,-1.2022531,-8.925108,-0.005213718,-0.013726716,-0.044751633,63.210526,156.9064,0.0047884034,1442850,-960,78,-3598,10184
42677860,4031,0,-1.0465744,-1.0372984,-9.745382,-0.013843836,-0.0026153154,-0.0029788557,63.25485,156.9064,0.0047884034,1442850,-1037,645,-1509,10200
42777823,4000,0,0.23277578,0.30963498,-9.673723,-0.0011166912,0.021644996,-0.023155568,63.243767,156.9064,0.0047884034,1442850,1298,-564,-908,10196
42881829,4006,0,-0.69950634,1.4683193,-9.148024,-0.02029988,0.0043059667,-0.035992924,63.249306,156.9064,0.0047884034,1442850,-879,158,-1805,10198
42985823,3994,0,1.0952901,-0.9527046,-10.410803,0.03338604,-0.005070197,-0.04707863,63.265926,156.9064,0.0047884034,1442850,286,-529,-1154,10204
43085823,4000,0,0.51134264,-1.0734445,-10.154781,0.012105625,0.00018723909,-0.04782441,63.265926,156.9064,0.0047884034,1442850,1568,21,-2249,10204
43189829,4006,0,-0.19116043,1.1743156,-8.3899145,-0.031198485,0.0049145776,-0.026926653,63.279778,156.9064,0.0047884034,1442850,304,-973,-1953,10209
43289860,4037,0,0.45148677,1.2745916,-9.570768,-0.031979866,0.0025072221,-0.013446561,63.249306,156.9064,0.0047884034,1442850,1940,795,-975,10198
43389823,4000,0,1.0685372,0.75232863,-9.95357,0.03236627,0.004584177,-0.057280492,63.265926,156.9064,0.0047884034,1442850,-280,698,-1723,10204
43493823,4000,0,1.054082,-1.2775491,-10.497947,0.019847874,-0.0025950817,-0.019506378,63.238228,156.9064,0.0047884034,1442850,1129,-18,-599,10194
43593823,4000,0,-0.06603284,-0.4448217,-9.189936,0.014699193,0.010420252,-0.03938023,63.277008,156.9064,0.0047884034,1442850,120,-273,-2498,10208
43697822,3987,0,0.50047934,1.1201259,-9.170018,0.02251943,0.0060907546,-0.057244986,63.240997,156.9064,0.0047884034,1442850,487,-619,-2655,10195
43801823,4000,0,1.3898197,-0.10766624,-11.263399,0.012294125,0.004008317,-0.033269517,63.304707,156.9064,0.0047884034,1442850,1400,861,-5,10218
43901823,4000,0,-0.73302853,-1.6277065,-10.334002,0.022609837,0.0007477243,-0.04246656,63.257618,156.9064,0.0047884034,1442850,-1115,-433,-970,10201
44005823,3994,0,-0.71437925,-0.57010156,-9.172247,0.034326326,0.0029955008,-0.06082287,63.268696,156.9064,0.0047884034,1442850,-2232,-854,-3218,10205
44105823,4000,0,0.48644954,0.81036586,-8.318266,-0.024154888,-0.0018249126,-0.005006952,63.27424,156.9064,0.0047884034,1442850,1819,11,-2415,10207
44205823,4001,0,0.49993718,1.4307348,-8.99649,-0.006866756,0.0020583025,-0.01323409,63.29363,156.9064,0.0047884034,1442850,529,340,-2867,10214
44309823,3999,0,-0.91783386,-0.8176856,-9.270846,-0.005812091,-0.003430134,-0.05949928,63.277008,156.9064,0.0047884034,1442850,-1583,-262,-3823,10208
44409823,4000,0,-0.7992811,-0.65438145,-9.973777,-0.015682187,0.019958854,-0.06418674,63.301937,156.9064,0.0047884034,1442850,-1217,-263,-2850,10217
44509829,4000,0,-0.28978667,0.048309382,-8.843618,-0.043856166,0.013666889,-0.04782207,63.28809,156.9064,0.0047884034,1442850,1184,-1379,-3630,10212
44613823,3961,0,-0.4578866,0.9219417,-9.316389,0.02828375,-0.0071399105,-0.06014156,63.301937,156.9064,0.0047884034,1442850,-1702,499,-4173,10217
44713823,3973,0,0.5341303,-0.79318064,-11.443223,0.021278434,-0.0116619235,-0.08816682,63.238228,156.9064,0.0047884034,1442850,-382,-435,-1549,10194
44817845,4022,0,-0.25450996,-1.0887554,-9.439806,-0.013110552,-0.0025397523,-0.036544897,63.30748,156.9064,0.0047884034,1442850,-276,280,-3707,10219
44921823,4000,0,-0.05637648,0.34537452,-10.247614,-0.0030344268,0.016914204,-0.044413645,63.279778,156.9064,0.0047884034,1442850,375,-1016,-439,10209
45021823,4000,0,-0.32182783,1.5384194,-10.174906,0.0011864933,0.014586481,-0.07330956,63.282547,156.9064,0.0047884034,1442850,-514,-699,-1985,10210
45125829,4006,0,0.050463483,-0.18632394,-10.29034,0.007313459,-0.009892138,-0.019964783,63.265926,156.9064,0.0047884034,1442850,-524,598,-1949,10204
45225823,4000,0,0.42004037,-1.1612698,-10.888989,-0.0014687929,-0.0020184624,-0.024159677,63.27424,156.9064,0.0047884034,1442850,1004,-457,-993,10207
45325823,3984,0,-0.3740458,-0.4565377,-10.832667,-0.009944438,0.0014894599,-0.03694356,63.263157,156.9064,0.0047884034,1442850,-807,418,-1403,10203
45429828,4005,0,-0.68093395,1.2351552,-10.277944,-0.010390309,0.021966832,-0.037419815,63.285316,156.9064,0.0047884034,1442850,-456,-304,-1417,10211
45529823,4000,0,0.44581065,1.1652752,-9.518274,0.003033879,-0.009568219,-0.07808479,63.25485,156.9064,0.0047884034,1442850,563,250,-4902,10200
45629823,4000,0,-0.39622855,0.36235538,-9.411988,-0.0016621265,0.0033125314,-0.050543055,63.257618,156.9064,0.0047884034,1442850,-1012,349,-5140,10201
46749823,4000,0,-0.33839145,0.26753807,-9.002034,-0.0386966,0.018492144,-0.060478278,63.27424,156.9064,0.0047884034,1442850,1298,-1555,-2839,10207
46853823,3961,0,-0.8128867,1.9014169,-10.150601,0.024158843,0.006707274,-0.04438483,63.277008,156.9064,0.0047884034,1442850,-3251,684,110,10208
46953823,3999,0,-1.4777234,0.43711767,-10.083155,0.01775425,-0.0010633369,-0.042485837,63.25485,156.9064,0.0047884034,1442850,-3583,437,116,10200
47057822,3999,0,-2.8286436,-0.46797746,-8.979768,-0.034348145,0.0117044365,-0.037410818,63.25485,156.9064,0.0047884034,1442850,-2544,-503,-378,10200
47157823,4000,0,0.14309831,0.07553532,-8.12363,0.053729866,-0.0025735823,-0.0073970603,63.25485,156.9064,0.0047884034,1442850,-1026,806,-456,10200
47257823,3981,0,1.9334389,1.6868504,-9.210777,-0.0144781675,0.015932934,-0.027996963,63.304707,156.9064,0.0047884034,1442850,3083,574,87,10218
47361829,4006,0,0.49139878,-0.36184356,-9.714369,-0.03684526,0.005616304,-0.0622299,63.25485,156.9064,0.0047884034,1442850,1309,-499,-1494,10200
47461834,4011,0,0.48796612,-1.4083637,-9.306349,-0.03360232,-0.00592769,-0.05608908,63.277008,156.9064,0.0047884034,1442850,639,-516,-3202,10208
47561822,3993,0,-0.4917075,-1.1328931,-9.336156,-0.028750142,0.007720962,-0.044067264,63.28809,156.9064,0.0047884034,1442850,671,-1025,-3834,10212
47665823,4000,0,-1.0102218,1.637248,-10.422526,0.008785411,0.018504106,-0.055768624,63.2964,156.9064,0.0047884034,1442850,-1508,201,-731,10215
47765829,4006,0,-0.3948909,2.0963323,-11.157093,0.008302604,0.00925268,-0.023801891,63.27424,156.9064,0.0047884034,1442850,-420,569,1785,10207
47869823,3961,0,-0.5608728,-0.5533,-10.136394,-0.018652825,-0.014812777,-0.085791476,63.31302,156.9064,0.0047884034,1442850,-1147,-91,-3785,10221
47969834,4011,0,0.1962099,-1.5870618,-10.352076,0.018033264,-0.01290097,-0.03702075,63.263157,156.9064,0.0047884034,1442850,595,-251,-2252,10203
48069823,4000,0,-1.1944835,-1.0171721,-9.955215,-0.0077191717,0.0003757386,-0.056719124,63.2964,156.9064,0.0047884034,1442850,-1705,-1069,-3325,10215
48173823,4000,0,0.1120734,2.1628308,-9.252401,-0.010329527,0.0041336818,0.008096967,63.279778,156.9064,0.0047884034,1442850,998,139,-1697,10209
48273823,3975,0,-0.49913716,0.8326236,-10.040383,-0.008043963,-0.005251639,-0.060960177,63.285316,156.9064,0.0047884034,1442850,-617,383,-2440,10211
48373823,3955,0,0.4413717,0.023466485,-10.031862,-0.0014068129,-0.0029877073,-0.049820576,63.28809,156.9064,0.0047884034,1442850,540,-87,-4438,10212
48477823,3988,0,0.91817623,-2.315556,-10.345603,-0.0003477931,-0.010321999,-0.042149786,63.304707,156.9064,0.0047884034,1442850,2003,-908,-1157,10218
48577823,4000,0,1.4124217,-1.1067102,-10.573268,0.02224002,0.006239881,-0.07052113,63.304707,156.9064,0.0047884034,1442850,2476,-774,-1934,10218
48681824,4001,0,0.5563138,2.2669709,-10.400523,0.018882189,0.008311416,-0.04794887,63.27147,156.9064,0.0047884034,1442850,-115,583,-1377,10206
48781823,4000,0,1.0272197,1.7350463,-10.5437155,0.0135416025,0.009080391,-0.080316946,63.31579,156.9064,0.0047884034,1442850,1195,-57,-1025,10222
48881847,4024,0,1.9381542,0.95708245,-9.179446,-0.009885288,-0.0033430017,-0.03746603,63.318558,156.9064,0.0047884034,1442850,2955,-110,-2433,10223
48985823,4000,0,-0.10889145,-1.3622521,-10.041419,-0.010319453,-0.0047304374,0.0021356824,63.285316,156.9064,0.0047884034,1442850,-724,537,-2214,10211
49085823,4000,0,-0.77501184,-2.4135182,-10.266431,0.03587406,0.001968422,-0.05921927,63.34072,156.9064,0.0047884034,1442850,-1479,-720,-3666,10231
49185835,4012,0,0.20938334,-1.8768468,-11.190803,0.0023030047,0.007927712,-0.05581525,63.31579,156.9064,0.0047884034,1442850,1805,348,-1042,10222
49289823,3960,0,0.5232944,0.44384152,-11.79802,0.010506389,0.008046238,-0.04597209,63.31025,156.9064,0.0047884034,1442850,733,-550,711,10220
49389823,4000,0,1.0833384,1.4610915,-10.503308,0.036157176,-0.0051824534,-0.041971363,63.301937,156.9064,0.0047884034,1442850,1579,323,-2680,10217
49493823,4000,0,-1.3787671,0.23627576,-10.824874,0.028749764,-0.024856951,-0.0031100356,63.299168,156.9064,0.0047884034,1442850,-1074,1035,-1564,10216
49593830,4007,0,-0.5699245,-0.5660327,-11.584582,-0.010350493,0.0048904987,-0.111238725,63.301937,156.9064,0.0047884034,1442850,413,818,-2067,10217
49693823,3998,0,0.02606323,-0.84105915,-9.90916,-0.008541889,0.0018762075,-0.031253196,63.304707,156.9064,0.0047884034,1442850,124,2012,-3771,10218
49797833,4010,0,0.5675616,-0.0027774188,-10.289666,-0.018434705,0.013136158,-0.048775718,63.31579,156.9064,0.0047884034,1442850,1654,-644,-2765,10222
49897855,4032,0,1.2748965,-0.07644848,-9.745867,0.016409993,2.8536655e-05,-0.013953345,63.301937,156.9064,0.0047884034,1442850,2964,-762,-740,10217
49999457,4034,0,0.025506997,-0.22644417,-10.836701,-0.00790903,-0.028655719,-0.020335913,63.34626,156.9064,0.0047884034,1442850,1497,1270,539,10233
50099429,4006,0,-0.43959647,-1.3028214,-10.818855,0.008909163,-0.014114175,0.01850978,63.3241,156.9064,0.0047884034,1442850,-902,-417,88,10225
50203423,4000,0,0.82087344,-0.36827955,-7.697484,0.018999089,0.018658107,-0.07217443,63.321327,156.9064,0.0047884034,1442850,-19,-405,-7074,10224
50307429,4003,0,-1.2912694,0.2811765,-10.065161,-0.013932356,-0.0028876162,-0.034004975,63.318558,156.9064,0.0047884034,1442850,-1268,-1440,-1317,10223
50407430,4007,0,-0.20975973,-0.4936716,-10.077116,-0.0044932007,-0.009578587,-0.04440716,63.318558,156.9064,0.0047884034,1442850,500,-911,-539,10223
50511423,4000,0,0.53040063,-0.6909831,-10.433515,-0.010626601,0.0048122085,-0.018348249,63.31579,156.9064,0.0047884034,1442850,1335,-147,-481,10222
50611460,4030,0,0.07634614,-0.17953901,-10.701857,0.011650862,-0.0065548574,-0.012505914,63.34626,156.9064,0.0047884034,1442850,-188,-173,504,10233
50715423,4000,0,-0.27880657,1.4186752,-9.460629,-0.013268603,0.009504747,-0.036641058,63.34903,156.9064,0.0047884034,1442850,109,-449,-533,10234
50819423,4000,0,-0.6042177,-1.2182149,-9.061765,0.0064695417,-0.0006338803,-0.04295723,63.36011,156.9064,0.0047884034,1442850,-1824,283,-3813,10238
50923435,4012,0,-1.9252687,-0.9507218,-11.191435,0.025756627,0.006221502,-0.023088636,63.3241,156.9064,0.0047884034,1442850,-3004,-1,-1336,10225
51023426,4003,0,-1.609341,0.67530185,-9.096969,-0.0015178267,0.006304742,-0.05025313,63.32687,156.9064,0.0047884034,1442850,-2256,-519,-3962,10226
51127423,4000,0,-0.44072592,1.8299394,-8.263783,0.021127451,-0.0025550625,-0.039310746,63.32964,156.9064,0.0047884034,1442850,-1705,481,-4997,10227
51227423,4000,0,-0.74600846,-0.11256335,-10.450297,0.0055227745,-0.00982241,-0.012303536,63.32687,156.9064,0.0047884034,1442850,-1921,379,-301,10226
51331449,4026,0,-0.6365778,-1.8334775,-10.510827,-0.00052875606,-0.005418162,-0.046185777,63.321327,156.9064,0.0047884034,1442850,-1372,-365,-1056,10224
51435423,4000,0,-0.34810868,0.8826107,-9.13192,0.009544287,0.005007549,-0.082591504,63.337948,156.9064,0.0047884034,1442850,-1120,-996,-3295,10230
51535423,3993,0,-0.1430372,1.4488754,-9.364803,-0.00041240873,0.000562183,0.0027972818,63.337948,156.9064,0.0047884034,1442850,-381,477,-350,10230
51639424,4001,0,0.009586332,-0.8119222,-9.901454,0.029110152,-0.004015265,-0.07781572,63.32964,156.9064,0.0047884034,1442850,-1774,-125,-3028,10227
51739423,3983,0,0.011494247,-1.6508636,-11.141452,0.012190764,0.0037679216,-0.051439553,63.3518,156.9064,0.0047884034,1442850,-165,-214,-736,10235
51839423,4000,0,-0.7713406,-1.0425819,-10.785042,0.018374957,0.0066377493,-0.022500817,63.32687,156.9064,0.0047884034,1442850,-817,-976,-927,10226
51943423,4000,0,-0.5113677,1.3558612,-8.890296,-0.013190931,0.0083892,-0.06522642,63.32687,156.9064,0.0047884034,1442850,-311,-195,-4093,10226
52043423,4000,0,-0.31468037,1.0102822,-10.410093,0.02560739,-0.0045392797,-0.062541045,63.3241,156.9064,0.0047884034,1442850,-969,-74,-600,10225
52143423,3966,0,1.4462643,-1.0496706,-9.0367985,-0.007932528,-0.0046688807,-0.04692952,63.34349,156.9064,0.0047884034,1442850,2216,119,-5485,10232
52247423,3994,0,0.111405775,-1.1207522,-10.774382,-0.016755067,0.026816502,-0.031846292,63.34903,156.9064,0.0047884034,1442850,1263,-1051,-777,10234
52347428,4005,0,-0.28690627,-0.03145133,-10.743018,0.012536283,0.0041207145,-0.06436712,63.34349,156.9064,0.0047884034,1442850,-175,-1145,-1221,10232
52451423,4000,0,0.62502193,1.1292099,-10.567693,-0.005321124,-0.0011739788,-0.037186116,63.35734,156.9064,0.0047884034,1442850,1712,-5,-392,10237
52555423,3994,0,0.38774753,-0.88731885,-10.0207405,-0.010548402,0.012335742,-0.040170867,63.36288,156.9064,0.0047884034,1442850,250,-853,-2704,10239
52655423,4000,0,0.7850134,-1.278605,-10.444522,0.002437767,-0.031837467,-0.016188014,63.36565,156.9064,0.0047884034,1442850,1315,526,-542,10240
52759429,4006,0,0.16359243,0.53576016,-9.588909,0.006268765,-0.0008530796,0.018254625,63.35457,156.9064,0.0047884034,1442850,419,-447,-459,10236
52859444,4011,0,-0.9868875,0.012773926,-9.435619,-0.0020584494,-0.0076536834,-0.03251979,63.321327,156.9064,0.0047884034,1442850,175,-1111,-1841,10224
52963423,3993,0,0.067740396,0.36274603,-9.1502695,-0.033350147,-0.019312095,-0.005621829,63.37673,156.9064,0.0047884034,1442850,1642,428,-3227,10244
53067455,4032,0,0.14606309,-1.2497061,-10.058362,-0.037753247,0.01638136,-0.04650846,63.34903,156.9064,0.0047884034,1442850,1488,-673,-2264,10234
53171423,4000,0,-0.36460778,0.19400202,-7.5772343,-0.031787727,0.024840223,-0.0354901,63.37396,156.9064,0.0047884034,1442850,832,-969,-5304,10243
53271423,4000,0,0.05841119,1.5321969,-9.724933,0.007977825,0.010041534,-0.01732886,63.36011,156.9064,0.0047884034,1442850,-38,580,-2020,10238
53375432,4009,0,-0.7096546,-0.73032963,-8.7648325,-0.008806605,0.010115385,-0.04947439,63.34626,156.9064,0.0047884034,1442850,-396,-156,-4107,10233
53475423,3963,0,0.33547103,-0.9428571,-8.7073145,0.0013308767,0.01232578,-0.02483805,63.36011,156.9064,0.0047884034,1442850,873,-54,-5112,10238
53575453,4030,0,-0.17795894,-0.49271238,-10.72045,0.006260577,0.002791237,-0.038860172,63.33241,156.9064,0.0047884034,1442850,-357,-1319,1300,10228
53679423,4000,0,-0.257172,0.940719,-7.983178,0.0061782803,0.0019757526,-0.043485522,63.34626,156.9064,0.0047884034,1442850,-860,-634,-5230,10233
53779429,4006,0,-0.4184864,1.0398979,-10.185963,-0.009773568,0.0048332526,-0.03420607,63.3518,156.9064,0.0047884034,1442850,-452,-340,-1876,10235
53879423,3975,0,0.6237054,-1.0372956,-9.040655,-0.0019827797,0.0038151704,0.004628299,63.36842,156.9064,0.0047884034,1442850,322,-543,-2346,10241
53983423,4000,0,0.11498794,-0.58980614,-9.908375,0.013046095,0.0026696974,-0.026563045,63.36565,156.9064,0.0047884034,1442850,-143,-201,-2054,10240
54083423,4000,0,-1.1695799,0.7709593,-9.290523,0.016544262,0.005356956,-0.061620973,63.36011,156.9064,0.0047884034,1442850,-1860,1500,-3833,10238
54187423,4000,0,-0.4086355,1.3717686,-9.891727,0.0035696053,-0.0043646814,0.025764903,63.36842,156.9064,0.0047884034,1442850,-504,1079,-313,10241
54291423,4000,0,-0.08193793,-1.1419307,-10.737799,0.019772064,0.015215688,-0.04506984,63.34349,156.9064,0.0047884034,1442850,-930,1145,-2062,10232
54391423,3951,0,-0.7294121,-1.4549141,-9.285223,-0.0026140907,-0.010823225,-0.0603014,63.35457,156.9064,0.0047884034,1442850,-1432,780,-4297,10236
54495424,4001,0,-0.0037470763,1.069619,-10.810392,0.0067722523,-0.002346107,-0.021400876,63.35734,156.9064,0.0047884034,1442850,642,-194,820,10237
54595453,4030,0,0.23918505,0.6399915,-9.7566395,0.0064705876,0.00077052554,-0.070505455,63.34349,156.9064,0.0047884034,1442850,420,-1486,-1439,10232
54695429,4006,0,0.43346322,1.1574059,-11.1389675,0.017309252,-0.004469741,-0.06646805,63.36011,156.9064,0.0047884034,1442850,493,1083,-85,10238
54799423,4000,0,0.5544865,-1.3528866,-8.585422,-0.008853715,-0.006927466,0.007304552,63.38504,156.9064,0.0047884034,1442850,1318,197,-3940,10247
54899423,4000,0,-0.96989936,-1.392989,-9.400186,0.020950548,0.003589023,-0.026096933,63.396122,156.9064,0.0047884034,1442850,-1592,-1213,-2895,10251
54999445,4022,0,-0.69136983,0.85752594,-9.421239,-0.019258257,0.021115603,-0.03775905,63.34349,156.9064,0.0047884034,1442850,-124,-1173,-1798,10232
55103423,4000,0,0.0346515,1.0850126,-9.343923,-0.0048340415,-0.00090679014,-0.036120012,63.36011,156.9064,0.0047884034,1442850,-980,624,-2964,10238
55203423,3952,0,-1.1109487,-0.74076545,-9.033974,-0.014291106,-0.009472881,-0.056917474,63.3518,156.9064,0.0047884034,1442850,-1724,317,-4321,10235
55307423,4000,0,-0.12852654,-0.8818182,-11.602781,0.00739942,-0.0037380722,-0.0642392,63.35457,156.9064,0.0047884034,1442850,-249,292,657,10236
55411423,4000,0,-0.0023861604,1.0163506,-7.4927034,-0.007716743,0.012223487,0.010666377,63.3518,156.9064,0.0047884034,1442850,779,-26,-3852,10235
55511423,4000,0,-0.39978635,0.5851424,-8.395766,-0.0030659235,0.0022059141,-0.013715578,63.35734,156.9064,0.0047884034,1442850,-787,-848,-2352,10237
55615423,3955,0,0.62819415,-1.1636697,-10.015429,0.014170255,-0.0006171018,-0.09037717,63.36565,156.9064,0.0047884034,1442850,316,805,-3394,10240
55715423,3955,0,-1.1577901,-0.4835714,-10.606137,0.023881305,0.0083745,-0.045811303,63.36011,156.9064,0.0047884034,1442850,-1039,1263,-1033,10238
55815430,4003,0,-0.07387963,0.5356656,-8.556765,-0.00037702196,0.000292934,-0.05098775,63.37396,156.9064,0.0047884034,1442850,-346,665,-3923,10243
55919423,4000,0,1.24266,1.2156337,-10.436665,-0.004984982,-0.017754065,-0.03207712,63.35734,156.9064,0.0047884034,1442850,2474,922,-141,10237
56019423,3970,0,0.72361827,0.5505939,-10.09043,0.036940258,-0.009155465,-0.06401157,63.3518,156.9064,0.0047884034,1442850,-725,-32,-1353,10235
56119423,4000,0,-0.39264396,-0.8407273,-12.3975115,0.0053035375,-0.009087728,-0.058118593,63.412743,156.9064,0.0047884034,1442850,-985,1306,1953,10257
56223466,4043,0,-0.7618863,-0.43694386,-10.561061,0.01301068,0.0072923647,-0.031102246,63.36011,156.9064,0.0047884034,1442850,-1147,-265,-44,10238
56323429,4006,0,-0.032782026,0.9693718,-9.682485,-0.015062902,-0.0010062114,-0.03150623,63.35734,156.9064,0.0047884034,1442850,220,-287,-875,10237
56427423,4000,0,-0.11725033,0.3727301,-9.417521,-0.013677918,-0.026719097,-0.008222554,63.3795,156.9064,0.0047884034,1442850,306,995,-1765,10245
56531423,4000,0,-0.34213376,-1.3097054,-9.240603,-0.01889626,-0.0072265062,-0.00041043386,63.37396,156.9064,0.0047884034,1442850,-233,-676,-2112,10243
56631423,3977,0,0.25566843,-1.1947231,-11.259058,-0.005089954,-0.004286265,-0.020394124,63.3518,156.9064,0.0047884034,1442850,1377,-664,1466,10235
56735469,4046,0,-0.11813268,1.6915632,-9.318978,-0.01813359,0.008644321,-0.0018478982,63.3795,156.9064,0.0047884034,1442850,922,178,-1320,10245
56835423,4000,0,1.0763509,1.1308889,-10.1352625,0.007119994,-0.014227871,-0.041774653,63.38504,156.9064,0.0047884034,1442850,2152,1024,-814,10247
56935423,3997,0,0.064112365,0.50070286,-10.390464,0.018278675,-0.0016178433,-0.05591807,63.39889,156.9064,0.0047884034,1442850,-791,1502,-1939,10252
57039423,4000,0,-0.5810164,-1.2203896,-10.153367,0.0045647365,-9.52525e-05,-0.025198676,63.38227,156.9064,0.0047884034,1442850,-886,78,-1150,10246
57139448,4025,0,-0.33576682,-0.3632583,-10.895637,-0.0058201514,0.020587124,-0.029273363,63.393353,156.9064,0.0047884034,1442850,281,-91,826,10250
57239423,4000,0,-0.74030983,1.3788854,-9.481561,0.017322022,0.016946381,-0.066533,63.36565,156.9064,0.0047884034,1442850,-1355,108,-3473,10240
57343423,4000,0,-0.40118003,1.1395342,-10.608774,0.018897302,0.002493936,-0.06461998,63.37673,156.9064,0.0047884034,1442850,-2426,-22,-582,10244
57443423,4000,0,0.7141271,-0.6370359,-10.93126,-0.00078555965,-0.0022846549,-0.04872307,63.37396,156.9064,0.0047884034,1442850,776,-1098,-628,10243
57547423,4000,0,0.14761037,-1.6359382,-10.830123,-0.018650366,-0.00022277152,-0.026556779,63.38227,156.9064,0.0047884034,1442850,1966,-378,135,10246
57651423,4000,0,0.16468646,1.0729055,-9.2405405,-0.0030317327,0.006689832,-0.010250994,63.35734,156.9064,0.0047884034,1442850,1207,-489,-1925,10237
57751450,4020,0,0.1358026,1.1670014,-9.7772255,0.0177254,0.0032548031,-0.04169462,63.38504,156.9064,0.0047884034,1442850,-492,88,-2059,10247
57855424,4001,0,-1.1957719,-0.5234401,-10.15352,0.016847547,-0.005634064,-0.075251795,63.39058,156.9064,0.0047884034,1442850,-2617,427,-2902,10249
57955423,4000,0,-0.36716142,-1.6613443,-8.990493,-0.027197683,0.0037583946,-0.015865363,63.40443,156.9064,0.0047884034,1442850,738,484,-4829,10254
58055423,4000,0,-1.133659,-0.20326911,-10.511587,-0.0024113427,-0.0009955337,-0.03693817,63.39889,156.9064,0.0047884034,1442850,-1626,-46,-388,10252
58159423,3998,0,-0.588601,1.4324541,-9.194923,-0.012611605,-0.0043563345,-0.047127716,63.36842,156.9064,0.0047884034,1442850,-374,909,-2786,10241
58259423,4000,0,-0.12579247,0.0041559264,-10.208137,-0.023341065,-0.0051784534,-0.017906433,63.412743,156.9064,0.0047884034,1442850,589,273,-765,10257
58361023,3969,0,0.9248165,-1.4802451,-11.32914,0.008363962,-0.013782075,-0.043273944,63.37119,156.9064,0.0047884034,1442850,878,-137,314,10242
58461022,3994,0,-0.4451502,-1.6983943,-10.347303,-0.033525545,0.0044503645,-0.055272125,63.34349,156.9064,0.0047884034,1442850,976,-997,-2098,10232
58565023,4001,0,0.116715945,1.0454838,-9.246246,0.0005189236,0.0051387837,0.0018071029,63.39058,156.9064,0.0047884034,1442850,1170,-531,-1178,10249
58665023,4000,0,-0.81196535,1.2940717,-8.581109,-0.008847183,-0.007295863,-0.042538196,63.393353,156.9064,0.0047884034,1442850,-944,-558,-2860,10250
58769033,4004,0,1.1856602,-0.67659044,-10.79242,0.01629992,-0.008172521,-0.04485352,63.36842,156.9064,0.0047884034,1442850,1115,425,-759,10241
58869023,3994,0,1.2590415,-1.6167717,-11.160302,-0.002798719,0.0007470937,-0.040969286,63.38227,156.9064,0.0047884034,1442850,2226,-932,212,10246
58969056,4027,0,0.48124528,-0.88350195,-10.791491,-0.00067343656,0.0043761814,-0.038253468,63.38504,156.9064,0.0047884034,1442850,1461,14,-287,10247
59073029,4006,0,-0.29121247,1.0034058,-9.254676,-0.0050535845,0.0045040604,-0.07332425,63.40443,156.9064,0.0047884034,1442850,-332,-598,-4506,10254
59173025,4002,0,0.10429449,1.1231124,-10.939538,0.008150552,-0.00018444512,-0.010445698,63.409973,156.9064,0.0047884034,1442850,-132,-150,145,10256
59273037,4014,0,0.92377424,-0.23562837,-11.126615,-0.017204177,-0.0021017406,-0.05010455,63.36565,156.9064,0.0047884034,1442850,1326,-514,-1242,10240
59377030,3960,0,0.21573444,-1.7168617,-12.177404,0.02913584,0.0014408472,-0.033676345,63.36842,156.9064,0.0047884034,1442850,-130,19,493,10241
59477023,4000,0,0.14041111,-0.44410527,-10.3139305,0.0013273533,0.016183654,-0.055861082,63.36288,156.9064,0.0047884034,1442850,968,-1120,-2168,10239
59577023,4001,0,0.30606556,0.99365926,-10.74194,-0.009682599,0.014546533,-0.036644775,63.36842,156.9064,0.0047884034,1442850,1604,-105,32,10241
59681035,4012,0,-1.33003,-0.005135925,-9.080157,-0.0036947075,-0.012344017,-0.0577799,63.3795,156.9064,0.0047884034,1442850,-1729,363,-4487,10245
59781023,3988,0,-0.4602565,-1.3684382,-10.68963,-0.014481302,-0.017452048,-0.048329554,63.409973,156.9064,0.0047884034,1442850,-733,233,-1353,10256
59885027,3996,0,0.025338879,-1.4218209,-9.906141,0.0142001035,0.0029860453,-0.06815564,63.38227,156.9064,0.0047884034,1442850,332,-1261,-3896,10246
59985023,4000,0,0.2628742,0.6800325,-10.562748,0.020739483,0.006021243,-0.03387122,63.39889,156.9064,0.0047884034,1442850,846,221,-1352,10252
60085032,4009,0,0.45024315,1.5776104,-9.257594,0.009692138,-0.0029486406,-0.046866015,63.393353,156.9064,0.0047884034,1442850,716,-195,-2320,10250
60189023,3994,0,0.15602559,0.11062591,-10.832522,-0.028584799,-0.008448018,-0.024154462,63.37673,156.9064,0.0047884034,1442850,420,688,348,10244
60289023,4000,0,0.45718446,-1.6528673,-10.299294,-0.032818235,-0.00021383863,-0.0015184265,63.396122,156.9064,0.0047884034,1442850,1415,241,-1644,10251
60389034,4000,0,-0.28873932,-1.3680861,-9.838701,-0.04158045,0.012150657,-0.03902777,63.451523,156.9064,0.0047884034,1442850,680,-881,-3247,10271
60493023,3999,0,-0.32792208,1.8195924,-9.788467,0.01736873,0.011370845,-0.015076297,63.39889,156.9064,0.0047884034,1442850,-698,-215,-1383,10252
60593023,4000,0,0.6202771,1.4315662,-8.574473,0.030681292,0.000113772316,-0.032669444,63.40443,156.9064,0.0047884034,1442850,-254,-47,-4039,10254
60693025,4002,0,0.22769137,0.03521461,-9.771042,0.017754458,-0.009794054,-0.08109027,63.393353,156.9064,0.0047884034,1442850,-274,298,-4295,10250
60797023,3958,0,-0.26407617,-1.712838,-10.188377,-0.048469547,-0.0051439796,-0.014815554,63.393353,156.9064,0.0047884034,1442850,645,-114,-1880,10250
60897023,4000,0,-0.5210156,-0.5905795,-8.740374,-0.016553126,0.0019402778,-0.034963235,63.409973,156.9064,0.0047884034,1442850,228,7,-4871,10256
61001023,4000,0,0.70202726,1.8799568,-9.327561,0.031589337,-0.0014730989,-0.027985929,63.38227,156.9064,0.0047884034,1442850,614,-19,-2285,10246
61101023,4000,0,0.7256711,1.3164315,-9.398526,0.016507244,-0.008338976,-0.024390364,63.39058,156.9064,0.0047884034,1442850,1237,625,-2642,10249
61205072,4049,0,-0.3366365,-1.4103127,-11.078958,-0.010469963,-0.0063397624,-0.022242785,63.39889,156.9064,0.0047884034,1442850,-285,962,-1725,10252
61305023,4000,0,-0.9425742,-1.2466122,-9.399409,-0.0069063953,-0.006311318,-0.028978333,63.396122,156.9064,0.0047884034,1442850,-1615,335,-2807,10251
61405023,3992,0,-1.2933583,0.23073882,-9.270613,0.0035606313,0.007452744,-0.050422266,63.39058,156.9064,0.0047884034,1442850,-1919,-579,-3272,10249
61509023,3994,0,0.32235247,2.328432,-9.289302,0.020094333,0.003101341,-0.019589264,63.38227,156.9064,0.0047884034,1442850,164,564,-2251,10246
61609023,4000,0,0.16056857,0.2493003,-8.957186,0.025898622,-0.006036841,-0.056591094,63.426594,156.9064,0.0047884034,1442850,-912,-112,-4984,10262
61709055,4032,0,-0.17068176,-1.2689381,-10.260677,0.036750603,-0.0070752255,-0.0753622,63.393353,156.9064,0.0047884034,1442850,-1729,-306,-2681,10250
61813030,4006,0,0.6297531,-1.4431102,-9.545055,0.00095511787,0.010031944,-0.037937734,63.40166,156.9064,0.0047884034,1442850,2070,-1419,-1604,10253
61913023,4000,0,0.30762032,0.43804502,-9.69329,0.0039361333,0.011177095,-0.06318153,63.40166,156.9064,0.0047884034,1442850,1719,-797,-3390,10253
62013023,4000,0,0.8803809,1.7333416,-10.125661,0.0057694386,0.00396256,-0.046456058,63.412743,156.9064,0.0047884034,1442850,2414,-92,-494,10257
62117024,4001,0,-0.1840066,0.23176336,-9.731087,-0.038918316,-0.009700422,-0.049750492,63.412743,156.9064,0.0047884034,1442850,708,950,-3857,10257
62217023,3975,0,0.876297,-1.3471972,-10.954618,-0.03316744,0.007662762,-0.053342864,63.3795,156.9064,0.0047884034,1442850,1586,80,-1181,10245
62321028,3997,0,-1.7011101,-0.4668278,-9.414508,0.011581719,0.006792348,-0.036181264,63.40166,156.9064,0.0047884034,1442850,-2483,-472,-2125,10253
62421023,4000,0,-1.5342281,1.3076111,-9.126317,-0.0069883894,0.012529678,-0.061563954,63.36842,156.9064,0.0047884034,1442850,-1670,-818,-3122,10241
62521030,4001,0,-0.5783787,1.4941838,-9.674143,-0.017566208,0.0097520705,-0.053020798,63.3795,156.9064,0.0047884034,1442850,-900,-782,-1280,10245
62625023,4000,0,0.27846605,-0.67716306,-9.177945,0.03153502,-0.007775606,-0.024834938,63.393353,156.9064,0.0047884034,1442850,-1688,218,-4080,10250
62725023,4000,0,-0.8732495,-1.9081955,-10.179728,0.024237482,-0.011878995,-0.057666063,63.34903,156.9064,0.0047884034,1442850,-1343,-646,-2898,10234
62829023,3978,0,0.31026447,-0.23498595,-9.958779,0.0067124213,0.012173,-0.022297837,63.32964,156.9064,0.0047884034,1442850,2059,-763,-1014,10227
62929023,4000,0,1.1527249,1.4730572,-9.431247,0.011508398,-0.0022561625,-0.031430207,63.34349,156.9064,0.0047884034,1442850,1495,-765,-1158,10232
63029023,4000,0,1.333698,1.512651,-9.168967,0.008647343,-0.011089514,-0.06495717,63.3518,156.9064,0.0047884034,1442850,1948,-435,-2895,10235
63133029,4006,0,0.15928182,-0.9922249,-11.176396,-0.02620747,-0.009219264,-0.039936103,63.38227,156.9064,0.0047884034,1442850,512,435,-507,10246
63237023,3997,0,-0.4398474,-0.81918746,-8.665224,0.015963832,0.0032376014,-0.045935564,63.37396,156.9064,0.0047884034,1442850,-379,-366,-5344,10243
63337043,4016,0,-0.49412513,0.59925413,-9.270322,0.02542131,0.011245477,-0.050871953,63.36011,156.9064,0.0047884034,1442850,-1490,-591,-3811,10238
63441023,4000,0,0.7238654,1.307962,-10.602379,-0.015366541,0.0029399185,-0.0165133,63.34626,156.9064,0.0047884034,1442850,2087,759,118,10233
63541023,4000,0,1.2366983,-0.30136934,-10.19731,-0.01609652,-0.004257755,-0.025541367,63.34072,156.9064,0.0047884034,1442850,2604,586,-1354,10231
63641042,4019,0,1.5999984,-1.9521083,-10.015284,-0.022798762,-0.0053576413,-0.044402897,63.35734,156.9064,0.0047884034,1442850,2410,-521,-2529,10237
63745023,4000,0,-0.90352446,0.9243299,-10.490989,-0.0065715737,0.018281315,-0.014799023,63.34903,156.9064,0.0047884034,1442850,-1113,-168,-291,10234
63845023,4000,0,-0.95932466,1.4341619,-9.275598,-0.009054006,0.009253992,-0.020788426,63.3795,156.9064,0.0047884034,1442850,-1329,-695,-1258,10245
63949035,4012,0,0.53367513,0.47992635,-9.741195,0.031318687,-0.002247036,-0.07327004,63.35734,156.9064,0.0047884034,1442850,-803,73,-3558,10237
64049040,4017,0,-1.0560691,-1.3598074,-10.3350935,0.018022947,-0.0040192,-0.053376667,63.37396,156.9064,0.0047884034,1442850,-2759,-282,-1784,10243
65373023,3998,0,0.29891908,-0.31504884,-10.102925,0.0035279603,-0.004322134,-0.05959689,63.337948,156.9064,0.0047884034,1442850,-387,-349,-1997,10230
65473023,4000,0,-0.14826073,-2.0259213,-9.616109,0.0020068334,-0.0051561785,-0.05932474,63.3518,156.9064,0.0047884034,1442850,6,-1251,-4403,10235
65573030,4007,0,0.13091882,-0.6705419,-9.945083,-0.01963096,0.0053600892,-0.014237009,63.34626,156.9064,0.0047884034,1442850,1462,-447,-602,10233
65677031,4008,0,0.50531465,1.0077312,-9.079127,0.021863796,-0.013905066,-0.028009739,63.31579,156.9064,0.0047884034,1442850,133,3,-2474,10222
65777023,3988,0,-0.42739877,1.1992981,-10.30162,-0.0021680093,0.011881007,-0.05348203,63.36288,156.9064,0.0047884034,1442850,-835,-715,-1091,10239
65877023,4000,0,-0.3326956,0.47030687,-9.416428,0.030302182,-0.01388586,-0.03550652,63.35734,156.9064,0.0047884034,1442850,-1277,557,-2248,10237
65981075,4052,0,0.38698122,-0.49110183,-10.538493,-0.010225632,-0.0053956658,-0.029265448,63.34349,156.9064,0.0047884034,1442850,467,478,-968,10232
66081023,3994,0,0.7506821,-0.36015996,-8.963782,0.005627758,0.0020174645,-0.020514164,63.34349,156.9064,0.0047884034,1442850,2165,-404,-2063,10232
66185023,3993,0,1.3630002,1.286465,-10.203768,0.01563218,-0.0066604307,-0.027250333,63.36565,156.9064,0.0047884034,1442850,2262,638,-54,10240
66285023,3993,0,-0.29065347,0.72619694,-8.9615965,-0.01131176,-0.006274281,-0.01837416,63.36842,156.9064,0.0047884034,1442850,-979,-71,-3303,10241
66385036,4013,0,0.99204206,-0.24931495,-9.74753,0.0083411075,-0.015951607,-0.034357484,63.35457,156.9064,0.0047884034,1442850,590,704,-2769,10236
66489023,4000,0,-0.8511426,-0.066821724,-10.7171335,0.02472281,0.014088566,-0.037736416,63.32687,156.9064,0.0047884034,1442850,-1351,744,273,10226
66589023,4000,0,0.8649093,0.759102,-8.9122925,-0.02650911,-0.00060527935,-0.015652878,63.36011,156.9064,0.0047884034,1442850,1320,-857,-897,10238
66690623,4001,0,1.0805368,0.50547063,-8.734919,0.011844777,-0.005969165,-0.07914825,63.34349,156.9064,0.0047884034,1442850,815,144,-4920,10232
66790622,3993,0,1.2314441,-0.18930021,-10.734001,-0.015361993,0.0039356765,-0.010740156,63.32964,156.9064,0.0047884034,1442850,917,49,493,10227
66894623,3973,0,1.051737,-1.9041444,-10.801226,-0.028948285,0.010926639,-0.05012003,63.34349,156.9064,0.0047884034,1442850,2687,-522,-1125,10232
66994629,3988,0,-0.6830768,0.012408995,-9.4429245,-0.0075444677,0.0046268227,-0.077953465,63.36842,156.9064,0.0047884034,1442850,-1156,-1107,-3598,10241
67098645,4015,0,-1.1763768,1.78736,-8.691249,-0.0014045469,0.0059710704,-0.047095217,63.34349,156.9064,0.0047884034,1442850,-1160,155,-4618,10232
67198624,4001,0,0.08763629,0.82819206,-10.012936,0.020455992,-0.01898607,-0.033054776,63.34072,156.9064,0.0047884034,1442850,-475,875,-2158,10231
67298623,4000,0,0.4937868,0.0049314573,-10.23362,0.009015987,-0.005136986,-0.004874968,63.36011,156.9064,0.0047884034,1442850,-127,1092,-2721,10238
67402623,4000,0,-0.1560188,-1.051789,-10.572933,0.013362807,0.00061391864,-0.0791045,63.33241,156.9064,0.0047884034,1442850,-1633,238,-4108,10228
67502624,4001,0,-0.13440783,-1.146237,-10.145066,-0.031085938,0.016451936,-0.056354657,63.337948,156.9064,0.0047884034,1442850,434,-1701,-3581,10230
67606623,4000,0,1.0690114,1.3422903,-10.695046,0.0049673365,0.010729389,-0.042072613,63.32687,156.9064,0.0047884034,1442850,973,-630,28,10226
67710639,4001,0,-0.5349016,0.40366086,-10.662176,0.033494387,-0.008273283,-0.039333127,63.31302,156.9064,0.0047884034,1442850,-1760,1056,-1211,10221
67810630,4007,0,1.4033759,-1.060861,-10.690438,6.667664e-05,-0.0014815516,-0.06953889,63.31302,156.9064,0.0047884034,1442850,1732,-561,-2168,10221
67910622,3999,0,-0.41534194,-0.8951971,-9.92665,-0.03538674,0.0062902216,-0.0139529575,63.33518,156.9064,0.0047884034,1442850,276,-354,-1303,10229
68014630,4007,0,1.2046835,1.3371733,-9.150695,-0.0019554836,-0.0074310843,-0.03460558,63.3241,156.9064,0.0047884034,1442850,1788,222,-2105,10225
68114660,4037,0,-0.31526488,1.666919,-10.359671,-0.0123078115,-0.0017150366,-0.011786782,63.31302,156.9064,0.0047884034,1442850,301,440,716,10221
68218623,4000,0,0.4804715,-0.41048145,-10.088344,0.0072430745,-0.016533311,-0.042674195,63.34072,156.9064,0.0047884034,1442850,351,764,-1818,10231
68318623,3993,0,1.1175606,-0.90292174,-11.387503,0.0004472786,-0.0019508505,-0.028490242,63.32687,156.9064,0.0047884034,1442850,1357,471,-264,10226
68418623,3994,0,-0.71284676,-0.5323611,-10.864267,-0.024399772,0.017787116,-0.06201379,63.318558,156.9064,0.0047884034,1442850,939,-988,-1263,10223
68522623,3988,0,0.6839049,1.7058698,-9.699948,0.021536207,0.006102214,-0.02374351,63.30748,156.9064,0.0047884034,1442850,499,412,-1642,10219
68622628,4005,0,1.0311909,1.2807735,-10.820648,-0.004530983,-0.0019582906,-0.030601215,63.33518,156.9064,0.0047884034,1442850,2102,125,671,10229
68722629,4006,0,0.99752456,-0.2398167,-11.225323,-0.011937595,0.0029069628,-0.030406144,63.33241,156.9064,0.0047884034,1442850,1516,515,479,10228
68826623,4000,0,-0.9522701,-1.1874201,-9.877004,-0.0002790396,-0.008405506,-0.023094889,63.35457,156.9064,0.0047884034,1442850,-1305,-42,-2204,10236
68926622,3954,0,-0.20546167,0.29731128,-8.943388,-3.0807918e-05,0.0015560997,-0.036385592,63.34349,156.9064,0.0047884034,1442850,-302,-622,-3020,10232
69030623,4000,0,0.733595,1.2178856,-9.624922,0.005169369,0.005699479,-0.062814474,63.32964,156.9064,0.0047884034,1442850,1296,-384,-2764,10227
69130624,4001,0,0.66527283,-0.1458288,-10.140498,0.018624542,0.0013105903,-0.07300148,63.34349,156.9064,0.0047884034,1442850,308,-352,-2629,10232
69230629,4006,0,0.53003556,-1.5507654,-9.919758,0.026637701,0.0029528409,-0.071706906,63.32687,156.9064,0.0047884034,1442850,168,-897,-3382,10226
69334623,4000,0,-0.08389829,0.33151618,-10.709231,-0.015339133,0.013954146,-0.013568955,63.38504,156.9064,0.0047884034,1442850,975,115,-312,10247
69434623,4001,0,-0.28144452,1.298571,-10.63614,-0.017292064,0.00796108,-0.0068261456,63.32964,156.9064,0.0047884034,1442850,1022,343,659,10227
69534651,4028,0,0.47513473,2.454036,-9.853904,-0.024713395,0.00083154975,-0.011142052,63.36565,156.9064,0.0047884034,1442850,2298,1170,-856,10240
69638629,4006,0,-0.5916194,-0.57483506,-9.878171,-0.014845514,-0.019438963,-0.062355254,63.34072,156.9064,0.0047884034,1442850,-743,334,-3356,10231
69738623,3994,0,-0.20503367,-1.0551116,-11.23039,-0.031964827,-0.003891899,-0.050979815,63.33518,156.9064,0.0047884034,1442850,242,457,-770,10229
69842622,3999,0,-0.9629561,0.41935563,-9.115898,0.018238274,0.007875522,-0.019221704,63.36288,156.9064,0.0047884034,1442850,-1721,-705,-3015,10239
69942629,3983,0,-0.90676355,1.1140528,-8.52917,0.0036248332,-0.0010963117,-0.038718693,63.36288,156.9064,0.0047884034,1442850,-2312,-446,-4457,10239
70042629,4006,0,-1.173218,1.018456,-9.574941,-0.006436724,-0.0041332142,-0.077953026,63.36565,156.9064,0.0047884034,1442850,-1969,-596,-1890,10240
70146639,4006,0,0.78780353,-1.4513457,-9.822558,0.02324379,-0.008900051,-0.0457989,63.32687,156.9064,0.0047884034,1442850,117,-261,-2644,10226
70246631,4008,0,-0.7818569,-2.0175507,-9.143941,0.009098244,-0.009809983,-0.0444109,63.34903,156.9064,0.0047884034,1442850,-1199,-983,-4794,10234
70350634,4011,0,1.0320846,1.1158271,-9.808629,0.03356094,0.0121701015,-0.030001204,63.32687,156.9064,0.0047884034,1442850,1055,-544,-1886,10226
70454622,3999,0,0.78162616,2.2469146,-10.811499,-0.020096865,0.0023209827,-0.081345856,63.36011,156.9064,0.0047884034,1442850,2871,73,-935,10238
70554623,3958,0,2.01004,0.32891282,-10.4801855,0.026058706,-0.010598592,-0.04616421,63.32687,156.9064,0.0047884034,1442850,1672,465,-1304,10226
70654634,4011,0,0.6959813,-1.4877241,-9.2396,0.030655945,-0.013818515,-0.029633734,63.34349,156.9064,0.0047884034,1442850,-342,275,-4327,10232
70758623,4000,0,0.54513913,-1.0428355,-9.9112,0.023557547,0.006388803,-0.017406072,63.34626,156.9064,0.0047884034,1442850,1721,-640,-2304,10233
70858623,3989,0,-1.4777349,1.3950449,-8.726213,0.03325631,0.00943548,-0.03326381,63.33518,156.9064,0.0047884034,1442850,-2520,-236,-3832,10229
70962623,4000,0,-0.1302365,2.2195702,-9.341232,0.043477554,-0.00039909116,-0.013156053,63.34903,156.9064,0.0047884034,1442850,-1520,789,-2527,10234
71062660,4037,0,-1.1774029,-0.06422646,-9.753047,-0.008097159,-0.011125143,-0.059098013,63.36288,156.9064,0.0047884034,1442850,-2062,311,-3157,10239
71162623,4000,0,2.063863,-1.4219494,-11.674326,-0.013111994,0.0006039047,-0.030831505,63.36842,156.9064,0.0047884034,1442850,3341,479,384,10241
71266623,4000,0,0.4154458,-0.23081136,-9.936695,0.0012567453,0.02338286,-0.067284286,63.36288,156.9064,0.0047884034,1442850,2233,-1239,-1649,10239
71366623,3994,0,-1.7040107,1.2983543,-9.192556,0.015040787,0.007951797,-0.044977628,63.37396,156.9064,0.0047884034,1442850,-3219,-327,-1025,10243
71466623,4000,0,1.4047043,1.3855202,-9.53509,-0.020162892,0.009000604,-0.061207484,63.36011,156.9064,0.0047884034,1442850,3098,-329,-922,10238
71570635,4006,0,1.915851,-0.24423282,-10.695434,0.011084749,-0.0071571763,-0.025776753,63.35734,156.9064,0.0047884034,1442850,2467,263,111,10237
71670629,4006,0,-1.5692728,-2.2077782,-10.133656,0.009951477,-0.011430477,-0.018990772,63.34349,156.9064,0.0047884034,1442850,-2180,-408,-1404,10232
71774623,4000,0,-0.72459745,-0.026881177,-9.0502825,0.028620124,0.00024295528,-0.06295614,63.3241,156.9064,0.0047884034,1442850,-1683,-904,-4104,10225
71878629,4006,0,0.38856384,2.3858767,-9.121088,0.037203405,-0.007567419,-0.03286063,63.3241,156.9064,0.0047884034,1442850,142,374,-2992,10225
71978623,3994,0,-0.80312884,1.1020961,-9.134161,0.026710577,-0.011086687,-0.05691188,63.36011,156.9064,0.0047884034,1442850,-2865,553,-4082,10238
72082623,3980,0,-0.6622138,-2.1522102,-9.819508,0.022115735,-0.011327149,-0.029526014,63.36565,156.9064,0.0047884034,1442850,-426,-122,-3301,10240
72182623,3993,0,-1.7426524,-0.4054095,-8.947264,-0.0020294702,-0.000770642,-0.020357035,63.34626,156.9064,0.0047884034,1442850,-2286,120,-2286,10233
72282623,4000,0,-0.82308555,1.493447,-8.67556,-0.028250339,0.015203684,-0.017709436,63.36011,156.9064,0.0047884034,1442850,-242,-148,-3384,10238
72386623,4000,0,-1.1824497,1.5149918,-9.74842,0.005334876,0.00026297406,-0.03769064,63.34072,156.9064,0.0047884034,1442850,-2738,614,-1493,10231
72486623,4000,0,-0.954344,0.10152824,-10.87528,-0.0026579876,-0.015084453,-0.029911824,63.35457,156.9064,0.0047884034,1442850,-2055,884,-338,10236
72586623,3979,0,-0.9003741,-1.2824781,-11.006798,-0.019729607,-0.009923635,-0.029018305,63.37396,156.9064,0.0047884034,1442850,-900,465,-1198,10243
72690673,4050,0,0.46187043,-0.26451185,-9.110835,0.027458616,-0.0024362423,-0.05785201,63.3518,156.9064,0.0047884034,1442850,254,-763,-5133,10235
72790623,4000,0,-0.5084677,1.8194201,-8.30607,0.024117783,-0.001959628,-0.04623647,63.36011,156.9064,0.0047884034,1442850,-959,-99,-5786,10238
72894623,4000,0,0.9841441,0.7801774,-11.207133,0.015871739,0.004666297,-0.06893537,63.4072,156.9064,0.0047884034,1442850,1071,262,-186,10255
72998630,4007,0,0.35579646,-1.083904,-10.445784,-0.04352885,-0.00063567574,-0.012303279,63.36565,156.9064,0.0047884034,1442850,1609,294,-930,10240
73098623,3974,0,-0.4545374,-0.9763649,-9.434883,-0.024573797,0.016062127,-0.016148001,63.36011,156.9064,0.0047884034,1442850,1419,-692,-2094,10238
73202623,4000,0,-1.3735211,2.4308562,-10.121722,0.013349478,0.017344512,-0.050138555,63.35734,156.9064,0.0047884034,1442850,-2704,-73,-135,10237
73302630,4001,0,-1.097804,1.8450577,-9.923761,0.006792191,-0.0024165842,-0.033472992,63.33518,156.9064,0.0047884034,1442850,-2081,657,-857,10229
73402623,4000,0,-0.8942557,0.5495084,-9.83931,0.013964708,-0.009756064,-0.019997908,63.36288,156.9064,0.0047884034,1442850,-2394,678,-524,10239
73506623,3990,0,-0.47239333,-2.510889,-9.300361,0.022890193,-0.0136001995,-0.033860467,63.393353,156.9064,0.0047884034,1442850,-434,-615,-4790,10250
73606624,4001,0,-1.4027753,-1.1171227,-8.947476,0.0123245455,-0.007865906,-0.038880747,63.36565,156.9064,0.0047884034,1442850,-1689,-554,-3544,10240
73706636,4013,0,-1.1980027,1.4013876,-8.608088,0.0009156279,0.0035291403,-0.03401595,63.32687,156.9064,0.0047884034,1442850,-2459,-600,-2467,10226
73810623,4000,0,-0.76627564,1.6170264,-9.592803,0.029691987,0.0028895554,-0.062067356,63.35734,156.9064,0.0047884034,1442850,-2739,-11,-2474,10237
73910623,3995,0,-1.3705931,-0.51503605,-9.197642,-0.0030289046,-0.015022488,-0.049904943,63.34072,156.9064,0.0047884034,1442850,-2304,-466,-3278,10231
74014630,4007,0,-1.646119,-1.2843392,-10.411324,0.01816662,0.0049003605,-0.040446654,63.3518,156.9064,0.0047884034,1442850,-2515,323,-1358,10235
74118623,4000,0,0.25041187,2.187726,-9.362721,0.020373853,0.0025655646,-0.023505663,63.36842,156.9064,0.0047884034,1442850,645,214,-1074,10241
74218628,4005,0,0.16409934,2.573741,-8.586774,0.02571116,0.0033371537,-0.018693235,63.36288,156.9064,0.0047884034,1442850,-574,361,-3532,10239
74322623,3987,0,2.0084052,-0.6633961,-10.613003,0.019929366,-0.007763572,-0.073463865,63.34626,156.9064,0.0047884034,1442850,2109,458,-2098,10233
74422623,4000,0,0.80581605,-1.489365,-11.36867,0.028333118,0.0019639975,-0.055745978,63.35734,156.9064,0.0047884034,1442850,472,225,-292,10237
74522623,4000,0,-1.3538026,-0.80267775,-10.378798,0.0195835,0.000524879,-0.034551088,63.37673,156.9064,0.0047884034,1442850,-2127,-82,-1840,10244
74626631,4008,0,0.47346854,1.9994165,-8.712681,0.017523453,-0.0030682986,-0.050850365,63.37119,156.9064,0.0047884034,1442850,519,-117,-3929,10242
74726623,3972,0,-0.69588286,1.6863302,-8.525011,0.015528183,-0.0071266377,-0.04763074,63.36011,156.9064,0.0047884034,1442850,-2352,258,-4802,10238
74830622,3999,0,0.4139768,-1.9670167,-10.129454,0.040537793,-0.015131796,-0.021466523,63.37673,156.9064,0.0047884034,1442850,-458,513,-3033,10244
74934623,3972,0,0.04152038,-1.353167,-10.841055,0.01733045,0.011744985,-0.059195627,63.36842,156.9064,0.0047884034,1442850,1340,-1098,-876,10241
75034639,4015,0,-0.055658124,1.1540128,-8.922687,0.047824513,0.0033103807,-0.012594917,63.34626,156.9064,0.0047884034,1442850,-1329,-179,-2509,10233
75136223,3956,0,-1.2261897,2.0640218,-9.237321,0.04088284,0.0033066096,-0.055093434,63.33518,156.9064,0.0047884034,1442850,-2232,300,-2987,10229
75236272,4050,0,-0.944442,1.2305815,-10.029784,-0.017602872,-0.005884533,-0.055434145,63.35734,156.9064,0.0047884034,1442850,-1311,480,-1518,10237
75340223,3996,0,-0.7386779,-1.8623275,-9.007376,-0.014705188,-0.017145146,-0.01720877,63.36842,156.9064,0.0047884034,1442850,-188,566,-3364,10241
75440223,3962,0,0.27924886,-1.6812513,-10.048062,-0.010957345,0.0036537263,-0.054434247,63.3795,156.9064,0.0047884034,1442850,1409,-1122,-2792,10245
75544261,4038,0,0.6756366,1.4330872,-9.757204,-0.028703798,0.016748205,-0.015744943,63.36842,156.9064,0.0047884034,1442850,2124,-834,-195,10241
75648223,4000,0,0.6240315,1.3011867,-10.994358,-0.02990041,0.0022910095,-0.037198365,63.38781,156.9064,0.0047884034,1442850,1789,378,88,10248
75748223,4000,0,1.9113102,-0.2816418,-10.522838,0.022412594,-0.014995083,-0.038367633,63.34903,156.9064,0.0047884034,1442850,1676,472,-1118,10234
75852223,4000,0,0.49461123,-1.812147,-11.468161,0.0019535634,0.017539823,-0.030038185,63.37119,156.9064,0.0047884034,1442850,1527,-795,197,10242
75952223,3999,0,-1.0594178,-1.1633928,-8.785346,0.026354743,0.0027934525,-0.04887086,63.36565,156.9064,0.0047884034,1442850,-1200,-1280,-5277,10240
76052223,3994,0,-1.1795201,1.2575465,-9.615233,-0.015658392,0.0070619765,-0.04019917,63.393353,156.9064,0.0047884034,1442850,-761,-323,-260,10250
76156265,4042,0,-1.6347404,0.6891242,-8.907783,-0.006437908,-0.01100941,-0.035253216,63.3518,156.9064,0.0047884034,1442850,-2232,341,-3460,10235
76256223,4000,0,0.6185276,-0.20426863,-11.322021,-0.04249368,-0.005289516,-0.046897892,63.35734,156.9064,0.0047884034,1442850,2125,867,-895,10237
76356229,4006,0,2.215318,-2.0344183,-10.787361,-0.00924241,-0.007573933,-0.039300896,63.3795,156.9064,0.0047884034,1442850,2912,-467,-723,10245
76460223,4000,0,-0.14807568,-0.5903733,-10.636743,-0.031591117,0.02529711,-0.006503402,63.34903,156.9064,0.0047884034,1442850,1969,-1468,61,10234
76560247,4024,0,0.7147549,0.681586,-8.617913,0.016860044,0.0069095655,-0.08117106,63.36842,156.9064,0.0047884034,1442850,1590,-851,-4539,10241
76664283,4060,0,0.88096684,1.584025,-9.064442,-0.02140482,-0.017619038,-0.048881043,63.36288,156.9064,0.0047884034,1442850,2584,206,-2794,10239
76768223,4000,0,1.7398279,-0.9541655,-11.367298,-0.0050135227,-0.010380335,-0.03649079,63.35457,156.9064,0.0047884034,1442850,2452,536,191,10236
76868223,4000,0,-1.867124,-1.8363866,-10.1245365,0.03515079,0.00055261515,-0.011580506,63.304707,156.9064,0.0047884034,1442850,-2737,105,-810,10218
76972229,4006,0,-0.9602308,0.98113865,-9.399142,0.03278543,0.011968517,-0.054487567,63.31025,156.9064,0.0047884034,1442850,-2720,-612,-1423,10220
77072223,4000,0,0.3817369,1.7343407,-9.755665,-0.040019512,0.021754982,-0.016974445,63.33241,156.9064,0.0047884034,1442850,1221,-355,-893,10228
77172229,4004,0,1.0525845,2.2517905,-9.0635195,0.009290801,-0.022145597,-0.015712487,63.31302,156.9064,0.0047884034,1442850,1965,1237,-3613,10221
77276223,4000,0,2.0375516,-0.973474,-10.583874,-0.00078027183,-0.023781763,-0.018497562,63.32964,156.9064,0.0047884034,1442850,2589,1351,-2532,10227
77376223,4000,0,-1.2327701,-2.2608202,-10.259297,0.019077817,-0.0032680253,-0.035851236,63.3518,156.9064,0.0047884034,1442850,-1790,138,-2498,10235
77476223,4000,0,-0.7626874,-0.8403105,-9.989446,-0.045606308,0.0085917665,-0.08159954,63.318558,156.9064,0.0047884034,1442850,1070,-1065,-1846,10223
77580223,3962,0,0.059952658,1.1763618,-8.347052,-0.038144596,0.012272175,-0.063248426,63.37396,156.9064,0.0047884034,1442850,1281,-957,-4122,10243
77680231,4002,0,1.2521598,1.5632848,-10.34671,0.015176093,-0.0072753425,-0.03811329,63.321327,156.9064,0.0047884034,1442850,1957,722,-1497,10224
77784223,4000,0,1.7556591,-0.8893062,-10.244708,0.02325566,-0.00086303416,-0.06614935,63.31579,156.9064,0.0047884034,1442850,1185,-97,-3115,10222
77884223,4000,0,-0.28074938,-1.8766719,-10.258969,0.020841178,-0.0052522337,-0.04882799,63.37119,156.9064,0.0047884034,1442850,-377,-111,-2824,10242
77984232,4005,0,-2.0380383,0.37645188,-9.071339,0.012439772,0.009050323,-0.018107038,63.36011,156.9064,0.0047884034,1442850,-2532,-400,-1175,10238
78088223,4000,0,0.5548067,2.8302903,-9.510946,0.031728026,0.005961106,-0.015562733,63.318558,156.9064,0.0047884034,1442850,270,500,-2564,10223
78188244,4021,0,-0.5267876,1.4421582,-8.955829,0.03127614,-0.0045075105,-0.046275694,63.3518,156.9064,0.0047884034,1442850,-1621,228,-4603,10235
78288223,4000,0,-0.69694567,-0.17925677,-10.6968565,0.025730073,-0.0029852525,-0.04395511,63.321327,156.9064,0.0047884034,1442850,-2600,548,-1920,10224
78392226,4003,0,0.42637226,-1.5655816,-9.892239,0.022184582,0.0062307306,-0.056110356,63.36288,156.9064,0.0047884034,1442850,670,-959,-3632,10239
78492263,4040,0,-0.63606906,0.08313153,-10.371635,0.03144365,0.015039634,-0.06608704,63.35457,156.9064,0.0047884034,1442850,-1149,-1081,-1099,10236
78596264,3994,0,0.6349104,1.7326206,-9.154459,0.0004364089,0.0016735282,-0.055684697,63.37119,156.9064,0.0047884034,1442850,1076,-76,-3014,10242
78696223,4000,0,0.9582625,0.53485703,-10.207351,0.031702925,0.0024710684,-0.08214415,63.37119,156.9064,0.0047884034,1442850,98,219,-2508,10242
78796223,4000,0,-0.025738899,-0.9347373,-10.555649,0.04211462,-0.0054767192,-0.021244822,63.34349,156.9064,0.0047884034,1442850,-1467,134,-1873,10232
78900228,4005,0,0.2803635,-0.45792112,-10.370256,0.0068464098,0.01392585,-0.067559294,63.36288,156.9064,0.0047884034,1442850,1556,-610,-2461,10239
79000223,3956,0,0.8814961,1.0650429,-10.537652,0.016354855,0.014508578,-0.03979582,63.321327,156.9064,0.0047884034,1442850,1611,-27,-455,10224
79100227,3998,0,0.26579043,2.0669649,-8.941663,0.028506307,0.0013783238,-0.027776696,63.35457,156.9064,0.0047884034,1442850,456,453,-2535,10236
79204223,4000,0,1.6803522,-0.099546246,-11.535759,-0.0035300641,-0.009917999,-0.065069504,63.299168,156.9064,0.0047884034,1442850,2204,798,-280,10216
