timestamp,integral_dt,error_count,x,y,z,x_integral,y_integral,z_integral,temperature,range_m_s2,scaling,device_id,x_raw,y_raw,z_raw,temperature_raw
38141807,3948,0,0.15059432,0.03595476,-9.9417925,0.0021028735,-0.0011619518,-0.038808305,58.628807,156.9064,0.0047884034,1442826,166,-93,2020,8530
38245823,4016,0,-0.2578576,-0.0022917753,-10.001377,-0.0020307214,0.0012379676,-0.0410264,58.64266,156.9064,0.0047884034,1442826,-184,0,2060,8535
38347407,4001,0,0.26996303,0.68390393,-9.562581,0.0010666416,0.0037523021,-0.03532488,58.62327,156.9064,0.0047884034,1442826,-280,43,2225,8528
38447413,3983,0,0.0023319868,0.13252097,-10.328434,0.0039508035,-7.247593e-05,-0.041510068,58.65374,156.9064,0.0047884034,1442826,47,-161,2118,8539
38547435,4028,0,-0.37710294,-0.19328482,-9.998364,-0.0006903223,0.0046589244,-0.047322027,58.63712,156.9064,0.0047884034,1442826,-90,-148,2359,8533
38651430,4024,0,-0.28874776,0.066276826,-10.27207,0.0028224573,0.0047280034,-0.04616762,58.65651,156.9064,0.0047884034,1442826,-56,-267,2273,8540
38751407,4001,0,-0.10670596,-0.20479454,-10.319408,0.0013078277,0.0054316535,-0.04560563,58.65097,156.9064,0.0047884034,1442826,-412,-209,1803,8538
38855406,3950,0,0.5054703,1.4088748,-9.844091,0.0042340453,0.006566507,-0.03659533,58.7036,156.9064,0.0047884034,1442826,-18,19,2047,8557
38959406,3993,0,0.00082767836,0.22864668,-9.740607,-0.00067449076,-0.011554813,-0.042244192,58.69529,156.9064,0.0047884034,1442826,699,154,2322,8554
39059426,4020,0,-0.13454074,-1.3086158,-10.169647,0.00057377754,-0.008595659,-0.041744225,58.6759,156.9064,0.0047884034,1442826,241,17,2042,8547
39159438,4032,0,-0.28499353,-1.3720325,-10.1562195,0.0010080698,0.0068434565,-0.03860039,58.68698,156.9064,0.0047884034,1442826,-447,-100,1995,8551
39263440,4034,0,0.6677958,1.4713064,-9.544512,0.0022554323,0.006986555,-0.040439952,58.736843,156.9064,0.0047884034,1442826,12,122,2063,8569
39363406,3991,0,0.07664483,0.50379723,-9.853938,-0.0058895466,-0.009468587,-0.04111393,58.71191,156.9064,0.0047884034,1442826,471,285,1996,8560
39467454,4014,0,0.48434225,0.951628,-9.662859,0.017357914,0.013526199,-0.035887,58.70914,156.9064,0.0047884034,1442826,334,-837,2004,8559
39565008,4002,0,-0.5809277,-0.53050214,-10.129431,-0.004330433,0.013083702,-0.039540872,58.742382,156.9064,0.0047884034,1442826,5,-181,1836,8571
39669014,4008,0,0.32972777,1.2050953,-9.7673025,0.00035213557,0.0012873835,-0.04012518,58.74515,156.9064,0.0047884034,1442826,863,-95,1986,8572
39773035,4029,0,-0.22816668,-0.03183886,-9.926264,0.014095599,0.00073942455,-0.033986364,58.772854,156.9064,0.0047884034,1442826,88,-594,2271,8582
39873007,4001,0,-0.3125515,-0.10080582,-9.676196,-0.00014192145,-0.0039808215,-0.049435683,58.74792,156.9064,0.0047884034,1442826,-251,-374,3031,8573
39977038,4032,0,0.5178216,0.12535399,-10.152152,-0.0033189962,0.011855175,-0.046363514,58.756233,156.9064,0.0047884034,1442826,90,174,1758,8576
40077013,4006,0,-0.57149655,0.28233242,-10.144085,-0.01308731,0.002399487,-0.051288765,58.778393,156.9064,0.0047884034,1442826,-188,-258,2098,8584
40181006,3957,0,1.0089921,0.3365574,-10.24688,-0.002603753,0.002452859,-0.036976494,58.772854,156.9064,0.0047884034,1442826,-156,747,1804,8582
40281006,4000,0,-0.8276318,0.40294015,-10.377043,-0.004533967,0.0014092677,-0.05086726,58.789474,156.9064,0.0047884034,1442826,-327,-674,1822,8588
40381007,4001,0,1.4571112,0.49283573,-10.175461,0.00592154,0.010128699,-0.035277072,58.775623,156.9064,0.0047884034,1442826,552,957,1530,8583
40485054,4048,0,0.20463361,0.12608454,-10.498917,-0.0088525545,0.0027549204,-0.038177833,58.797783,156.9064,0.0047884034,1442826,1075,714,905,8591
40585006,3959,0,-0.5802278,-0.19586092,-9.369355,-0.023254238,0.0032491195,-0.035599805,58.806095,156.9064,0.0047884034,1442826,-338,-286,2226,8594
40689054,4048,0,-0.2365795,0.3989647,-9.742669,-0.01730734,0.0018950818,-0.031639986,58.800552,156.9064,0.0047884034,1442826,335,-95,1439,8592
40785812,4006,0,0.038296387,0.14925635,-10.94858,0.01882506,-0.00017829589,-0.03901344,58.795013,156.9064,0.0047884034,1442826,398,-1453,199,8590
40890632,4026,0,0.542897,0.09075643,-9.133294,-0.01432723,0.0030794796,-0.049619853,58.847645,156.9064,0.0047884034,1442826,-447,1297,3432,8609
40990614,4008,0,-0.074622005,0.6666755,-10.175161,-0.0004948195,0.007269304,-0.050254002,58.808865,156.9064,0.0047884034,1442826,-1009,-287,818,8595
41094632,4019,0,0.34886461,-0.1011314,-9.078625,-0.012767352,0.0020539495,-0.034360807,58.831024,156.9064,0.0047884034,1442826,-1050,-189,2384,8603
41194610,4003,0,0.21295501,0.09209733,-10.589222,0.00833794,-0.0039154184,-0.024643188,58.853184,156.9064,0.0047884034,1442826,384,479,2148,8611
41294610,4004,0,0.32764938,0.2661815,-9.9185295,0.007817559,0.0071959943,-0.048283078,58.817173,156.9064,0.0047884034,1442826,891,99,2907,8598
41398616,4010,0,0.2507771,-0.28525183,-10.13105,0.0018961395,-0.0061831395,-0.03973261,58.836563,156.9064,0.0047884034,1442826,222,-799,1113,8605
41498606,3974,0,0.63853407,-1.0172617,-9.480455,0.011571988,-0.0068403017,-0.030218102,58.875347,156.9064,0.0047884034,1442826,-467,275,3297,8619
41598638,4022,0,0.4248284,0.16871166,-9.841289,-0.0082269795,-0.0002533925,-0.03741946,58.894737,156.9064,0.0047884034,1442826,-513,-67,1118,8626
41702606,3991,0,0.6611043,0.5294577,-9.4661455,0.009587176,-0.0039357655,-0.043445725,58.875347,156.9064,0.0047884034,1442826,421,-172,2731,8619
41802606,3982,0,0.3538389,-0.8386416,-11.11209,-0.010161627,-0.004051294,-0.05318782,58.900276,156.9064,0.0047884034,1442826,557,-284,-200,8628
41906650,4044,0,-0.003592276,-0.63421386,-10.467181,-0.014921946,0.006910879,-0.049658038,58.883656,156.9064,0.0047884034,1442826,-704,79,336,8622
42006618,4011,0,0.026964664,1.2043229,-10.054498,-0.002725138,0.002634489,-0.05217998,58.916897,156.9064,0.0047884034,1442826,208,-444,-283,8634
42108214,4000,0,0.45606202,0.655429,-10.644091,-0.0036153828,-0.010628019,-0.03669149,58.900276,156.9064,0.0047884034,1442826,-486,772,2013,8628
42212213,4007,0,-0.06791933,-0.64715695,-11.480065,-0.008814435,-0.00304773,-0.05844755,58.936287,156.9064,0.0047884034,1442826,-192,-281,1396,8641
42312206,3999,0,-0.6028345,-0.48491207,-10.83204,-0.0047422247,0.0059021986,-0.0408438,58.958447,156.9064,0.0047884034,1442826,-437,-589,2113,8649
42412207,3980,0,-0.23900357,0.84692746,-10.319106,0.0021359518,0.019095324,-0.04883296,58.941826,156.9064,0.0047884034,1442826,-437,-701,2905,8643
42516207,3969,0,0.27353913,1.1465946,-10.600767,-2.8297072e-05,-0.00013353955,-0.030649016,58.933517,156.9064,0.0047884034,1442826,837,949,2920,8640
42616206,4000,0,0.38999984,-0.22985017,-10.450496,0.0020654476,-0.0071332115,-0.055535097,58.925205,156.9064,0.0047884034,1442826,-222,-679,1826,8637
42716207,4001,0,0.039145093,-0.99703145,-11.052187,0.002374719,-0.0039147763,-0.047149356,58.930748,156.9064,0.0047884034,1442826,358,-561,1802,8639
42820207,4000,0,-0.33789474,0.62061733,-10.117181,-0.012971379,0.0051116957,-0.045267545,58.955677,156.9064,0.0047884034,1442826,-668,464,1830,8648
42920213,3986,0,-0.63584304,1.5101994,-9.664344,-0.0050900737,0.006809345,-0.036344696,58.930748,156.9064,0.0047884034,1442826,-127,-639,1823,8639
43020207,4000,0,-0.21616584,0.45377296,-10.350968,0.005180469,0.0019970664,-0.04715321,58.98338,156.9064,0.0047884034,1442826,408,-904,2937,8658
43124266,4059,0,-0.02655132,-0.9336612,-10.598273,-0.0069767074,0.005909243,-0.028427713,58.972298,156.9064,0.0047884034,1442826,-76,441,2722,8654
43224207,4000,0,-0.28235945,-0.03402927,-10.099821,-0.0018951655,0.007944782,-0.047753625,58.950138,156.9064,0.0047884034,1442826,-173,-656,2402,8646
43325831,4025,0,0.05986911,1.1041188,-10.33875,0.015200497,-0.0025927364,-0.044376846,58.975067,156.9064,0.0047884034,1442826,31,-239,1013,8655
43429844,4005,0,-0.047742102,0.110872716,-10.235888,0.0001997361,-0.000597519,-0.04178854,58.99446,156.9064,0.0047884034,1442826,-60,-431,2787,8662
43533807,3994,0,-0.037952133,-1.3312153,-10.834616,-0.0048833196,-0.00051918457,-0.029257338,59.01385,156.9064,0.0047884034,1442826,29,334,1745,8669
43633806,4000,0,-0.17736574,0.4571319,-9.673554,-0.0058215456,0.011874687,-0.030219555,59.011078,156.9064,0.0047884034,1442826,32,106,3456,8668
43733806,4000,0,-0.12892589,1.1595345,-9.583042,0.01604218,0.0056981593,-0.03830661,59.01662,156.9064,0.0047884034,1442826,389,-146,3378,8670
43837814,4008,0,-0.06423009,-0.38839945,-10.467279,-0.0052185287,-0.0017939153,-0.044976607,59.0277,156.9064,0.0047884034,1442826,-408,-645,1949,8674
43937806,3979,0,-0.083338566,-0.86218715,-10.8983345,0.009625607,-0.0021518464,-0.033662517,59.03878,156.9064,0.0047884034,1442826,519,-414,884,8678
44041810,4004,0,-0.21329209,0.6335106,-9.784193,0.0016814406,0.0030363714,-0.041181725,59.0277,156.9064,0.0047884034,1442826,-659,-49,2645,8674
44141806,3999,0,-0.15211424,0.9131478,-9.610202,-0.002701266,-0.0053077843,-0.046453893,59.01385,156.9064,0.0047884034,1442826,694,-122,720,8669
45475424,4018,0,-0.8183674,-0.21259996,-9.88037,-0.005733166,0.011511252,-0.05165033,59.135735,156.9064,0.0047884034,1442826,199,-1208,1825,8713
45575406,4000,0,-0.24718544,0.76809114,-8.656278,-0.005176339,0.012676097,-0.035824824,59.160664,156.9064,0.0047884034,1442826,-140,170,3391,8722
45679445,3999,0,-0.52295256,0.23191495,-9.736962,-0.007730549,-0.008603726,-0.04425877,59.13019,156.9064,0.0047884034,1442826,266,-859,1023,8711
45781006,4000,0,0.38302556,-1.0855492,-9.747898,-0.017447457,-0.0034191685,-0.05764734,59.146812,156.9064,0.0047884034,1442826,-1092,355,936,8717
45881013,3968,0,0.058106426,-1.6580356,-9.6309395,-0.003497894,-0.0076204557,-0.04027032,59.141273,156.9064,0.0047884034,1442826,-1671,-15,590,8715
45981007,4001,0,0.076871656,0.6153627,-9.291621,0.0049001565,0.009223269,-0.053411983,59.160664,156.9064,0.0047884034,1442826,-643,-98,1049,8722
46085006,3976,0,0.3891541,1.34288,-9.549533,0.008974458,0.0022413642,-0.02855384,59.210526,156.9064,0.0047884034,1442826,676,-398,403,8740
46185027,4021,0,-0.043722782,-0.23795672,-10.044991,0.010111764,-0.007861875,-0.04308435,59.202217,156.9064,0.0047884034,1442826,-523,-772,1254,8737
46285006,3988,0,-0.03542074,-1.0407605,-10.0289345,-0.011798066,-0.006406318,-0.050646603,59.213295,156.9064,0.0047884034,1442826,-980,-1494,-365,8741
46389023,4017,0,-0.7313503,0.42884713,-9.279855,-0.000978504,0.0110116005,-0.039606523,59.221607,156.9064,0.0047884034,1442826,221,-544,3366,8744
46489017,4011,0,-0.19530179,1.1441954,-8.585547,-0.015357358,0.0032289498,-0.043404177,59.191135,156.9064,0.0047884034,1442826,194,808,4718,8733
46593006,3993,0,0.25143147,-0.14210516,-9.69783,-0.009390706,-0.004523767,-0.03340214,59.207756,156.9064,0.0047884034,1442826,1090,286,1904,8739
46693006,3979,0,0.27738535,-1.5450288,-9.745084,-0.002239028,-0.0065805083,-0.028286852,59.260387,156.9064,0.0047884034,1442826,-497,948,2398,8758
46793012,4006,0,0.45414385,-0.5864818,-9.709621,0.010569943,0.0065608844,-0.030609276,59.216064,156.9064,0.0047884034,1442826,216,-251,-56,8742
46897006,3971,0,0.11650074,1.5149882,-9.382007,0.0024418295,0.0022032978,-0.039734337,59.246536,156.9064,0.0047884034,1442826,408,-68,884,8753
46998606,3990,0,0.129316,0.74884164,-9.843386,0.0089955805,-0.005083504,-0.046718203,59.240997,156.9064,0.0047884034,1442826,597,-690,1070,8751
47102616,4010,0,0.34236145,-1.2721356,-10.045749,0.0049038534,-0.010050661,-0.045556743,59.265926,156.9064,0.0047884034,1442826,-628,-197,524,8760
47202662,4055,0,-0.38602903,-0.84053713,-9.350723,0.008783612,0.004997335,-0.039861403,59.28809,156.9064,0.0047884034,1442826,-1164,-546,3399,8768
47302606,4000,0,-0.15945196,0.5557797,-8.996168,-0.0050241104,0.014405145,-0.038045473,59.30748,156.9064,0.0047884034,1442826,274,-241,1475,8775
47402608,4002,0,0.15505922,1.2753242,-9.069855,-0.00906346,-0.0011593255,-0.051906653,59.29086,156.9064,0.0047884034,1442826,-560,883,1887,8769
47606620,4007,0,0.31606346,-1.4791665,-10.213485,-0.0033359537,-0.0036602104,-0.02736869,59.285316,156.9064,0.0047884034,1442826,-547,481,1834,8767
47710633,4026,0,-0.38084272,0.49856383,-9.963729,-0.009121534,0.016514417,-0.04102456,59.28809,156.9064,0.0047884034,1442826,-391,-455,1253,8768
47810606,4000,0,-0.067573376,1.8804398,-9.460958,-0.017542237,0.012704376,-0.0683294,59.318558,156.9064,0.0047884034,1442826,-230,-310,1192,8779
47910606,3999,0,-0.45115545,0.8141275,-9.940296,-0.010718547,-0.001735792,-0.038585152,59.36565,156.9064,0.0047884034,1442826,71,-354,2882,8796
48014606,3999,0,0.15519883,-1.6291132,-11.157695,0.0074328505,-0.016534753,-0.058180228,59.34349,156.9064,0.0047884034,1442826,-858,-698,693,8788
48114607,4000,0,0.29184407,-0.55406404,-10.039773,0.010737385,-0.0016385306,-0.02412507,59.34626,156.9064,0.0047884034,1442826,-197,471,4841,8789
48216206,3957,0,-0.29286805,1.0186785,-9.762602,0.014561848,0.0057372595,-0.023113139,59.34349,156.9064,0.0047884034,1442826,440,529,3142,8788
48316208,3991,0,-0.080957375,1.4516085,-9.620442,0.015121399,-0.00087182,-0.035239995,59.34349,156.9064,0.0047884034,1442826,-69,-337,3459,8788
48420206,3933,0,0.3731291,-0.8135645,-10.467221,-0.00072758296,-0.018996285,-0.03796751,59.38227,156.9064,0.0047884034,1442826,344,-136,2635,8802
48520221,3994,0,0.6094379,-1.230008,-11.049883,0.0035300918,0.004445912,-0.03903911,59.36011,156.9064,0.0047884034,1442826,86,316,162,8794
48620206,3959,0,0.47392982,-0.43320528,-10.03459,0.00048611662,-0.0029005215,-0.03607967,59.4072,156.9064,0.0047884034,1442826,-1472,417,2154,8811
48724234,4028,0,-0.10571111,1.3705907,-9.21965,-0.0056123156,0.0037502272,-0.023828346,59.393353,156.9064,0.0047884034,1442826,250,100,2643,8806
48824211,4004,0,0.32217473,0.38497862,-10.254599,-0.006043694,-0.007953792,-0.037003793,59.393353,156.9064,0.0047884034,1442826,453,470,2690,8806
48924206,3979,0,0.20050314,-1.4920788,-10.61502,-0.0013225293,-0.013028502,-0.04020668,59.396122,156.9064,0.0047884034,1442826,-410,-167,2623,8807
49028227,4018,0,-0.5287001,-0.2385867,-10.229342,-0.0064692856,0.012259137,-0.03419573,59.396122,156.9064,0.0047884034,1442826,-226,-159,257,8807
49132215,3988,0,0.097075336,1.5450466,-10.045409,0.008785682,0.0010376847,-0.04861062,59.44044,156.9064,0.0047884034,1442826,763,-778,-251,8823
49232206,3996,0,0.38797042,0.76916295,-10.365147,0.017591868,-0.0032056738,-0.04588348,59.409973,156.9064,0.0047884034,1442826,840,-404,2221,8812
49336243,4037,0,0.3116081,-1.6690022,-10.150026,-0.0081338445,-0.0051777223,-0.0282493,59.44044,156.9064,0.0047884034,1442826,-223,1146,4117,8823
49437806,4000,0,0.16242976,-0.387591,-9.754151,-0.0083573265,0.005599269,-0.022638094,59.448753,156.9064,0.0047884034,1442826,-538,897,2833,8826
49537828,4022,0,0.070249304,1.4745575,-9.275197,-0.009172523,0.010649091,-0.033818103,59.445984,156.9064,0.0047884034,1442826,369,333,2465,8825
49641806,4000,0,-0.16956647,0.15392126,-9.818443,-0.004017731,-0.002434409,-0.062063124,59.43767,156.9064,0.0047884034,1442826,14,-294,3096,8822
49741806,3994,0,0.5078722,-0.9701448,-10.586715,-0.008936709,-0.007148151,-0.038656265,59.462605,156.9064,0.0047884034,1442826,709,61,2045,8831
49841806,3999,0,-0.03117732,-0.82776785,-10.10481,-0.0060732975,0.007452559,-0.035073552,59.481995,156.9064,0.0047884034,1442826,-42,-74,1862,8838
49945806,3990,0,-0.19980147,1.455568,-9.687354,0.008553128,-0.00039419893,-0.02978554,59.487534,156.9064,0.0047884034,1442826,-693,-541,2630,8840
50045814,4008,0,-0.12332522,1.4478064,-9.711602,0.007898363,0.0006474756,-0.03786509,59.509693,156.9064,0.0047884034,1442826,149,-564,3452,8848
50145807,4001,0,0.37600267,0.09200369,-9.372428,-0.006697662,-0.00068565994,-0.05307411,59.495846,156.9064,0.0047884034,1442826,758,-1202,2340,8843
50249806,4000,0,-0.32761183,0.040216316,-7.438606,0.00082523073,0.010826096,-0.03346454,59.523544,156.9064,0.0047884034,1442826,750,-713,4004,8853
50353806,4000,0,0.34541982,0.68819743,-7.264715,-0.0151675325,-0.02026968,-0.030098882,59.512466,156.9064,0.0047884034,1442826,-878,384,1913,8849
50453807,4001,0,0.22076915,0.20484714,-8.254891,0.007410581,-0.008885037,-0.02415632,59.493073,156.9064,0.0047884034,1442826,24,863,3682,8842
50558606,4750,0,0.18021011,-0.7882675,-8.618308,0.0011162143,-0.004768161,-0.034991127,59.531857,156.9064,0.0047884034,1442826,-966,957,913,8856
50659407,4000,0,-0.66434056,0.39859793,-9.010088,-0.006924948,-0.000949814,-0.066665605,59.529087,156.9064,0.0047884034,1442826,-714,-997,188,8855
50759407,3985,0,0.12415134,1.0522274,-8.773835,-0.0020266175,0.0010443076,-0.035028636,59.534626,156.9064,0.0047884034,1442826,-493,-440,-434,8857
50863452,4039,0,0.416715,-0.96113604,-9.960109,0.0063413945,-0.00083147443,-0.022313872,59.515236,156.9064,0.0047884034,1442826,386,266,1865,8850
50963407,4000,0,0.013434827,-1.6234936,-10.120543,0.0038917426,-0.008220128,-0.016079932,59.567867,156.9064,0.0047884034,1442826,377,568,4202,8869
51063406,3998,0,-0.46486267,-0.469624,-10.603799,-0.002429653,0.005720906,-0.059599206,59.567867,156.9064,0.0047884034,1442826,-1124,-633,-421,8869
51167406,4000,0,-0.51572275,1.7484472,-9.919926,0.00382102,0.013009083,-0.0404109,59.562325,156.9064,0.0047884034,1442826,527,-853,220,8867
51267426,4020,0,-0.2820615,1.207713,-10.314783,0.011823507,0.0016030017,-0.043235283,59.548477,156.9064,0.0047884034,1442826,505,-538,2246,8862
51367406,4000,0,-0.012295446,-0.07982223,-10.391829,-0.009879041,-0.0035207646,-0.07098618,59.60111,156.9064,0.0047884034,1442826,273,-1700,803,8881
51471406,4000,0,-0.57850426,-0.9802459,-10.104491,0.004576656,-0.0041219913,-0.026407314,59.603878,156.9064,0.0047884034,1442826,-1102,-39,4947,8882
51571406,3988,0,-0.58561265,0.23993899,-10.105715,-0.0068974704,0.013141567,-0.044607393,59.587257,156.9064,0.0047884034,1442826,-450,-118,2533,8876
51671406,4000,0,-0.31326842,1.5533828,-9.659629,-0.0046926234,0.008837822,-0.034047887,59.60111,156.9064,0.0047884034,1442826,16,-150,1587,8881
51773007,3998,0,0.6940152,0.95183825,-10.267846,0.010593131,0.0019267236,-0.030304357,59.595566,156.9064,0.0047884034,1442826,1382,134,122,8879
51877063,4026,0,0.55523324,-1.4109421,-11.410111,-0.0038596245,-0.0050995103,-0.032196045,59.592796,156.9064,0.0047884034,1442826,205,103,-2706,8878
51981032,4025,0,-0.093465246,-0.73508966,-10.312092,-0.009993082,-0.005086325,-0.025367733,59.6205,156.9064,0.0047884034,1442826,-629,197,1530,8888
52085007,3996,0,-0.119035184,1.726971,-9.368201,-0.0028436035,0.00046818564,-0.01836776,59.626038,156.9064,0.0047884034,1442826,1235,313,2844,8890
52185006,3999,0,-0.002864578,0.42087606,-10.0506935,0.015005606,-0.013982575,-0.023960471,59.631577,156.9064,0.0047884034,1442826,457,24,4262,8892
52285007,4000,0,0.04504955,-0.8419444,-10.585426,-0.002794008,-0.0094176335,-0.05807835,59.65374,156.9064,0.0047884034,1442826,-457,-179,3244,8900
52389020,4014,0,-0.19036204,-0.23162292,-10.205916,0.011221326,-0.0015260132,-0.029230881,59.628807,156.9064,0.0047884034,1442826,-1063,-357,1622,8891
52489007,3940,0,-0.3457357,0.83578414,-9.9398775,0.0056649433,0.005592479,-0.044248305,59.66205,156.9064,0.0047884034,1442826,-82,-1475,843,8903
52589007,4001,0,-0.099456206,1.3977885,-9.700583,-0.0028303077,0.0055570155,-0.020572219,59.65651,156.9064,0.0047884034,1442826,639,111,790,8901
52693041,4028,0,0.13992015,-0.31269118,-10.696439,-0.006610185,-0.0047795125,-0.053908408,59.66759,156.9064,0.0047884034,1442826,626,120,539,8905
52793007,4000,0,0.4877701,-0.8373765,-10.121348,-0.0040753377,-0.0028457234,-0.037305474,59.65374,156.9064,0.0047884034,1442826,622,1573,3901,8900
52897006,4000,0,-0.3740839,0.20367573,-9.96162,-0.0118039735,0.0037704776,-0.035899542,59.69806,156.9064,0.0047884034,1442826,-1448,558,3110,8916
52997829,4023,0,0.17940149,1.5215455,-9.495885,-0.0042162435,0.0053923987,-0.054191425,59.720222,156.9064,0.0047884034,1442826,-239,683,1572,8924
53097815,4002,0,-0.47302467,1.3449527,-9.9290085,0.0038719825,-0.0029959618,-0.047472306,59.67313,156.9064,0.0047884034,1442826,213,-1693,-81,8907
53201813,4002,0,-0.38098186,-0.9360027,-10.657527,0.006047086,-0.000972582,-0.031710867,59.68421,156.9064,0.0047884034,1442826,1915,-583,1752,8911
53301806,4000,0,-0.11783907,-0.78440684,-10.148551,-0.0033910733,-0.0018194341,-0.02696532,59.65651,156.9064,0.0047884034,1442826,184,-379,1272,8901
53405840,4033,0,-0.60486877,1.2708985,-9.640651,-0.006684782,0.014144425,-0.0606307,59.75069,156.9064,0.0047884034,1442826,136,-1173,-593,8935
53509829,4016,0,-0.47249144,0.7235277,-10.1018305,0.019981284,0.00039074232,-0.050856594,59.739613,156.9064,0.0047884034,1442826,947,67,3370,8931
53609852,4045,0,0.20545301,-0.81630975,-10.462674,-0.016933486,-0.008906152,-0.07044785,59.739613,156.9064,0.0047884034,1442826,854,228,2381,8931
53709813,4007,0,0.2452446,-1.4993018,-10.381285,-0.004061896,0.0039636213,-0.0129239345,59.70083,156.9064,0.0047884034,1442826,1159,759,1572,8917
53813854,4047,0,0.07253282,0.625142,-9.537088,-0.0010118689,-0.0015872868,-0.017797071,59.76454,156.9064,0.0047884034,1442826,206,485,2715,8940
53913806,3979,0,0.2466109,1.3910621,-9.284278,0.007955008,-0.0033903844,-0.050820097,59.753464,156.9064,0.0047884034,1442826,-404,251,2825,8936
54013849,4038,0,-0.2823856,0.5137754,-10.222099,0.0049433797,-0.003311262,-0.036815338,59.736843,156.9064,0.0047884034,1442826,931,-928,590,8930
54117829,3987,0,0.23114671,-1.2849348,-10.527607,-0.002603446,-0.0054958705,-0.048778024,59.781162,156.9064,0.0047884034,1442826,-874,-516,1159,8946
54217807,3994,0,-0.4103266,-0.6807904,-9.700508,-0.0045927805,0.006786591,-0.027103066,59.756233,156.9064,0.0047884034,1442826,-518,711,3163,8937
54321807,4000,0,0.03022419,1.7892356,-9.108477,-0.005158422,0.005969286,-0.032567095,59.795013,156.9064,0.0047884034,1442826,213,987,2561,8951
54421819,4013,0,-0.53931254,0.802998,-10.259754,0.008349717,-9.696139e-05,-0.0417048,59.756233,156.9064,0.0047884034,1442826,1045,-1333,2,8937
54523409,3997,0,0.6378471,-0.79810804,-10.270361,-0.0032772948,-0.0054489095,-0.051089965,59.772854,156.9064,0.0047884034,1442826,955,382,3754,8943
54627413,4007,0,-0.3451138,-0.28086358,-10.4138565,0.008883292,0.006951021,-0.062399916,59.806095,156.9064,0.0047884034,1442826,-1054,-783,1121,8955
54727407,4001,0,-0.33782157,0.79728997,-9.162638,0.008863347,0.009229083,-0.026509492,59.811634,156.9064,0.0047884034,1442826,-21,-718,2216,8957
54831406,3958,0,-0.057922658,0.9964908,-10.004278,0.011589883,-0.011416415,-0.06621195,59.789474,156.9064,0.0047884034,1442826,-1203,-886,939,8949
54931406,4000,0,-0.059696224,-0.18586165,-10.531775,0.0014405202,-0.01381096,-0.04713654,59.808865,156.9064,0.0047884034,1442826,-429,-1086,-329,8956
55035470,4057,0,-0.0059734574,-1.5436739,-10.837716,0.0061680973,-0.0066752234,-0.05099966,59.811634,156.9064,0.0047884034,1442826,-1685,-171,1312,8957
55135407,4001,0,-0.7073482,-0.72653115,-9.858362,-0.00084758736,0.017846609,-0.03262328,59.825485,156.9064,0.0047884034,1442826,262,-1043,1196,8962
55235406,3985,0,-0.42203847,0.39472786,-8.754415,-0.009146212,0.010746323,-0.050380014,59.842106,156.9064,0.0047884034,1442826,-1224,736,3965,8968
55339446,4033,0,-0.36509404,0.96267104,-9.991328,0.0023988523,0.0019561655,-0.046280157,59.822716,156.9064,0.0047884034,1442826,1015,-931,2154,8961
55439451,4045,0,0.08288706,-0.67009944,-10.0080595,-0.005377059,0.00058338046,-0.0321776,59.822716,156.9064,0.0047884034,1442826,1924,-510,2804,8961
55543456,4029,0,-0.15160353,-1.0098872,-10.217661,0.0069030896,-0.0059236074,-0.041658346,59.864265,156.9064,0.0047884034,1442826,-307,6,1757,8976
55643430,4024,0,-0.6705815,0.49209797,-10.241342,0.006794258,0.0043383194,-0.04326444,59.886425,156.9064,0.0047884034,1442826,-741,-965,897,8984
55745006,3979,0,-0.22493394,1.1583575,-9.301239,0.016259516,0.0042563034,-0.033688027,59.894737,156.9064,0.0047884034,1442826,-739,-696,745,8987
55845027,4021,0,-0.13827202,0.97977173,-9.537263,0.017371772,-0.011615157,-0.03812462,59.880886,156.9064,0.0047884034,1442826,1211,-415,2850,8982
55945006,4000,0,0.041630987,-0.37494087,-10.346057,0.004597903,-0.018388398,-0.06292117,59.878117,156.9064,0.0047884034,1442826,814,-526,1735,8981
56049006,3943,0,-0.1217144,-1.2179428,-10.230698,-0.00458515,0.01211834,-0.017687567,59.883656,156.9064,0.0047884034,1442826,19,54,537,8983
56149006,4000,0,-0.4520997,0.027676694,-9.406891,-0.011168722,0.011769858,-0.02981082,59.903046,156.9064,0.0047884034,1442826,-347,652,2956,8990
56253006,3990,0,0.043315068,0.696941,-9.487405,0.011336141,-0.0059736287,-0.037239663,59.930748,156.9064,0.0047884034,1442826,1219,-181,2828,9000
56357006,4000,0,0.053220388,-0.9166953,-10.50729,-0.001102427,0.010268076,-0.030571217,59.911358,156.9064,0.0047884034,1442826,240,-251,-670,8993
56457006,3996,0,-0.061614413,-0.6429727,-9.665923,0.0023370504,0.0056647416,-0.037078615,59.922436,156.9064,0.0047884034,1442826,-1086,18,2791,8997
56561006,3995,0,0.0025418745,1.1413494,-9.228831,-0.0077236784,0.0062827384,-0.017064616,59.911358,156.9064,0.0047884034,1442826,531,664,2724,8993
56661006,4000,0,-0.365126,0.9030973,-9.366352,-0.010001551,0.0033938223,-0.02138716,59.925205,156.9064,0.0047884034,1442826,1477,187,3580,8998
56761007,4001,0,0.56774354,-0.16303559,-10.027701,-0.0009934921,0.0038760628,-0.03870843,59.955677,156.9064,0.0047884034,1442826,-441,-572,1457,9009
56866633,4027,0,-0.26494953,-0.47037083,-9.7067175,-0.001151834,0.006343745,-0.032030236,59.9446,156.9064,0.0047884034,1442826,145,264,3121,9005
56966628,4021,0,-0.34629795,0.5267801,-9.068982,-0.001192433,0.010727622,-0.039942853,59.941826,156.9064,0.0047884034,1442826,1336,-484,2813,9004
57066606,3999,0,-0.36492038,1.6920179,-9.342014,0.00640592,0.010099905,-0.03712951,59.914127,156.9064,0.0047884034,1442826,1772,-146,4047,8994
57170606,3993,0,0.5726551,-0.85524476,-10.019936,0.00015832065,-0.007842768,-0.03949965,59.952908,156.9064,0.0047884034,1442826,-670,702,2566,9008
57270606,3993,0,0.03364029,-1.4482003,-10.821095,-0.006442409,-0.0039731152,-0.05261658,59.955677,156.9064,0.0047884034,1442826,-719,428,2010,9009
57370640,4034,0,-0.1788771,-0.8583088,-10.2101755,-0.013414414,-0.0029790644,-0.052029118,59.98892,156.9064,0.0047884034,1442826,-688,55,-71,9021
57474615,4008,0,-0.27913186,1.396774,-8.924371,0.0024830129,0.010715445,-0.04209002,60.0,156.9064,0.0047884034,1442826,146,-255,3516,9025
57574607,4001,0,-0.16656947,0.56034297,-9.648395,-0.006307819,0.0021557421,-0.033228412,59.975067,156.9064,0.0047884034,1442826,754,-193,3729,9016
57678607,4001,0,0.20456845,-1.4614549,-10.080722,0.0083298385,-0.0076131215,-0.034379773,59.98615,156.9064,0.0047884034,1442826,527,521,3577,9020
57782606,3999,0,0.4239022,0.16659361,-9.303487,0.0051340237,0.008217675,-0.008089375,60.011078,156.9064,0.0047884034,1442826,857,1082,3294,9029
57882607,4000,0,0.25102758,0.9179344,-9.637955,0.0034184335,0.0013653816,-0.029168863,60.00554,156.9064,0.0047884034,1442826,262,569,1223,9027
57982606,3977,0,0.78273594,1.0976663,-9.362864,0.007855928,-0.00017171586,-0.0310437,60.0277,156.9064,0.0047884034,1442826,1428,1310,3219,9035
58087406,3967,0,0.33973664,-1.2102914,-10.027382,-0.004731208,0.0004100653,-0.041986555,60.0277,156.9064,0.0047884034,1442826,-458,-654,1494,9035
58187406,3999,0,-0.4342671,-1.1100352,-9.823725,-0.013976009,0.008265113,-0.057818905,60.01662,156.9064,0.0047884034,1442826,-1178,-369,2159,9031
58287437,4031,0,-0.66701144,-0.30035725,-9.501988,-0.00427052,0.019986924,-0.044448536,60.03601,156.9064,0.0047884034,1442826,-1000,-589,1398,9038
58391407,4000,0,-0.37405542,1.4426634,-9.659317,0.013789229,-0.009728965,-0.049404297,60.06094,156.9064,0.0047884034,1442826,-150,-1410,1491,9047
58491407,3998,0,-0.40242928,0.37433803,-9.904806,0.008195825,-0.0043979534,-0.05584654,60.03601,156.9064,0.0047884034,1442826,-20,-1533,175,9038
58595410,4003,0,0.43760258,-1.5415317,-10.732921,0.0036745719,-0.009819601,-0.038494404,60.04432,156.9064,0.0047884034,1442826,415,573,1824,9041
58695406,3993,0,-0.038318675,-0.5750266,-10.245343,0.009208175,-7.325411e-05,-0.034615852,60.09695,156.9064,0.0047884034,1442826,768,923,3758,9060
58795407,4000,0,-0.03307415,1.0529829,-9.269353,0.0059940093,-0.0010999484,-0.04212291,60.069252,156.9064,0.0047884034,1442826,36,403,2599,9050
58899431,4025,0,0.09678992,0.54291654,-9.912368,-0.0047812243,-0.004716102,-0.036452234,60.06094,156.9064,0.0047884034,1442826,-650,-223,1033,9047
58999437,4030,0,0.61703604,-0.721773,-10.07592,-0.008910916,-0.012131896,-0.026551368,60.08033,156.9064,0.0047884034,1442826,-222,875,2867,9054
59099407,3994,0,0.27680987,-1.5713578,-10.550166,-0.0064360835,-0.010102379,-0.03870261,60.07479,156.9064,0.0047884034,1442826,-1406,-236,-1345,9052
59203413,4007,0,-0.81978846,0.8771902,-9.881263,-0.007951796,0.017391615,-0.050162654,60.08033,156.9064,0.0047884034,1442826,493,-1352,1410,9054
59303407,4001,0,-0.31210572,1.7602435,-9.405696,0.0027605589,0.014214225,-0.041803937,60.085873,156.9064,0.0047884034,1442826,1223,-615,2756,9056
59407406,3969,0,0.9904104,-0.061172016,-10.135803,0.013324752,-0.0077448664,-0.035752963,60.09418,156.9064,0.0047884034,1442826,361,642,2523,9059
59511407,3992,0,0.11927067,-1.3559756,-10.328877,-0.0050979434,-0.0013051289,-0.038910218,60.09695,156.9064,0.0047884034,1442826,-1078,624,3386,9060
59613007,4001,0,-0.2237533,-0.25165027,-9.20915,-0.009730226,0.009012463,-0.04781354,60.105263,156.9064,0.0047884034,1442826,-1424,239,2329,9063
59713047,4004,0,0.063661225,1.163277,-8.538075,-0.008565978,0.0069235964,-0.019338645,60.108032,156.9064,0.0047884034,1442826,368,1031,4838,9064
59813006,4000,0,0.63557136,1.1651881,-9.059311,-0.0028109183,0.009134413,-0.021556279,60.088642,156.9064,0.0047884034,1442826,-762,779,3115,9057
59917006,3993,0,0.07106906,-0.6479608,-10.6617775,0.015036913,-0.011316435,-0.04455565,60.1108,156.9064,0.0047884034,1442826,117,-821,1481,9065
60017006,4000,0,-0.0139470985,-1.2395262,-10.815836,0.0043945685,-0.016009053,-0.051635727,60.141273,156.9064,0.0047884034,1442826,-740,42,2499,9076
60121006,4000,0,0.55967164,0.93899125,-9.075309,0.0029850854,0.007736679,-0.017711718,60.11357,156.9064,0.0047884034,1442826,-502,754,2273,9066
60221006,3969,0,0.16500211,1.2814329,-8.753704,-0.006006708,0.0077582314,-0.021563448,60.144043,156.9064,0.0047884034,1442826,-1099,499,2520,9077
60321006,3999,0,0.33854726,0.6090004,-9.344249,-0.0027765413,-0.008446682,-0.03323862,60.155125,156.9064,0.0047884034,1442826,-950,492,2482,9081
60425016,4010,0,-0.08559164,-0.9735834,-10.241813,-0.0005328427,0.0016119236,-0.04637102,60.152355,156.9064,0.0047884034,1442826,835,-386,3495,9080
60525006,4000,0,-0.66564447,-0.74725306,-10.217319,0.0022122336,0.006326527,-0.049083486,60.160664,156.9064,0.0047884034,1442826,-1218,-918,543,9083
60629019,4013,0,0.28470537,1.5759051,-9.052899,-0.00041257287,0.0068869432,-0.013543647,60.163433,156.9064,0.0047884034,1442826,737,927,3760,9084
60726606,4000,0,0.20442688,1.601398,-9.825282,0.0076154117,-0.002161196,-0.04592132,60.185596,156.9064,0.0047884034,1442826,983,615,2797,9092
60830606,3994,0,0.28812295,-0.30346125,-10.161211,-0.020020952,-0.0050089974,-0.05274383,60.204987,156.9064,0.0047884034,1442826,-1264,-97,616,9099
60934606,3968,0,-0.19530174,-0.6721248,-9.87601,0.016282972,0.011283826,-0.023013087,60.180054,156.9064,0.0047884034,1442826,-313,-18,2026,9090
61034606,4000,0,0.06399734,0.16331664,-9.404478,0.008566199,0.00021707726,-0.047829267,60.188366,156.9064,0.0047884034,1442826,-564,0,2659,9093
61138606,3999,0,0.0048515094,1.3070602,-9.778103,-0.012018994,-0.0010144938,-0.044707447,60.193905,156.9064,0.0047884034,1442826,-386,109,689,9095
61238606,3980,0,0.42025608,0.507941,-9.929384,0.00075013866,0.007958147,-0.028138334,60.199444,156.9064,0.0047884034,1442826,1247,-394,254,9097
61338640,4019,0,0.4689256,-0.7884475,-10.3451805,-0.0075426153,-0.012845062,-0.05205258,60.191135,156.9064,0.0047884034,1442826,-153,-66,2003,9094
61442635,4019,0,0.019053727,-0.16705565,-10.018958,0.0061458135,0.0030352015,-0.034267873,60.174515,156.9064,0.0047884034,1442826,-409,-687,-2488,9088
61542627,4021,0,0.49606678,1.1503178,-9.306624,0.0050089844,0.0053498857,-0.028018553,60.218838,156.9064,0.0047884034,1442826,691,811,1883,9104
61646606,4000,0,-0.46143094,1.2080611,-10.067216,-0.0005197567,0.0007308569,-0.058881328,60.240997,156.9064,0.0047884034,1442826,-138,-1162,1471,9112
61746606,4000,0,0.11214709,-0.36185807,-10.144303,0.005415447,-0.0019204593,-0.054212827,60.240997,156.9064,0.0047884034,1442826,1973,93,3264,9112
61848207,4001,0,0.19980852,-0.94842607,-10.612617,0.0074974685,-0.0013018377,-0.023367431,60.235455,156.9064,0.0047884034,1442826,1101,525,2882,9110
61948207,4000,0,-0.1485162,-0.07756253,-10.287778,0.0023747252,-0.008439053,-0.046433017,60.243767,156.9064,0.0047884034,1442826,-850,-584,273,9113
62052207,4000,0,-0.08954664,0.92456937,-9.471966,-0.008443917,0.007260967,-0.046517104,60.263157,156.9064,0.0047884034,1442826,-735,82,431,9120
62152207,4000,0,-0.17148189,0.6588087,-9.744997,0.00956214,-0.001894708,-0.035269983,60.277008,156.9064,0.0047884034,1442826,808,-1038,3228,9125
62252206,4000,0,0.2736244,-0.7687588,-10.435966,0.0079197865,-0.0066267233,-0.029237539,60.28809,156.9064,0.0047884034,1442826,244,-412,2477,9129
62356206,3993,0,-0.32308012,-0.6427285,-9.630461,-0.002479517,0.0133832665,-0.018433765,60.279778,156.9064,0.0047884034,1442826,148,522,4218,9126
62456206,3977,0,-0.36825404,0.7988918,-8.829522,0.0014094606,0.010675997,-0.027586937,60.285316,156.9064,0.0047884034,1442826,-1527,-463,2785,9128
62560206,4000,0,0.12184936,0.7418114,-10.008061,0.005016279,-0.00599756,-0.042267047,60.299168,156.9064,0.0047884034,1442826,572,500,3192,9133
62664206,3984,0,-0.21240368,-0.89679515,-10.121386,0.0019594014,0.0055706603,-0.012144379,60.282547,156.9064,0.0047884034,1442826,720,-41,3314,9127
62764206,4000,0,0.055799145,-0.2022316,-9.354558,0.0020868313,-0.0008531745,-0.023346663,60.279778,156.9064,0.0047884034,1442826,-1096,430,4403,9126
62868206,3976,0,-0.04488169,1.2018759,-9.443938,-0.006715662,0.0029088967,-0.047651455,60.31302,156.9064,0.0047884034,1442826,-562,-488,686,9138
62969825,4019,0,-0.20067178,0.6601781,-9.833813,0.0048589977,-0.009953693,-0.054813042,60.285316,156.9064,0.0047884034,1442826,538,-443,3920,9128
63069806,3979,0,0.039452422,-1.138565,-10.143468,0.010115217,-0.007676323,-0.028647196,60.31025,156.9064,0.0047884034,1442826,626,478,3583,9137
63169816,4010,0,-0.16130243,-1.3024609,-10.47334,-0.012784934,-0.00831579,-0.044856094,60.32964,156.9064,0.0047884034,1442826,-600,14,1647,9144
63273809,4003,0,0.18735299,0.87563115,-9.014523,0.0012010478,0.0011901236,-0.05188143,60.31579,156.9064,0.0047884034,1442826,1615,43,2309,9139
63373812,4005,0,0.21835908,0.98869026,-9.048196,-0.0064321803,-0.015429656,-0.04926328,60.34626,156.9064,0.0047884034,1442826,-183,295,1834,9150
63473831,4025,0,-0.18271004,-0.36949652,-9.555534,-0.005130482,0.007805586,-0.0327025,60.32687,156.9064,0.0047884034,1442826,1447,177,3549,9143
63577844,4038,0,0.33744997,-1.1024424,-10.284628,-0.0024474943,-0.0031288746,-0.042821012,60.33241,156.9064,0.0047884034,1442826,1036,699,1745,9145
63681807,3994,0,-0.61733526,0.93938684,-9.819779,0.002922147,0.0059026773,-0.05003073,60.34626,156.9064,0.0047884034,1442826,-552,-1224,207,9150
63781807,3994,0,0.18784896,1.1099074,-10.0184355,0.011469165,-0.0027827667,-0.03286906,60.39058,156.9064,0.0047884034,1442826,-7,2,1671,9166
63881807,3977,0,0.3776919,0.15418698,-9.923804,0.006054597,-0.01415586,-0.034454457,60.3795,156.9064,0.0047884034,1442826,409,824,2808,9162
63985851,4044,0,-0.19075374,-0.73927027,-10.2474375,-0.0032540136,0.0032308595,-0.040145993,60.34349,156.9064,0.0047884034,1442826,-16,-591,2117,9149
64083406,3999,0,-0.42068678,-0.4890091,-10.134359,0.00057401555,-0.0024846003,-0.0330057,60.36842,156.9064,0.0047884034,1442826,-1044,-338,1786,9158
64187439,4033,0,0.15315257,0.850283,-9.366692,-0.007403835,-0.0024129816,-0.044408683,60.393353,156.9064,0.0047884034,1442826,-579,-244,367,9167
64287406,4000,0,0.2690456,0.5201532,-9.423251,-0.007323402,-0.0047832006,-0.038592502,60.36565,156.9064,0.0047884034,1442826,1062,534,3115,9157
64387406,4000,0,0.4375978,-0.4784434,-10.1449375,-0.010045682,0.0014087908,-0.02616105,60.3795,156.9064,0.0047884034,1442826,105,898,2647,9162
64491408,3995,0,-0.18218803,-0.8095732,-10.518175,0.0073928344,-0.0025909883,-0.055918586,60.393353,156.9064,0.0047884034,1442826,-431,-365,2248,9167
64591438,4032,0,0.06647311,0.6559666,-9.636547,0.014033446,0.010677016,-0.03814993,60.40166,156.9064,0.0047884034,1442826,486,458,3217,9170
64695427,4020,0,0.3688186,1.3285046,-9.62793,-0.011016181,-0.006735603,-0.030191744,60.415512,156.9064,0.0047884034,1442826,-1326,327,1229,9175
64795406,3988,0,0.6514347,-0.0059663504,-9.637186,-0.009228662,-0.017202053,-0.036605366,60.40443,156.9064,0.0047884034,1442826,-421,946,4241,9171
64895407,4000,0,0.38365147,-0.99336857,-9.715009,-0.006780943,-0.0031860876,-0.027102988,60.415512,156.9064,0.0047884034,1442826,192,1159,3683,9175
64999406,3961,0,-0.5639358,-0.07227414,-9.961345,0.0032896595,0.0065616155,-0.050709963,60.41828,156.9064,0.0047884034,1442826,129,-564,2563,9176
65099406,4000,0,-0.35925642,1.0146343,-9.415091,0.005550175,0.008825605,-0.046745546,60.41828,156.9064,0.0047884034,1442826,-356,-612,2814,9176
65201006,4794,0,0.14651978,1.7368356,-9.358593,0.008344814,-0.0060476447,-0.05458677,60.44044,156.9064,0.0047884034,1442826,1443,469,3877,9184
65301006,4000,0,0.3640435,0.30259973,-10.719389,0.021119962,-0.009554198,-0.050348032,60.412743,156.9064,0.0047884034,1442826,469,-297,2021,9174
65405006,3980,0,0.2813838,-1.5565714,-9.990348,-0.0053710192,0.00032263016,-0.01806521,60.451523,156.9064,0.0047884034,1442826,-930,-29,24,9188
65505027,4014,0,-0.11690001,-1.2230246,-9.838449,-0.0045277146,0.00026673544,-0.029908458,60.45706,156.9064,0.0047884034,1442826,-2186,31,1609,9190
65605006,3988,0,0.21921386,0.779154,-8.823579,-0.0037931618,0.001011411,-0.03788037,60.473682,156.9064,0.0047884034,1442826,-1445,1165,3353,9196
65709011,4005,0,0.11404468,0.91861033,-9.612828,-0.012574531,0.00042544422,-0.044568628,60.462605,156.9064,0.0047884034,1442826,912,346,2685,9192
65809006,4000,0,0.178431,-0.7643414,-10.280554,-0.009941642,-0.011527459,-0.0583844,60.481995,156.9064,0.0047884034,1442826,358,-314,1604,9199
65913006,4000,0,-0.22644213,-1.0160933,-10.129375,-0.0017592587,0.010976051,-0.042856418,60.493073,156.9064,0.0047884034,1442826,20,25,2659,9203
66013006,3979,0,-0.6592486,-0.017807823,-9.619339,-0.009033559,0.0122022,-0.045523405,60.473682,156.9064,0.0047884034,1442826,239,-610,2060,9196
66113009,4003,0,-0.54077476,1.6366998,-9.58424,-0.010760104,0.006127349,-0.051688015,60.470913,156.9064,0.0047884034,1442826,-349,-431,-189,9195
66217006,3998,0,-0.18171759,-0.1469132,-10.034907,0.0034776628,-0.012791118,-0.048970632,60.504154,156.9064,0.0047884034,1442826,-170,-1001,3552,9207
66317812,4806,0,-0.32099435,-1.4694052,-10.751483,-0.010553174,-0.006282966,-0.06976193,60.481995,156.9064,0.0047884034,1442826,673,-1309,-555,9199
66418606,4000,0,-0.42955264,-1.4428313,-10.100221,-0.01826278,0.0015308656,-0.05774638,60.506924,156.9064,0.0047884034,1442826,-371,-352,868,9208
66522655,4049,0,-0.5647371,0.8043286,-9.527643,-0.0001475371,-0.0048451703,-0.053107966,60.498615,156.9064,0.0047884034,1442826,-1318,-1165,1938,9205
66622613,4007,0,-0.2570946,1.5275759,-9.6776495,-0.0059233382,0.010899859,-0.035474654,60.526314,156.9064,0.0047884034,1442826,685,-220,499,9215
66722607,3996,0,1.0504291,0.24584772,-9.718496,0.010519818,-0.01333704,-0.03982706,60.542934,156.9064,0.0047884034,1442826,-1148,563,3204,9221
66826607,4001,0,-0.0048504453,-1.7107013,-10.150792,-0.0066698333,-0.0039119595,-0.044237178,60.512466,156.9064,0.0047884034,1442826,-1397,289,1046,9210
66926645,4038,0,0.1948692,-0.11931692,-9.864818,0.0024430915,0.002556857,-0.03770011,60.537395,156.9064,0.0047884034,1442826,462,-30,1864,9219
67030627,4020,0,0.053555552,1.4948666,-9.03292,0.006658487,-0.0026341681,-0.021323893,60.540165,156.9064,0.0047884034,1442826,130,692,4052,9220
67130607,4000,0,0.03692667,1.012649,-10.195933,0.009706184,-0.0048023555,-0.05686123,60.540165,156.9064,0.0047884034,1442826,1021,-789,1260,9220
67230606,3999,0,0.33212805,-0.8092102,-10.338004,-0.007512366,-0.013554469,-0.03936778,60.559555,156.9064,0.0047884034,1442826,-263,-269,2013,9227
67330616,4009,0,-0.051778194,-1.4997146,-10.082923,-0.0086108465,0.0046208417,-0.03952167,60.556786,156.9064,0.0047884034,1442826,-26,1151,2931,9226
67435406,4787,0,-0.4252512,0.18156257,-9.611032,-0.010173405,0.015489094,-0.04590187,60.556786,156.9064,0.0047884034,1442826,348,-674,937,9226
67536250,4004,0,0.18602423,2.13098,-9.007714,-0.009857228,0.010886504,-0.050203145,60.58172,156.9064,0.0047884034,1442826,582,501,2219,9235
67636213,4005,0,0.37954974,1.124007,-9.764801,-0.00016984419,-0.013340665,-0.03349602,60.606647,156.9064,0.0047884034,1442826,-237,161,2465,9244
67740206,3980,0,0.6811649,-1.2674694,-10.066879,-0.0076405955,-0.004747704,-0.0540907,60.609417,156.9064,0.0047884034,1442826,-1047,833,2803,9245
67840234,3993,0,-0.19093527,-1.0591732,-10.283849,-0.0013374988,-0.0029949713,-0.045954436,60.576176,156.9064,0.0047884034,1442826,149,-258,1012,9233
67940206,3978,0,-0.5563425,0.013515451,-9.775183,0.0021664668,0.003929053,-0.04229986,60.59834,156.9064,0.0047884034,1442826,-1113,-398,1205,9241
68044244,4029,0,-0.2042707,1.4513417,-9.53031,0.013540954,-0.0011958187,-0.048499294,60.603878,156.9064,0.0047884034,1442826,-714,-607,1307,9243
68144237,4030,0,-0.52933407,0.6457536,-10.000559,0.0056918818,-0.0065905848,-0.047497354,60.612186,156.9064,0.0047884034,1442826,763,-1308,2976,9246
68244215,3989,0,0.024543446,-0.81105334,-10.883764,-0.008090877,-0.00044502388,-0.055582777,60.60111,156.9064,0.0047884034,1442826,1215,-905,936,9242
68348207,3974,0,-0.12604985,-0.6707916,-9.861715,0.0031660395,0.013115913,-0.03893721,60.65097,156.9064,0.0047884034,1442826,787,52,3307,9260
68452207,4000,0,0.21816373,1.3883644,-9.23618,0.0045415135,0.0045061857,-0.029945534,60.61773,156.9064,0.0047884034,1442826,355,40,3555,9248
68553806,4000,0,-0.309192,1.266011,-9.831079,-0.0028240308,-0.001171384,-0.067749426,60.592796,156.9064,0.0047884034,1442826,1126,-875,636,9239
68653807,3992,0,0.033828,-0.17860217,-10.230424,-0.009405225,-0.005386461,-0.048954144,60.63435,156.9064,0.0047884034,1442826,-108,34,2105,9254
68757813,4007,0,-0.52713585,-1.1091965,-10.3796,-0.008308765,0.011322777,-0.048666622,60.6759,156.9064,0.0047884034,1442826,-153,-956,149,9269
68857856,4050,0,0.008793824,-0.4067153,-9.3217325,-0.009179115,0.010551209,-0.030057695,60.66205,156.9064,0.0047884034,1442826,-768,1436,4797,9264
68961818,4012,0,-0.42498788,2.0156114,-9.136689,-0.010379409,0.010557214,-0.05380851,60.65097,156.9064,0.0047884034,1442826,31,522,3513,9260
69061806,4000,0,0.61298245,0.8918472,-9.80455,-0.002948523,-0.015172119,-0.03266209,60.664818,156.9064,0.0047884034,1442826,-234,133,1976,9265
69161806,3999,0,0.6389302,-0.55366623,-10.552222,0.013038601,-0.0064808177,-0.036603775,60.664818,156.9064,0.0047884034,1442826,851,467,2824,9265
69979407,4000,0,0.17111821,0.6189481,-10.10985,0.0011038808,-0.0073527577,-0.071614504,60.684208,156.9064,0.0047884034,1442826,-430,-696,1560,9272
70079406,4000,0,0.5211388,-0.7043801,-10.413128,-0.009336231,-5.499064e-05,-0.044655476,60.68698,156.9064,0.0047884034,1442826,145,709,371,9273
70179406,3974,0,0.121464215,-1.7563632,-10.211779,0.0035519104,-0.008914382,-0.038230043,60.71468,156.9064,0.0047884034,1442826,-359,-428,410,9283
70283442,4036,0,-0.22293918,0.3361626,-9.505356,0.008708017,0.00047681225,-0.014893174,60.72576,156.9064,0.0047884034,1442826,140,-204,2478,9287
70383406,3999,0,-0.2687548,1.6507388,-8.865682,-0.0039352495,0.008842075,-0.025132542,60.75069,156.9064,0.0047884034,1442826,212,-1138,2429,9296
70487406,4000,0,-0.43468508,0.12129686,-10.344065,-0.0036891613,0.0012582538,-0.045212988,60.71745,156.9064,0.0047884034,1442826,1486,-735,898,9284
70587428,4022,0,0.74925953,-1.0433884,-9.899854,0.007158362,-0.0087251635,-0.023937438,60.722992,156.9064,0.0047884034,1442826,-370,1025,4761,9286
70687406,4000,0,-0.32193977,-1.1700833,-10.54939,0.0007319211,0.0010842737,-0.049503513,60.742382,156.9064,0.0047884034,1442826,137,63,1627,9293
70789008,3979,0,-0.9636947,0.003345566,-9.590362,-0.0028026146,0.018921357,-0.03371833,60.739613,156.9064,0.0047884034,1442826,171,-1511,-34,9292
70893020,4013,0,-0.4832988,1.5386363,-9.604771,-0.009283434,0.0036328274,-0.043638054,60.78393,156.9064,0.0047884034,1442826,726,-824,1445,9308
70997013,4006,0,0.11742579,-0.4957691,-10.513351,-0.009781608,-0.0016707265,-0.061049275,60.759003,156.9064,0.0047884034,1442826,511,139,1243,9299
71101007,4000,0,-0.27337176,-0.9158467,-9.98247,-0.019313097,0.016968615,-0.06569174,60.74515,156.9064,0.0047884034,1442826,-691,442,89,9294
71201008,3982,0,0.015512556,0.59033823,-9.78241,0.012148696,0.0133573655,-0.031578727,60.781162,156.9064,0.0047884034,1442826,864,315,2241,9307
71301037,4024,0,-0.7742167,1.3733069,-9.033925,-0.0091333855,0.019954104,-0.053192344,60.76731,156.9064,0.0047884034,1442826,706,-850,893,9302
71405013,3971,0,-0.18512832,0.53606683,-9.668972,-0.0108198235,-0.004665372,-0.060657665,60.789474,156.9064,0.0047884034,1442826,139,-88,3158,9310
71505034,4027,0,0.36669493,-0.9242707,-10.435833,0.016522028,-0.0025346032,-0.04320807,60.795013,156.9064,0.0047884034,1442826,648,163,1608,9312
71605006,3972,0,0.6937667,-1.089359,-9.22753,-0.011100217,-0.0030124763,-0.01567771,60.7867,156.9064,0.0047884034,1442826,313,626,1919,9309
71709013,4007,0,-0.5085178,0.9968504,-8.905179,0.004992023,0.0034575835,-0.026156653,60.800552,156.9064,0.0047884034,1442826,383,-237,3284,9314
71809007,3953,0,0.12707727,1.2857157,-9.054901,-0.0048004813,-0.0019129498,-0.04916527,60.797783,156.9064,0.0047884034,1442826,-10,1117,2951,9313
71910606,3954,0,0.5170191,-0.14216559,-9.545567,0.010570526,-0.008862243,-0.024250165,60.797783,156.9064,0.0047884034,1442826,197,506,3855,9313
72010606,3968,0,-0.22991191,-0.8746181,-10.216947,-0.022979513,-0.007851271,-0.070003934,60.836563,156.9064,0.0047884034,1442826,424,-366,1015,9327
72114632,3997,0,-0.95982426,-0.09506467,-9.805299,-0.0075132055,0.017345427,-0.04258655,60.836563,156.9064,0.0047884034,1442826,231,625,3803,9327
72214608,4000,0,0.15383077,0.95180595,-9.704214,-0.0019604508,0.0013961811,-0.06432595,60.833794,156.9064,0.0047884034,1442826,-1285,-36,1017,9326
72314606,3993,0,-0.22124653,1.5661674,-9.644481,0.0032725,0.011599695,-0.045520585,60.828255,156.9064,0.0047884034,1442826,828,-837,945,9324
72418640,4034,0,0.21896724,-1.0817484,-10.011504,-0.011854546,-0.014875468,-0.047359437,60.850414,156.9064,0.0047884034,1442826,-882,787,3903,9332
72518626,4020,0,0.011259537,-1.5844005,-10.713277,-0.00188562,-0.008906322,-0.04132867,60.836563,156.9064,0.0047884034,1442826,-309,840,3256,9327
72622607,4001,0,-0.23621553,0.8256566,-9.433759,-0.0010329315,0.004405364,-0.037391074,60.839333,156.9064,0.0047884034,1442826,-244,-558,1162,9328
72722606,4000,0,-0.67243296,1.4260352,-9.549702,-0.0063393274,0.011087556,-0.049943216,60.864265,156.9064,0.0047884034,1442826,1593,-787,2046,9337
72822630,4024,0,0.70491356,1.0289068,-9.357643,0.0037235618,0.0028400626,-0.04416839,60.855953,156.9064,0.0047884034,1442826,1487,984,2617,9334
72926610,3966,0,0.548015,-1.5229721,-10.510969,-0.008604007,-0.012945614,-0.03375343,60.858727,156.9064,0.0047884034,1442826,-352,1253,5004,9335
73028230,4017,0,-0.46851,-0.8948739,-10.196699,0.00057030946,0.0018764148,-0.0688827,60.847645,156.9064,0.0047884034,1442826,-1252,-173,2013,9331
73128206,3986,0,-0.32505968,0.46445695,-9.454759,-0.015142323,0.012485735,-0.05210766,60.883656,156.9064,0.0047884034,1442826,-516,498,1951,9344
73228206,4000,0,0.07901477,1.4917946,-9.931761,0.0044944435,0.009850037,-0.06711777,60.883656,156.9064,0.0047884034,1442826,-294,-362,-1163,9344
73332206,4000,0,-0.46857536,0.13264938,-9.9154,0.013135539,0.0028843256,-0.039891746,60.880886,156.9064,0.0047884034,1442826,597,44,3755,9343
73432212,4006,0,0.8543363,-1.3720347,-9.968037,-0.002461532,-0.015529119,-0.019051641,60.891968,156.9064,0.0047884034,1442826,-924,1085,4630,9347
73536206,3976,0,0.09930798,-0.64705133,-10.226454,0.00075403263,-0.0068812454,-0.041696224,60.864265,156.9064,0.0047884034,1442826,-907,-551,-1294,9337
73636229,4023,0,-0.898194,1.1562164,-9.276759,-0.0019178225,0.016087206,-0.040881116,60.886425,156.9064,0.0047884034,1442826,432,-926,1862,9345
73736206,4000,0,0.2403796,1.307229,-9.472501,0.003021075,-0.006553331,-0.03176096,60.92798,156.9064,0.0047884034,1442826,-543,-553,213,9360
73840206,4000,0,0.71328694,-0.18699183,-10.407177,0.009678835,-0.0023031463,-0.042164546,60.916897,156.9064,0.0047884034,1442826,1321,81,49,9356
73940206,4000,0,0.0051190704,-1.2445087,-10.220129,-0.011666305,0.0016376744,-0.04225505,60.92798,156.9064,0.0047884034,1442826,1197,651,3085,9360
74041806,4000,0,0.32483587,-0.7708801,-10.199436,-0.006409691,0.0069346284,-0.015544656,60.925205,156.9064,0.0047884034,1442826,1468,971,1647,9359
74145807,4000,0,-0.043945506,1.4458585,-9.644167,-0.002533736,0.004279928,-0.03752951,60.941826,156.9064,0.0047884034,1442826,1435,525,1698,9365
74245806,4000,0,-0.3329347,0.96213305,-9.473127,0.0034306254,-0.0003899167,-0.041844316,60.950138,156.9064,0.0047884034,1442826,-669,-1773,1634,9368
74345820,3992,0,1.4461628,0.023782423,-10.170161,0.00644514,-0.010318175,-0.0070555895,60.958447,156.9064,0.0047884034,1442826,1373,433,1528,9371
74449811,3998,0,0.15985855,-1.5892336,-10.429257,0.010864616,0.0012828476,-0.03724695,60.939056,156.9064,0.0047884034,1442826,-160,706,2758,9364
74549806,3999,0,-0.6478552,-0.15283301,-10.409675,-0.012980985,0.0148052145,-0.056786988,60.9446,156.9064,0.0047884034,1442826,-366,-198,-1728,9366
74649806,4000,0,-0.17348433,1.398433,-9.305874,0.013652455,0.016465612,-0.025161065,60.994457,156.9064,0.0047884034,1442826,964,-76,546,9384
74753806,3999,0,-0.28000656,0.4554336,-9.386779,0.01071713,-0.004944465,-0.033366792,60.98615,156.9064,0.0047884034,1442826,217,-934,3848,9381
74853835,4028,0,0.79367405,-0.9449393,-10.105135,0.0071347365,-0.007444459,-0.017025495,60.94737,156.9064,0.0047884034,1442826,1073,1068,4015,9367
74957806,3999,0,-0.40852156,-0.43418366,-10.435601,0.010128207,0.015604873,-0.03679905,60.96676,156.9064,0.0047884034,1442826,474,-122,282,9374
75061807,4000,0,-0.56278443,1.5927913,-9.267663,-0.003647502,0.00846044,-0.045061518,60.98615,156.9064,0.0047884034,1442826,-213,-1420,-269,9381
75163421,4015,0,0.5814173,0.94875765,-9.934894,-0.0049984655,-0.009495622,-0.034943216,60.98061,156.9064,0.0047884034,1442826,1994,407,2257,9379
75263406,4000,0,-0.14224087,-0.7626052,-10.46361,0.00018872367,-0.004215138,-0.040467467,61.011078,156.9064,0.0047884034,1442826,689,-1124,953,9390
75363427,4007,0,0.4862167,-0.9906213,-10.631334,0.0027339305,0.0017608742,-0.024372708,61.00554,156.9064,0.0047884034,1442826,957,888,1358,9388
75467433,4027,0,-0.4880067,0.8643854,-9.876926,0.020583834,0.007700878,-0.024788696,60.98338,156.9064,0.0047884034,1442826,-223,-191,2413,9380
75567449,4043,0,0.00032776195,1.2447985,-8.997176,-0.006615383,0.0046056192,-0.042546805,61.00831,156.9064,0.0047884034,1442826,-174,1383,4339,9389
75671407,3978,0,0.8756313,0.39107275,-10.265676,0.009045186,-0.0007871699,-0.039312147,61.02493,156.9064,0.0047884034,1442826,1143,590,1935,9395
75771406,3999,0,0.55361634,-1.0170871,-10.140206,-0.00898895,-0.004670106,-0.028865706,61.00277,156.9064,0.0047884034,1442826,878,731,1373,9387
75871406,3979,0,-0.48083982,-0.9505181,-9.702812,-0.008839973,0.013440672,-0.03901587,61.00831,156.9064,0.0047884034,1442826,321,-165,2164,9389
75975406,3987,0,0.20885466,1.3859589,-8.862639,-0.001457535,0.009741603,-0.026042769,61.0277,156.9064,0.0047884034,1442826,111,909,1799,9396
76075406,3978,0,-0.023503374,1.8951237,-9.217991,-0.0032459926,0.014625793,-0.045219198,61.03601,156.9064,0.0047884034,1442826,1343,-33,3505,9399
76179444,4037,0,1.4507992,-0.46149427,-10.299431,0.0014643392,-0.010435579,-0.03153507,61.03878,156.9064,0.0047884034,1442826,231,1177,1798,9400
76281006,3999,0,-0.10315913,-1.2666653,-10.260779,-0.0074280067,0.007558437,-0.031883538,61.049862,156.9064,0.0047884034,1442826,2156,-25,2278,9404
76385013,3991,0,-0.28758085,0.36228475,-9.988516,0.0016509879,0.0065084994,-0.036099605,61.03601,156.9064,0.0047884034,1442826,-902,-362,-351,9399
76485006,4000,0,-0.09788014,1.4491118,-8.892632,-0.0012495196,0.00068782084,-0.028916596,61.04432,156.9064,0.0047884034,1442826,-1192,302,2405,9402
76585006,3993,0,-0.21769223,0.4262321,-9.487317,0.0049802093,-0.0154612,-0.058959726,61.03878,156.9064,0.0047884034,1442826,-1433,-374,2552,9400
76689013,4007,0,0.41886646,-1.4299804,-10.281533,0.0044654054,-0.008758593,-0.025344286,61.047092,156.9064,0.0047884034,1442826,-383,210,2858,9403
76789006,3993,0,-0.2349971,-1.0009587,-9.824932,-0.010444725,0.006399662,-0.015604204,61.066483,156.9064,0.0047884034,1442826,209,387,2705,9410
76893015,4009,0,0.024577688,1.8724091,-9.271552,0.0077034333,-0.00064661284,-0.038781114,61.085873,156.9064,0.0047884034,1442826,133,-650,1214,9417
76993027,4021,0,0.20518051,1.0767719,-8.906877,-0.004073513,-0.0111204395,-0.02720974,61.09141,156.9064,0.0047884034,1442826,-905,1053,5138,9419
77093006,3999,0,0.45354503,0.36878833,-10.073812,-0.0081806835,-0.007938097,-0.045312446,61.07756,156.9064,0.0047884034,1442826,850,-535,2380,9414
77197006,4000,0,0.10344197,-1.4469591,-10.2029705,0.0055627455,-0.0041479906,-0.031650085,61.119114,156.9064,0.0047884034,1442826,-811,-447,905,9429
77297806,4000,0,0.021460678,-0.74146664,-9.665209,0.007020653,0.00079513993,-0.030463222,61.09141,156.9064,0.0047884034,1442826,-2125,136,1811,9419
77397806,4000,0,0.05396413,1.195958,-8.626729,-0.01663952,0.0145247355,-0.032243803,61.108032,156.9064,0.0047884034,1442826,1074,1289,2695,9425
77501806,3994,0,0.3612229,0.92432785,-9.894799,0.016942032,-0.0033283634,-0.059891306,61.141273,156.9064,0.0047884034,1442826,676,-376,2729,9437
77605836,4030,0,0.2992271,-0.98646086,-10.6512785,-0.021468483,-0.0003715842,-0.05185193,61.07756,156.9064,0.0047884034,1442826,-208,132,-795,9414
77705806,3979,0,-1.0342314,-0.4588024,-9.931965,-0.0027581067,-0.0022834758,-0.044521216,61.13019,156.9064,0.0047884034,1442826,-170,-1377,2559,9433
77805806,3990,0,-0.6175874,0.63568217,-9.4642105,0.015643006,0.008373227,-0.045888223,61.09695,156.9064,0.0047884034,1442826,-1134,270,3161,9421
77909813,4007,0,0.41162756,1.1239414,-9.424645,-0.0013600714,0.01136036,-0.04421798,61.121883,156.9064,0.0047884034,1442826,131,984,2499,9430
78009843,4036,0,-0.115844265,0.0041175135,-9.896832,-0.0043640686,-0.0022051332,-0.055934463,61.119114,156.9064,0.0047884034,1442826,-187,-800,487,9429
78113806,4000,0,-0.10309878,-1.2815847,-10.525802,-0.01216368,-0.0039641643,-0.05395121,61.155125,156.9064,0.0047884034,1442826,502,-272,867,9442
78213806,4000,0,-0.12618628,-0.037566446,-9.189694,-0.0046585756,-0.0002958353,-0.036203597,61.166203,156.9064,0.0047884034,1442826,-1571,545,3703,9446
78313807,4001,0,0.1063507,1.2951316,-8.842789,0.008772391,0.011073171,-0.046668116,61.177284,156.9064,0.0047884034,1442826,-156,-31,1824,9450
78417806,3970,0,0.67181265,-0.2277762,-9.420151,-0.0019624103,-0.008708976,-0.04817731,61.141273,156.9064,0.0047884034,1442826,62,642,2790,9437
78517806,4000,0,-0.060453307,-1.4105152,-10.142187,0.009247785,-0.00015862659,-0.026999239,61.174515,156.9064,0.0047884034,1442826,542,-367,4146,9449
79539407,3988,0,-0.35280523,0.41350895,-9.886145,0.00066080125,0.01120708,-0.032174658,61.216064,156.9064,0.0047884034,1442826,12,-68,482,9464
79643406,3999,0,0.34350398,1.3326409,-9.215319,0.00039433897,0.0025773877,-0.03849727,61.238228,156.9064,0.0047884034,1442826,579,-128,838,9472
79743407,3966,0,-0.33433247,0.016085442,-9.770013,-0.00038449513,-5.9154816e-05,-0.035215378,61.238228,156.9064,0.0047884034,1442826,1091,-1577,2448,9472
79845006,3995,0,0.4012824,-1.3150026,-10.991973,0.00026560435,-0.0009277285,-0.045762382,61.221607,156.9064,0.0047884034,1442826,-79,110,-723,9466
79949006,4000,0,-0.582316,0.20514424,-9.560532,0.008062258,0.0049627344,-0.040156532,61.252075,156.9064,0.0047884034,1442826,-500,-976,2244,9477
80053006,4000,0,-0.2647551,1.0990019,-9.008078,-0.009443166,-0.01456309,-0.050425213,61.27147,156.9064,0.0047884034,1442826,452,-793,2358,9484
80153007,3998,0,0.31464618,0.27762625,-9.902717,0.012320053,-0.011473112,-0.043044187,61.243767,156.9064,0.0047884034,1442826,331,-1031,989,9474
80257007,4000,0,-0.6227234,-1.7188628,-10.925789,-0.011443755,-0.013013131,-0.049627725,61.235455,156.9064,0.0047884034,1442826,102,-1050,1237,9471
80361007,4001,0,-0.5681492,0.10840083,-9.37119,-0.0024064824,0.00613622,-0.029536873,61.277008,156.9064,0.0047884034,1442826,-2586,-178,2032,9486
80461036,4005,0,0.09781004,1.9033458,-9.137312,0.0044489754,0.012965379,-0.03172425,61.221607,156.9064,0.0047884034,1442826,1328,-355,1055,9466
80565006,3995,0,-0.13759825,-0.0044185524,-10.037455,-0.0041960776,-0.002231541,-0.047962017,61.282547,156.9064,0.0047884034,1442826,913,-621,2160,9488
80665006,3977,0,0.53164625,-1.3818872,-10.714717,0.0103294095,-0.007119715,-0.047193605,61.27147,156.9064,0.0047884034,1442826,699,-243,-441,9484
80765006,4000,0,-0.116047285,-1.4819393,-10.215758,-0.0048944536,-0.00080535916,-0.025326174,61.277008,156.9064,0.0047884034,1442826,-542,858,2919,9486
80866606,3993,0,0.07750516,0.27757132,-9.625031,-0.0051188488,0.00678684,-0.04428485,61.263157,156.9064,0.0047884034,1442826,685,-132,318,9481
80966606,4000,0,0.24659978,1.5014337,-8.3821945,-0.014854219,0.018213583,-0.03401331,61.304707,156.9064,0.0047884034,1442826,836,1268,1986,9496
81070606,4000,0,0.5139745,0.3048498,-10.065733,0.0012596988,0.00021463004,-0.048239104,61.31302,156.9064,0.0047884034,1442826,902,48,556,9499
81170606,4000,0,0.43892795,-0.7503263,-9.889937,0.0025736513,0.008554887,-0.023153454,61.25485,156.9064,0.0047884034,1442826,424,860,4923,9478
81274606,4000,0,-0.24368078,0.31228203,-9.230799,0.0033324305,0.016812824,-0.022520602,61.279778,156.9064,0.0047884034,1442826,161,743,3385,9487
81374641,4035,0,-0.1515102,1.3068999,-9.486452,0.005675782,0.0039805975,-0.030371046,61.304707,156.9064,0.0047884034,1442826,526,-563,43,9496
81474606,4000,0,-0.05919376,1.5384153,-9.117084,0.0011263144,-0.006351677,-0.026424468,61.301937,156.9064,0.0047884034,1442826,-34,318,4873,9495
81578606,4000,0,0.2125821,-1.5340048,-11.036576,-0.005488439,-0.015520491,-0.05104808,61.301937,156.9064,0.0047884034,1442826,-1082,-99,1093,9495
81678606,4000,0,0.26116914,-2.2688453,-11.192531,-0.0043334416,-0.011475505,-0.035543066,61.31302,156.9064,0.0047884034,1442826,100,-339,-465,9499
81882606,4000,0,-0.68052125,1.5057808,-9.44633,0.0075489357,0.019457811,-0.035513174,61.3241,156.9064,0.0047884034,1442826,608,-610,926,9503
81984206,3994,0,-0.009377519,0.9758681,-9.296507,-0.006902593,-0.008496542,-0.042561114,61.3241,156.9064,0.0047884034,1442826,-1119,518,3605,9503
82084206,3999,0,0.30836177,-0.092670426,-10.591573,0.018109357,-0.007981399,-0.031259682,61.36288,156.9064,0.0047884034,1442826,78,-325,1564,9517
82188207,3980,0,-0.0076618064,-0.9333535,-9.503924,-0.0065331673,0.011986813,-0.04146512,61.33241,156.9064,0.0047884034,1442826,-146,631,3903,9506
82288221,4015,0,-0.49383447,-0.19760594,-9.437575,-0.014197821,0.013852574,-0.052825686,61.32687,156.9064,0.0047884034,1442826,-565,-33,613,9504
82388212,3999,0,-0.28207615,1.3436345,-9.225336,0.0070775026,0.015218729,-0.021589532,61.34349,156.9064,0.0047884034,1442826,1124,-269,2529,9510
82492206,4000,0,0.50888187,0.7335602,-9.296355,0.0121057,-0.0053179953,-0.02251703,61.37396,156.9064,0.0047884034,1442826,1050,-424,1934,9521
82592239,4033,0,1.0952843,-0.5467476,-9.369136,-0.004951965,-0.01156603,-0.01746919,61.36288,156.9064,0.0047884034,1442826,-48,2091,6488,9517
82692206,3992,0,-0.27081487,-1.3585253,-10.4909525,-0.0048554046,-0.013868756,-0.048258994,61.36565,156.9064,0.0047884034,1442826,-1273,-1159,1435,9518
82796206,3985,0,-0.23111756,0.1495451,-9.417641,0.0016481506,0.011268199,-0.038618606,61.36011,156.9064,0.0047884034,1442826,-975,-356,2710,9516
