timestamp,integral_dt,error_count,x,y,z,x_integral,y_integral,z_integral,temperature,range_m_s2,scaling,device_id,x_raw,y_raw,z_raw,temperature_raw
38141932,4217,0,0.07231331,-0.045969848,-9.893563,0.0010547661,-0.0056069735,-0.04013337,45.625,78.0,0.0023928226,1114658,519,619,-3552,8379
38242752,5287,0,-0.17387031,-0.10634355,-10.09759,-0.00096901204,0.002571526,-0.0495727,45.625,78.0,0.0023928226,1114658,-252,476,-2519,8388
38344599,5285,0,0.039163414,0.33277577,-9.949634,0.0015473885,0.006780956,-0.053729888,45.5,78.0,0.0023928226,1114658,-308,1282,-3353,8193
38445365,4182,0,-0.33436328,-5.2797324e-05,-10.273008,0.0023564089,-0.0016069161,-0.04372299,45.5,78.0,0.0023928226,1114658,-426,1071,-3071,-3
38548323,4259,0,-0.54238397,-0.3873293,-10.192811,0.0006893116,-0.0006282736,-0.049156927,45.5,78.0,0.0023928226,1114658,-815,806,-4098,8541
38646965,6301,0,-0.35890436,-0.4705063,-9.325313,-0.0062608053,-6.5529202e-06,-0.0641186,45.625,78.0,0.0023928226,1114658,376,494,-2458,-3
38748814,5215,0,-0.17106837,-0.7074684,-9.793104,0.0040793596,0.0023660045,-0.0561587,45.5,78.0,0.0023928226,1114658,-150,1,-4172,16950
38853944,4330,0,0.21832402,1.3798668,-10.071774,0.0098572,0.012180625,-0.041142914,45.375,78.0,0.0023928226,1114658,129,1475,-3330,8384
38957764,4187,0,-0.029117242,0.9811587,-9.71136,-0.0064067272,-0.014472795,-0.041103095,45.5,78.0,0.0023928226,1114658,2518,395,-2974,8192
39058565,4200,0,-0.24221326,-1.416883,-10.061698,0.0066538244,-0.021173315,-0.041936122,45.5,78.0,0.0023928226,1114658,1234,534,-3338,16950
39159372,4207,0,-0.51564795,-2.229189,-10.016371,0.0045409664,0.008153008,-0.041399434,45.375,78.0,0.0023928226,1114658,-1764,947,-2999,8193
39262270,4205,0,0.5347098,1.4478053,-9.45218,0.0037801634,0.019071171,-0.04282253,45.5,78.0,0.0023928226,1114658,-448,1099,-4597,8402
39366240,4218,0,-0.588996,-0.69704264,-9.952428,-0.0015449477,-0.015843427,-0.04172649,45.5,78.0,0.0023928226,1114658,1035,-156,-3274,8192
39467031,4217,0,-0.12024161,0.7422671,-9.763466,0.03250981,0.0021985266,-0.038902618,45.5,78.0,0.0023928226,1114658,-475,2704,-2881,8393
39568865,5250,0,-0.6730561,-0.09770343,-9.662947,0.0045428975,0.019039312,-0.054948624,45.5,78.0,0.0023928226,1114658,628,1469,-4539,8193
39671768,4199,0,0.45703793,1.6737264,-9.9305525,0.0009401589,-0.019077318,-0.039652403,45.625,78.0,0.0023928226,1114658,3713,223,-1458,8394
39773615,5219,0,-0.58640164,-0.5303538,-9.614809,0.018467285,0.008262334,-0.046576712,45.375,78.0,0.0023928226,1114658,-1016,2878,-2912,8192
39876517,4182,0,-0.45189688,-1.3254875,-10.055487,0.005405639,0.010429672,-0.03583418,45.625,78.0,0.0023928226,1114658,-1744,1890,-2584,8392
39977320,4197,0,0.39133888,-0.15534918,-10.432725,-0.010539067,0.012190365,-0.05021202,45.625,78.0,0.0023928226,1114658,-2156,-18,-1493,8193
40079165,4201,0,-2.1972358,0.28819966,-10.634109,-0.0043710107,-0.0046857866,-0.04756218,45.5,78.0,0.0023928226,1114658,436,4720,-525,8390
40179968,4203,0,1.830855,0.01304375,-10.714078,0.020573746,0.017134786,-0.04493353,45.5,78.0,0.0023928226,1114658,-880,-2011,-2112,8192
40282885,4158,0,-1.9712743,0.6294463,-10.479786,0.01770787,-0.004994861,-0.04190682,45.375,78.0,0.0023928226,1114658,456,5012,-2522,-3
40384721,4203,0,2.2183957,1.121719,-10.116068,-0.040237404,0.0030782523,-0.021975864,45.5,78.0,0.0023928226,1114658,2955,-6045,-2246,8193
40485514,4199,0,0.63836545,0.34988967,-11.005916,-0.022388417,0.00917604,-0.015022181,45.5,78.0,0.0023928226,1114658,175,-2018,-864,2049
40587382,5224,0,-1.1325378,-0.30967045,-8.453537,-0.08919323,-0.005459779,-0.030789334,45.5,78.0,0.0023928226,1114658,-491,-2094,-5783,8193
40686104,4218,0,2.0499423,1.1307355,-10.985779,0.026968528,0.013093436,-0.052418172,45.5,78.0,0.0023928226,1114658,1949,-2525,-1454,-3
40786868,4076,0,-2.3818395,0.24664316,-10.763397,0.045124397,0.006925813,-0.06488128,45.5,78.0,0.0023928226,1114658,408,9026,-1346,8193
40888714,5167,0,-0.6674841,0.33990914,-9.107121,0.06039388,-0.0030159247,-0.046086352,45.375,78.0,0.0023928226,1114658,1062,4927,-4276,16949
40992665,4167,0,-0.8904646,0.79603475,-8.865843,-0.022382334,-0.009358009,-0.026838882,45.5,78.0,0.0023928226,1114658,-1534,1817,-5928,2048
41094515,4201,0,1.7338238,-0.16810676,-9.471531,-0.011347599,-0.004412191,-0.024947504,45.375,78.0,0.0023928226,1114658,593,-5615,-1830,8192
41196367,5208,0,-0.87202525,0.6720107,-10.567084,0.05669435,0.001981907,-0.03633191,45.625,78.0,0.0023928226,1114658,2387,4273,-1662,8193
41297186,4173,0,-0.094992444,0.3501359,-9.708015,0.008118466,0.009100408,-0.052985657,45.625,78.0,0.0023928226,1114658,1216,2712,-3633,8395
41398013,4249,0,0.4396946,-0.10682712,-10.180097,-0.021933952,-0.0026911974,-0.041529644,45.5,78.0,0.0023928226,1114658,1455,-2490,-3132,2049
41498809,4243,0,-0.79600674,-1.2893869,-8.896357,0.035394985,0.0024473039,-0.060594935,45.625,78.0,0.0023928226,1114658,189,5287,-5947,8393
41600615,5250,0,1.3443468,0.3389399,-9.859362,-0.013036254,-0.006417824,-0.02551878,45.5,78.0,0.0023928226,1114658,504,-4154,-2547,8397
41701422,4206,0,-0.65421,0.8304749,-8.818692,0.0016091093,-0.002238284,-0.03361395,45.5,78.0,0.0023928226,1114658,1965,4469,-5472,-4
41802254,4240,0,1.2771955,-0.56698895,-11.767905,0.017286185,-0.00026643148,-0.061635267,45.625,78.0,0.0023928226,1114658,1245,-2703,-2568,-4
41903052,4204,0,-1.6990719,-1.3455925,-9.65511,0.01800474,0.0026963083,-0.063572824,45.5,78.0,0.0023928226,1114658,-184,6056,-5351,-4
42009124,4259,0,0.74118346,1.7312964,-10.624103,0.020265235,-0.008357682,-0.031777024,45.5,78.0,0.0023928226,1114658,1959,-321,2535,8403
42109923,4259,0,1.2115672,1.0401341,-11.281304,-0.009975455,-0.012827946,-0.034459848,45.5,78.0,0.0023928226,1114658,3212,-4403,-142,8622
42210700,4236,0,1.0206374,-0.5280327,-10.953124,0.0052750153,0.013354356,-0.05893988,45.5,78.0,0.0023928226,1114658,198,-2775,-6376,8408
42310415,4191,0,0.62295187,-0.84608305,-11.622338,0.007826935,0.0012590658,-0.055490926,45.375,78.0,0.0023928226,1114658,-630,-3967,-490,8192
42411215,4200,0,0.7156508,0.16237742,-10.289982,-0.021072954,-0.00096147635,-0.012432377,45.625,78.0,0.0023928226,1114658,-1124,-3813,-3555,0
42516331,4309,0,-0.36434495,1.0919862,-10.874305,0.029849743,-0.009836963,-0.055096176,45.375,78.0,0.0023928226,1114658,715,2223,-3713,8408
42613941,5326,0,0.82084453,0.5984098,-9.516158,0.024549538,-0.008828537,-0.07292118,45.5,78.0,0.0023928226,1114658,1411,-785,-6941,8406
42718867,4161,0,-1.2289776,-1.2169732,-10.3092375,0.0011657056,-0.001220009,-0.042778634,45.5,78.0,0.0023928226,1114658,193,4986,-4661,8193
42819674,4125,0,0.026160514,0.74175805,-10.169486,0.028681688,0.009405989,-0.067958355,45.5,78.0,0.0023928226,1114658,-186,-35,-5318,2048
42916352,5337,0,-0.34847286,1.7533629,-10.008431,0.027293202,0.014660071,-0.0937448,45.5,78.0,0.0023928226,1114658,808,3041,-5241,8400
43019204,4240,0,0.70729446,0.26023066,-10.71276,-0.03377531,-0.0118998485,-0.0046770466,45.5,78.0,0.0023928226,1114658,267,-4272,-522,8659
43121100,5335,0,-0.67170584,-0.5949142,-10.789835,-0.0061490703,0.011387919,-0.090487644,45.375,78.0,0.0023928226,1114658,1635,2843,-5880,8400
43223919,4189,0,0.67562896,-0.5430853,-9.949468,-0.024748337,0.013944342,-0.026503598,45.625,78.0,0.0023928226,1114658,-1258,-3955,-3671,8406
43325764,5249,0,-1.663651,1.3301122,-9.495442,-0.013222322,0.020099342,-0.070003234,45.625,78.0,0.0023928226,1114658,232,4413,-7096,-3
43430809,4245,0,0.396519,-0.56913906,-9.936485,-0.023530005,-0.002430779,-0.010986646,45.5,78.0,0.0023928226,1114658,-462,-2608,-4659,0
43531596,4231,0,-1.1766576,-1.5132974,-10.286769,0.00438854,0.013871188,-0.08754803,45.625,78.0,0.0023928226,1114658,-265,3254,-7823,8193
43634464,4199,0,0.51684654,0.21989855,-11.39601,-0.012564854,0.0063490453,0.00427742,45.625,78.0,0.0023928226,1114658,-1105,-3048,-1221,2049
43736366,5301,0,-1.3704427,1.5007608,-9.197344,0.018540923,0.01051103,-0.08992972,45.5,78.0,0.0023928226,1114658,981,5593,-9503,-3
43835014,4167,0,-0.07760185,0.29741412,-10.070616,0.042892113,-0.015354468,-0.07636705,45.625,78.0,0.0023928226,1114658,1577,864,-4881,-3
43941124,5310,0,-0.96199054,-0.802511,-9.890533,0.03230969,0.0080616865,-0.053345025,45.75,78.0,0.0023928226,1114658,1346,4882,-4202,8390
44041935,4261,0,-0.28475702,0.711931,-9.765338,-0.015613006,0.01110102,-0.03135365,45.625,78.0,0.0023928226,1114658,851,126,-2078,8397
44140577,4174,0,-0.13919973,0.93246114,-9.1481495,0.0038716367,0.013246668,-0.036074,45.625,78.0,0.0023928226,1114658,-494,466,-4519,8397
45469925,4231,0,-0.056711815,-1.0395484,-9.668018,0.04474319,-0.009532885,-0.02674531,45.625,78.0,0.0023928226,1114658,1557,2703,-4430,8397
45567572,4217,0,-0.9766916,-1.1075629,-9.911169,-0.04102546,0.008150316,-0.0419266,45.625,78.0,0.0023928226,1114658,-1311,151,-839,8398
45672528,4174,0,-0.8137205,1.4406533,-8.127882,0.008873759,0.018762682,-0.046226397,45.625,78.0,0.0023928226,1114658,-926,4973,-6765,-4
45773330,4163,0,-0.7789809,0.2936146,-9.580958,-0.032369506,0.0024498662,-0.045435883,45.625,78.0,0.0023928226,1114658,2187,1585,-3637,8192
45874148,4202,0,1.2069974,-0.90587306,-10.364597,-0.027989728,0.0027215185,-0.034892403,45.625,78.0,0.0023928226,1114658,1440,-6253,-3892,8398
45975975,4209,0,0.5077478,-1.4184744,-10.4075165,-0.0043965545,-0.0029511864,-0.020767689,45.625,78.0,0.0023928226,1114658,-844,-4103,-776,-4
46080964,4200,0,-0.05330363,1.2604067,-8.984407,-0.04174976,0.010510527,-0.047954917,45.625,78.0,0.0023928226,1114658,-1528,-1281,-3456,0
46181766,4201,0,1.3154892,0.65569127,-10.1804695,-0.006071561,-0.0020528361,-0.050598748,45.5,78.0,0.0023928226,1114658,101,-4607,-880,-4
46285720,4205,0,0.21833095,-1.2644634,-9.623162,-0.035122447,-0.0018913324,-0.009377271,45.625,78.0,0.0023928226,1114658,261,-1906,-3312,8193
46385465,4200,0,1.1842135,-0.9410301,-9.146972,0.013975338,-0.005267071,-0.021583313,45.625,78.0,0.0023928226,1114658,2070,-3401,-5514,2048
46487344,4168,0,0.21087687,1.0332451,-8.854716,0.032804657,0.0004879548,-0.04843959,45.625,78.0,0.0023928226,1114658,-141,1752,-1321,2049
46590215,4200,0,0.6174995,1.0845817,-9.688079,0.046995036,-0.00086239644,-0.06935458,45.625,78.0,0.0023928226,1114658,1774,2716,-5550,8415
46686815,4088,0,0.30800155,-0.01472423,-9.629406,-0.041224234,-0.007892587,-0.046185587,45.625,78.0,0.0023928226,1114658,1616,-2421,-3391,8419
46788664,5140,0,1.1563941,-1.4211102,-10.747092,-0.017306933,0.0028304493,-0.07400745,45.5,78.0,0.0023928226,1114658,533,-4639,-554,16950
46891614,5299,0,0.7500049,-0.944893,-8.742879,-0.02455482,0.012277159,-0.01877269,45.5,78.0,0.0023928226,1114658,-2701,-4749,-3259,-3
46992410,4241,0,1.0094335,1.2812734,-9.132468,0.007954934,0.0024305456,-0.042687733,45.625,78.0,0.0023928226,1114658,-424,-3644,-5445,-3
47096317,5229,0,1.9727749,0.4868129,-10.233246,0.00821732,-0.0069876784,-0.074349836,45.5,78.0,0.0023928226,1114658,2957,-4348,-3741,8763
47197135,4221,0,1.0951811,-0.97823393,-11.074878,0.033363856,-0.008103713,-0.04500744,45.625,78.0,0.0023928226,1114658,1938,-845,779,8408
47297930,4215,0,-0.78882617,-0.23417164,-9.422952,0.02262662,-0.0053713634,-0.03233786,45.75,78.0,0.0023928226,1114658,-238,3209,-2255,8418
47398731,5246,0,-1.5299138,1.1138132,-8.345701,-0.004157078,0.014006519,-0.019078959,45.625,78.0,0.0023928226,1114658,-448,6027,-2759,8409
47603551,5336,0,-0.83153796,-1.0250303,-10.466392,-0.01957834,-0.0026364005,-0.05579485,45.625,78.0,0.0023928226,1114658,1752,3626,-1939,8401
47704277,4199,0,-1.2180815,-1.14067,-9.356882,-0.008543293,0.0043117786,-0.024349006,45.5,78.0,0.0023928226,1114658,-552,3991,-6711,2049
47802965,4182,0,-1.5836338,-0.3054443,-10.550225,-0.02550645,0.030075286,-0.039613243,45.625,78.0,0.0023928226,1114658,-2045,1053,-1179,8404
47909114,4300,0,1.3995351,1.433425,-11.12482,0.0106924325,-0.006976226,-0.05421885,45.625,78.0,0.0023928226,1114658,1267,-3731,3082,8778
48009981,4367,0,0.9362904,-0.35572976,-10.538091,0.015496337,-0.021701805,-0.017276365,45.625,78.0,0.0023928226,1114658,2277,-2805,-3144,8400
48108526,4163,0,0.90106434,-1.0363088,-11.837189,0.026020179,-0.005103282,-0.07713336,45.625,78.0,0.0023928226,1114658,461,-838,667,16950
48213515,4169,0,-0.60965526,-0.3432684,-10.085413,-0.035526473,0.024805337,-0.04533896,45.5,78.0,0.0023928226,1114658,-3042,-3121,-5241,8788
48315364,5241,0,-0.7585336,1.522131,-10.2140875,-0.027523272,0.0067918524,-0.021138715,45.625,78.0,0.0023928226,1114658,-231,917,1233,8193
48414065,4117,0,1.0731369,0.78273416,-10.136655,-0.010285582,-0.008618615,-0.062392507,45.625,78.0,0.0023928226,1114658,172,-4212,-4674,8393
48514865,4164,0,1.1772285,-1.6471417,-10.954882,-0.032313928,-0.022912424,-0.0134975845,45.625,78.0,0.0023928226,1114658,357,-3851,-1233,8193
48617764,4200,0,-0.8729356,-0.88271356,-10.210014,-0.03205153,0.00060696615,-0.037188683,45.625,78.0,0.0023928226,1114658,-1744,2647,-3028,8812
48717515,4200,0,-0.9195224,0.9896472,-8.695629,-0.032234415,0.017465793,-0.052315906,45.625,78.0,0.0023928226,1114658,-2274,885,-8917,8192
48822515,4200,0,-0.31408882,1.2441776,-9.91319,0.043615352,-0.0030118923,-0.07609084,45.625,78.0,0.0023928226,1114658,1504,3331,-7417,8385
48921215,4115,0,-0.81117487,-0.88901556,-10.831224,-0.02593519,-0.01951008,-0.04777636,45.625,78.0,0.0023928226,1114658,1713,2158,-1116,8811
49027308,4230,0,-0.42381445,-0.43450397,-11.09394,0.022844113,0.006460823,-0.047309283,45.625,78.0,0.0023928226,1114658,1498,1134,-1764,-4
49130165,4195,0,-0.082490526,1.6610163,-9.555354,-0.03470061,0.004968285,-0.035109952,45.625,78.0,0.0023928226,1114658,256,-1480,-2670,8396
49232014,5205,0,-1.1908982,0.44814864,-9.301448,-0.023741972,0.00036032224,-0.05398368,45.625,78.0,0.0023928226,1114658,-676,3491,-6576,-4
49337076,4262,0,0.41956505,-1.9571952,-10.289521,0.02728811,0.00033540075,-0.05546609,45.625,78.0,0.0023928226,1114658,336,-1238,-5307,8192
49437908,4294,0,0.09261543,-0.17850398,-10.734977,0.020747254,-0.0053149476,-0.036068056,45.625,78.0,0.0023928226,1114658,315,-1863,1798,8826
49538746,4332,0,0.069027096,1.2629061,-9.6798115,0.001724525,0.0005659908,-0.04350135,45.625,78.0,0.0023928226,1114658,326,-3429,-4149,8395
49640465,4126,0,1.6330518,-0.24744846,-9.381409,-0.006743262,-0.02016148,-0.009563545,45.625,78.0,0.0023928226,1114658,1133,-3783,-4617,8378
49741265,4140,0,1.7802022,-1.1624122,-11.281411,0.0029512378,-0.007651109,-0.06291708,45.5,78.0,0.0023928226,1114658,563,-3971,-707,8379
49842065,4157,0,0.62392133,-0.98616356,-10.517757,0.0067207264,0.0064423447,-0.027052475,45.625,78.0,0.0023928226,1114658,-679,-2001,-1859,8838
49943925,5170,0,0.590416,1.3067491,-10.304151,-0.023315137,0.019139733,-0.07249799,45.5,78.0,0.0023928226,1114658,-1639,-3512,-2446,8371
50044740,4214,0,0.19310695,1.3666892,-9.80675,-0.038812462,0.004007483,-0.026755469,45.625,78.0,0.0023928226,1114658,-542,-1626,-2050,8193
50148664,5114,0,-0.20267527,0.2651985,-9.677685,-0.04037902,0.005476596,-0.05617401,45.625,78.0,0.0023928226,1114658,1155,1601,-2802,16950
50252615,4200,0,-2.8278275,0.44985992,-6.8670373,-0.02642776,0.01389845,-0.046802662,45.625,78.0,0.0023928226,1114658,1150,3512,-6628,8384
50354468,4192,0,2.32347,1.6960087,-8.364956,-0.0051439456,0.006750358,-0.031220475,45.625,78.0,0.0023928226,1114658,4141,-5686,312,8192
50456376,5311,0,0.5884048,0.64793634,-7.058435,0.040245663,-0.00051611004,-0.041165587,45.625,78.0,0.0023928226,1114658,1471,-1066,-4157,8385
50557133,4219,0,-0.9964057,-0.79347646,-7.760941,0.04755753,0.0004057425,-0.019077122,45.5,78.0,0.0023928226,1114658,1016,4659,-5630,8192
50657928,4214,0,0.34030375,0.31203184,-8.780573,-0.015950315,0.014357341,-0.043034744,45.5,78.0,0.0023928226,1114658,-1092,-3751,-3351,-3
50761903,4239,0,0.64157254,0.63308245,-8.962468,0.0033103875,-0.015589607,-0.03584758,45.625,78.0,0.0023928226,1114658,507,-290,-81,8193
50862770,4263,0,0.18045746,-1.4763298,-9.731996,0.027134635,0.0008613673,-0.085587785,45.5,78.0,0.0023928226,1114658,-927,867,-7618,8389
50963559,5344,0,-1.2681775,-1.8640041,-10.166825,-0.02114797,0.0007876957,-0.06112552,45.5,78.0,0.0023928226,1114658,-422,3382,-1441,8399
51064350,4285,0,-1.3101314,-0.01279317,-9.9114275,-0.02438101,0.0039283624,-0.012010188,45.625,78.0,0.0023928226,1114658,-447,1602,-2555,8392
51165112,4205,0,-0.28871527,1.0433496,-9.26791,-0.029280381,0.016152002,-0.029628456,45.625,78.0,0.0023928226,1114658,-625,-2639,-4853,8393
51266915,4156,0,-0.32506037,1.6499194,-11.047996,-0.043120418,-0.0011004453,-0.046626434,45.625,78.0,0.0023928226,1114658,2392,-922,1369,8389
51367716,4164,0,1.2272916,-0.33298504,-9.395119,-0.03778367,-0.008573205,-0.05813971,45.75,78.0,0.0023928226,1114658,229,-4379,-9614,8193
51470701,6336,0,0.5241822,-1.4376402,-11.453653,-0.038330164,-0.0085587595,-0.035328895,45.625,78.0,0.0023928226,1114658,-2315,-1360,1120,8884
51571552,4325,0,0.3693199,0.20085324,-10.639566,-0.015962359,0.011738596,-0.052834995,45.625,78.0,0.0023928226,1114658,-1406,-4540,-2281,8390
51673265,4141,0,0.35809684,1.8926644,-9.689806,0.017821161,-0.0065249866,-0.033689342,45.75,78.0,0.0023928226,1114658,1026,-2128,-3419,8193
51774065,4141,0,0.366188,1.0562884,-10.518518,0.04581195,-0.0107192,-0.03483187,45.625,78.0,0.0023928226,1114658,1852,4118,-252,8403
51878014,4090,0,0.6106468,-1.7111005,-11.281466,0.028570838,-0.010015628,-0.025967577,45.5,78.0,0.0023928226,1114658,636,155,1233,-3
51980960,4245,0,-0.037005764,-0.33623087,-10.69921,0.03439624,0.002673001,-0.02957081,45.75,78.0,0.0023928226,1114658,1113,-1096,-2258,0
52081725,4211,0,-1.1108526,2.6241922,-9.704931,0.014790896,0.015841154,-0.06376531,45.625,78.0,0.0023928226,1114658,3033,3980,-5496,2049
52182543,4229,0,-0.28084433,0.57040757,-8.927912,-0.04044826,-0.00093483686,-0.059112065,45.75,78.0,0.0023928226,1114658,-781,-2268,-8706,8192
52284393,4228,0,1.2270967,-0.7651534,-10.432773,-0.025248794,-0.017256236,-0.03660764,45.625,78.0,0.0023928226,1114658,2306,-4784,-3451,8193
52387264,6299,0,0.07093581,-0.8617114,-10.413176,-0.032302905,0.0038225106,-0.05449633,45.75,78.0,0.0023928226,1114658,-835,-1486,-5566,-3
52487015,4177,0,0.200804,-0.37442026,-9.385043,-0.02305065,0.0034537958,-0.022260936,45.75,78.0,0.0023928226,1114658,-2979,-3535,-6202,8192
52589959,4245,0,0.98672545,1.5919544,-11.210811,0.019403419,-0.004087506,-0.016028002,45.5,78.0,0.0023928226,1114658,936,-3444,2022,8415
52693904,5289,0,0.916976,0.032605764,-11.419031,0.0031848466,-0.009197831,-0.061357923,45.5,78.0,0.0023928226,1114658,2613,-2796,-56,8415
52794773,4308,0,0.69288325,-0.968306,-10.865396,0.0036421765,0.0015015763,-0.06998688,45.625,78.0,0.0023928226,1114658,1183,-4376,-4526,8412
52895548,4284,0,0.5398585,0.05269136,-10.28652,0.03036305,0.013870531,-0.08243362,45.625,78.0,0.0023928226,1114658,-540,-918,-4547,8416
52995214,5240,0,-1.016252,1.5921301,-8.417305,-0.014115916,0.018914152,-0.032642774,45.5,78.0,0.0023928226,1114658,-564,3058,-4991,-3
53099219,4255,0,-0.9746438,0.8826804,-8.929028,-0.022490082,-0.0034127322,-0.047859613,45.625,78.0,0.0023928226,1114658,213,2996,-6184,-3
53201100,4281,0,-0.58586466,-1.5263703,-10.590305,-0.05227479,-0.021826388,-0.03080312,45.625,78.0,0.0023928226,1114658,-139,-2411,-1432,8421
53299716,4164,0,0.71513015,-0.9925797,-10.628886,0.027106509,0.0023680534,-0.0414955,45.625,78.0,0.0023928226,1114658,-453,-1352,-4674,8917
53405774,4209,0,-0.12909897,1.3224536,-9.102521,-0.03467491,0.0063190195,-0.044073768,45.625,78.0,0.0023928226,1114658,-232,-3479,-6138,-3
53507615,5250,0,-0.5243597,0.9123538,-9.352152,-0.041093275,-0.002529044,-0.03573193,45.625,78.0,0.0023928226,1114658,127,-4826,-4639,-3
53610514,4199,0,1.406912,-1.1702222,-11.006223,-0.04325892,-0.013377834,-0.037404787,45.625,78.0,0.0023928226,1114658,1403,-5976,-4401,8422
53712379,5222,0,0.94756883,-1.2937745,-10.302435,0.009910109,-0.0072798003,-0.016469613,45.75,78.0,0.0023928226,1114658,1579,-3192,-1428,8193
53813180,4215,0,-0.6795132,1.2565897,-10.605574,0.031606272,0.010663487,-0.06850671,45.625,78.0,0.0023928226,1114658,637,3894,1166,8421
53911866,4201,0,-0.14228582,1.2717302,-9.113014,-0.0351015,0.0033307788,-0.014658142,45.75,78.0,0.0023928226,1114658,-1935,-791,-1491,8193
54013724,5225,0,0.46187532,0.76788414,-10.485134,-0.025340205,-0.0060940934,-0.06824288,45.75,78.0,0.0023928226,1114658,1306,-3019,-3316,8193
54114519,4204,0,1.3858898,-1.6164736,-9.973437,0.0175608,-0.008531188,-0.048740752,45.75,78.0,0.0023928226,1114658,-1315,-1300,-4165,8192
54219552,5287,0,-0.1261403,-0.42415586,-9.796039,0.011952134,0.0051678927,-0.03305509,45.75,78.0,0.0023928226,1114658,-354,-2462,-5021,8939
54321376,5263,0,0.2588227,2.169934,-9.756081,0.028083555,0.015355421,-0.07681052,45.625,78.0,0.0023928226,1114658,275,1890,-1368,8193
54422215,4232,0,-1.9556859,0.674806,-9.675958,-0.026378645,-0.014915664,-0.017250894,45.75,78.0,0.0023928226,1114658,1083,3928,-3402,-3
54520877,6313,0,1.2844251,0.27429858,-9.442861,0.039070494,-0.017734278,-0.069264546,45.5,78.0,0.0023928226,1114658,1300,-2513,-5403,0
54626915,4191,0,-1.1454368,-0.28018388,-9.499947,-0.026034411,0.015966542,-0.04224748,45.5,78.0,0.0023928226,1114658,210,2302,-7950,8426
54729900,4280,0,-1.412924,1.4997936,-8.710102,-1.6794249e-05,0.017611802,-0.05578304,45.625,78.0,0.0023928226,1114658,-274,4033,-9383,8433
54831665,4085,0,-1.0960977,1.4401776,-9.564189,-0.010727125,0.0011295693,-0.041308142,45.625,78.0,0.0023928226,1114658,3184,3432,-6631,8949
54932479,4159,0,-0.3497816,-0.7661684,-10.495247,-0.030667378,-0.015627122,-0.026292836,45.75,78.0,0.0023928226,1114658,2057,1718,-974,8958
55035404,4200,0,-0.5349919,-1.5964738,-11.233539,-0.019149993,0.00037004147,-0.011389495,45.625,78.0,0.0023928226,1114658,2022,1547,-370,-3
55133120,4306,0,0.9642832,-1.6116647,-10.195307,-0.000279982,0.00028492807,-0.02918972,45.625,78.0,0.0023928226,1114658,1358,-5510,-5549,8440
55235914,4190,0,0.46494862,0.48570335,-8.593879,0.00077504,0.0039161085,-0.037262127,45.75,78.0,0.0023928226,1114658,-1497,-4288,-8031,8443
55339865,5141,0,-0.020969765,0.7264891,-10.209737,-0.043930836,-0.005150713,-0.047847964,45.75,78.0,0.0023928226,1114658,-440,-2419,-1927,8193
55439629,4098,0,1.4224622,-0.92786765,-10.746405,-0.036284268,-0.017152729,-0.015058509,45.75,78.0,0.0023928226,1114658,-203,-4242,1071,8439
55541465,4184,0,0.2168231,-1.8603841,-9.531899,-0.035842065,0.008005786,-0.019838793,45.75,78.0,0.0023928226,1114658,-2128,-3015,-7030,2048
55641235,5231,0,0.2486528,-1.0003709,-9.988133,-0.018873055,0.0034009893,-0.06793427,45.75,78.0,0.0023928226,1114658,-2197,-3937,-3008,8444
55746225,4207,0,-1.2010505,1.455595,-7.949859,-0.0068507646,2.859364e-05,-0.06891148,45.5,78.0,0.0023928226,1114658,-215,5691,-4533,-4
55847014,4199,0,-1.7794756,0.60869884,-8.820559,0.03277499,-0.0026377547,-0.07000792,45.625,78.0,0.0023928226,1114658,2671,6404,-8452,-4
55943614,4114,0,-0.46681488,-0.8314993,-8.9526415,-0.020105725,-0.0013468934,-0.042634625,45.75,78.0,0.0023928226,1114658,-2091,843,-6585,-4
56049665,4200,0,-0.27426827,-1.2765924,-10.223597,0.02222651,-0.0026134436,-0.016929489,45.75,78.0,0.0023928226,1114658,-1232,81,-511,8445
56148373,5214,0,0.17329572,0.014869559,-9.684483,0.03702076,-0.003264439,-0.06961832,45.75,78.0,0.0023928226,1114658,946,-836,-4502,8193
56253364,4200,0,-0.7499284,0.4180984,-8.935231,0.0015675016,0.0031585621,-0.040008146,45.625,78.0,0.0023928226,1114658,6,4371,-5988,8193
56354165,4189,0,-0.39782035,-0.29249218,-9.810916,0.0004261675,0.0060775373,-0.07514081,45.5,78.0,0.0023928226,1114658,1516,2565,-6644,8192
56456015,5195,0,0.2589828,-1.1407778,-10.633504,0.00323925,0.014062801,-0.017662529,45.75,78.0,0.0023928226,1114658,-848,-563,1429,8449
56561137,4322,0,-0.099072345,1.8360895,-10.165448,0.030827742,0.008319521,-0.05080092,45.75,78.0,0.0023928226,1114658,659,1338,155,8449
56661920,4305,0,0.30300346,1.1286662,-10.450302,-0.0054912223,-0.020765986,0.0010689537,45.625,78.0,0.0023928226,1114658,1517,-2140,1699,8445
56760515,4155,0,1.0940944,-0.41126144,-10.243352,0.01878632,-0.0088414205,-0.013964515,45.625,78.0,0.0023928226,1114658,1029,-1945,-4130,2048
56866567,4202,0,-0.15650018,-0.49826062,-10.013278,-0.03152704,0.00573701,-0.045984138,45.625,78.0,0.0023928226,1114658,-1030,-1064,-2472,-4
56967393,4216,0,0.0030853,0.5999746,-9.208033,-0.021077089,0.012701989,-0.046640832,45.625,78.0,0.0023928226,1114658,-805,-1670,-2968,-4
57065077,5313,0,0.663979,1.3126916,-9.147779,-0.012273179,0.0018225582,-0.052264657,45.75,78.0,0.0023928226,1114658,735,-3665,-6051,-4
57170015,4065,0,0.25362682,-0.5052116,-10.043697,0.033002988,-0.0030820037,-0.04517345,45.75,78.0,0.0023928226,1114658,2450,2532,-4539,8447
57270853,4115,0,-0.49783492,-1.4866306,-11.135875,0.031269863,0.0057799295,-0.05202471,45.75,78.0,0.0023928226,1114658,481,2955,-2651,0
57372665,5140,0,0.33117345,-0.4052397,-10.6250925,0.019254105,-0.005671785,-0.040633116,45.625,78.0,0.0023928226,1114658,787,-2013,419,8454
57472415,4115,0,0.45090467,1.6248322,-9.485814,0.020518413,-0.0081733065,-0.009371339,45.625,78.0,0.0023928226,1114658,2240,-2083,-1764,8453
57574265,4202,0,1.4917382,0.54347456,-10.228691,-0.0064406637,-0.009568097,-0.059053883,45.625,78.0,0.0023928226,1114658,790,-5043,-764,8192
57675065,4186,0,1.345456,-1.3429778,-11.370229,-0.030944796,-0.017689569,-0.014474185,45.625,78.0,0.0023928226,1114658,1948,-4848,1738,8443
57781161,4247,0,-1.4206686,-0.19877498,-10.337174,0.013834472,0.02245775,-0.055526167,45.625,78.0,0.0023928226,1114658,-1136,5905,643,9024
57881965,4251,0,-1.3919846,1.470381,-9.897986,0.003840621,0.016876606,-0.045896787,45.75,78.0,0.0023928226,1114658,793,5729,-2217,8450
57986959,4202,0,1.4155568,-0.21760233,-10.832718,-0.005767058,-0.011675724,-0.055948958,45.75,78.0,0.0023928226,1114658,1157,-5059,-1309,8456
58087723,4133,0,1.2036364,-1.7921344,-9.842577,-0.035012823,-0.017464552,0.0021857093,45.625,78.0,0.0023928226,1114658,-186,-4388,-3944,8459
58188538,4176,0,-0.032861162,-1.2396955,-9.42635,-0.05599647,0.006211145,-0.039299726,45.75,78.0,0.0023928226,1114658,-1937,-4408,-6332,16951
58286165,4159,0,-0.14874706,-0.5241291,-9.583891,0.005825069,0.004685252,-0.027404116,45.625,78.0,0.0023928226,1114658,587,-3748,-3932,8193
58392324,5359,0,-1.367855,1.7088565,-8.781082,-0.02149243,0.0036673723,-0.040437832,45.625,78.0,0.0023928226,1114658,1875,3110,-6637,8460
58493100,4263,0,-0.9611202,-0.07970717,-9.243692,0.0015496986,0.00037066452,-0.059175864,45.625,78.0,0.0023928226,1114658,-35,4941,-6489,9040
58593906,4291,0,-1.0992769,-1.7315335,-10.242162,-0.014517821,0.010451594,-0.066167794,45.625,78.0,0.0023928226,1114658,-487,4419,-4146,8463
58694744,4329,0,-1.5882195,-1.0990388,-10.687203,-0.019229189,0.0124662705,-0.038617667,45.625,78.0,0.0023928226,1114658,-2076,3936,1184,8459
58797515,4200,0,-0.47469735,1.613328,-8.717046,0.03495225,-2.3271772e-05,-0.08428681,45.75,78.0,0.0023928226,1114658,1093,2477,-8773,8456
58899365,4200,0,0.58978075,1.2097975,-10.6900625,0.020080805,-0.017524065,-0.04896231,45.75,78.0,0.0023928226,1114658,3432,-1158,-2228,0
59000189,4225,0,1.6640533,-0.8662786,-10.886655,0.008626288,-0.022216227,-0.033536922,45.625,78.0,0.0023928226,1114658,2733,-5202,113,2048
59102015,4115,0,0.8824215,-1.573996,-9.677483,0.005530492,-0.0060028555,-0.026592745,45.625,78.0,0.0023928226,1114658,-1939,-3424,-2046,9054
59202827,4081,0,0.3204927,0.1525499,-9.899301,-0.029077603,0.005271768,-0.04919939,45.75,78.0,0.0023928226,1114658,-3197,-4987,-3860,8454
59303615,4084,0,0.15470086,1.1845239,-9.637847,-0.032253705,0.0144925155,-0.045579482,45.75,78.0,0.0023928226,1114658,-3186,-1939,-1625,2048
59408615,4196,0,-0.20694767,-0.5649773,-9.803346,0.03975308,-0.012309787,-0.05578283,45.75,78.0,0.0023928226,1114658,304,4619,-5267,16951
59509414,4199,0,-0.3921165,-1.5382669,-9.897744,0.026892113,-0.015191934,-0.08964906,45.75,78.0,0.0023928226,1114658,-600,3040,-7649,-4
59611265,4200,0,-0.6133167,-0.40078965,-10.18944,0.03638062,0.0024128791,-0.03761455,45.75,78.0,0.0023928226,1114658,759,2456,1750,8193
59712065,4200,0,0.8678337,1.4452422,-9.670464,0.023263827,-0.0017206428,-0.027403178,45.75,78.0,0.0023928226,1114658,-446,-1307,1683,8465
59816026,5225,0,1.5990633,0.8503464,-9.092652,-0.02508611,0.0021118803,-0.04738285,45.75,78.0,0.0023928226,1114658,-464,-4472,-5676,-3
59916829,4214,0,-0.5629098,-0.9044726,-10.485756,-0.036545184,0.0016326518,-0.04304079,45.75,78.0,0.0023928226,1114658,1163,2273,-3075,8193
60017614,4200,0,-0.32998827,-1.30681,-10.738884,-0.020865237,0.017632738,-0.036233686,45.75,78.0,0.0023928226,1114658,1891,-17,-4182,-3
60118414,4199,0,-1.8090044,0.23055382,-10.239611,0.015474161,0.013663145,-0.026753472,45.625,78.0,0.0023928226,1114658,-236,5956,-316,9078
60222365,4200,0,1.3402327,1.4551661,-9.333576,-0.0010114546,-0.010052407,-0.049572617,45.75,78.0,0.0023928226,1114658,-934,-4130,-716,8193
60323164,4199,0,1.3315021,0.19369353,-9.333531,-0.0058182245,-0.024484757,-0.03964776,45.75,78.0,0.0023928226,1114658,661,-3794,-4519,8464
60425150,5385,0,0.8186742,-1.4747798,-10.018325,-0.03905804,-0.0075391755,-0.062489297,45.75,78.0,0.0023928226,1114658,-548,-4103,-4129,8473
60525876,4242,0,-2.2028465,-0.6924203,-9.570646,-0.03260055,0.018326044,-0.04258942,45.75,78.0,0.0023928226,1114658,-2033,4209,-2709,2049
60626724,4275,0,0.14143498,0.86769414,-9.53162,-0.008661977,0.029304722,-0.051642448,45.75,78.0,0.0023928226,1114658,-138,1164,-7235,8476
60727544,4315,0,-1.0876749,1.9699663,-9.997841,0.021972694,0.018619908,-0.05552448,45.75,78.0,0.0023928226,1114658,1111,4744,-3191,8454
60828324,4279,0,0.81048447,0.84366393,-10.895283,0.039006308,-0.004391831,-0.057531547,45.625,78.0,0.0023928226,1114658,3110,1641,99,8470
60930064,4115,0,1.3272703,-1.5689697,-11.069021,-0.0070000906,-0.014130229,-0.03209336,45.625,78.0,0.0023928226,1114658,-1082,-4867,1525,-4
61032965,4197,0,-0.48093182,-0.75528675,-8.799842,-0.026688494,0.009309723,-0.011529916,45.75,78.0,0.0023928226,1114658,-3501,143,-4740,8470
61131665,4121,0,0.36089468,0.36750448,-8.9946,-0.01885013,0.013772314,0.0043624784,45.75,78.0,0.0023928226,1114658,-1861,-2562,-4815,2048
61237737,4222,0,0.21296123,0.75938815,-10.911458,0.03029146,-0.0022970433,-0.06372498,45.75,78.0,0.0023928226,1114658,1102,2325,195,2049
61337464,4199,0,0.803291,-0.54732436,-11.139699,0.019589419,0.0039094575,-0.08204749,45.75,78.0,0.0023928226,1114658,-695,1806,1644,-4
61443521,4207,0,-1.1854495,0.12680782,-9.1431465,0.023325678,0.0027645228,-0.021229858,45.75,78.0,0.0023928226,1114658,-455,4616,-1576,8472
61544324,4165,0,1.1030537,1.8889763,-9.411696,0.044528846,0.0046470584,-0.032663997,45.75,78.0,0.0023928226,1114658,2605,-1257,-3780,8476
61646165,4149,0,0.07343625,0.99257725,-9.491132,-0.017248081,-0.003120162,-0.026671764,45.75,78.0,0.0023928226,1114658,217,-2508,-3813,8471
61747001,5276,0,0.003801661,-1.4090036,-9.129677,-0.028274747,-0.006249697,-0.056138646,45.625,78.0,0.0023928226,1114658,-2264,-394,-7193,9112
61849930,5315,0,-0.59057385,-0.8345945,-11.572764,-0.0045327707,0.006864708,-0.07834085,45.75,78.0,0.0023928226,1114658,827,3501,604,8479
61946464,4176,0,-0.71815795,-0.69608706,-9.05221,-0.02175218,0.010305383,-0.05307487,45.75,78.0,0.0023928226,1114658,-2249,127,-8579,8192
62052515,4184,0,0.7492711,1.28654,-10.095803,-0.010406233,-0.0060963025,-0.0292127,45.75,78.0,0.0023928226,1114658,947,-4007,350,2048
62153326,4177,0,-0.26096842,0.40005398,-9.924026,-0.040308192,-0.008988532,-0.02030747,45.75,78.0,0.0023928226,1114658,1183,1611,-2205,-4
62254165,5292,0,-0.8125436,-1.1557207,-9.834558,-0.0010808907,-0.0069805416,-0.044980373,45.75,78.0,0.0023928226,1114658,369,4431,-6077,8192
62357137,6376,0,0.22336286,-0.8510156,-10.378419,0.0017403938,-0.008796471,-0.053795744,45.75,78.0,0.0023928226,1114658,-1929,-1235,-339,8480
62455725,4188,0,0.34445938,0.8473564,-9.236622,0.000890911,-0.0075842943,0.0016662492,45.625,78.0,0.0023928226,1114658,1141,-2551,-2791,-4
62561765,5223,0,-0.85591006,0.8784565,-10.536006,0.002641176,0.0037638827,-0.09939859,45.625,78.0,0.0023928226,1114658,1161,3680,-3431,8192
62658365,4200,0,-0.6307642,-0.16403422,-9.137451,-0.029984923,-0.002496027,-0.07820304,45.75,78.0,0.0023928226,1114658,-1528,199,-7169,8193
62763365,4201,0,0.43801585,-0.08871745,-10.694714,0.02164891,0.011186147,-0.020253848,45.75,78.0,0.0023928226,1114658,-306,705,3741,8193
62864164,4200,0,-0.82136226,1.1987408,-9.82359,0.0050188475,0.013458309,-0.044004213,45.75,78.0,0.0023928226,1114658,623,2662,-1471,0
62966015,5215,0,0.7815584,1.8283901,-10.629134,0.025532067,-0.017087426,-0.04791165,45.75,78.0,0.0023928226,1114658,3944,-1515,-108,8192
63064715,4200,0,0.739076,0.39272168,-10.783655,-0.006550523,-0.018314676,-0.030926788,45.625,78.0,0.0023928226,1114658,879,-3402,1551,2048
63165527,4212,0,0.28711042,-1.202581,-9.772764,-0.031046946,-0.0020745369,-0.054414127,45.75,78.0,0.0023928226,1114658,2440,-1838,-7566,8487
63268416,4096,0,-0.22333096,-0.25943482,-11.156441,0.012976311,-0.006752522,-0.013233423,45.75,78.0,0.0023928226,1114658,213,819,1520,8494
63370265,5141,0,-0.9026212,1.6581733,-9.336958,0.00886553,-0.0026600435,-0.01451986,45.75,78.0,0.0023928226,1114658,56,3453,327,8192
63474215,4200,0,1.0607967,-1.0363611,-9.900227,-0.027544051,-0.018948823,-0.042882722,45.75,78.0,0.0023928226,1114658,-1283,-3927,-802,8491
63571865,4201,0,0.64579797,-1.1246637,-11.031757,-0.0320105,-0.018427664,-0.008994724,45.75,78.0,0.0023928226,1114658,588,-4104,-1616,8193
63672665,4198,0,-0.6795522,-1.4665152,-9.751871,-0.029057814,0.005902061,-0.018968945,45.875,78.0,0.0023928226,1114658,-1053,1993,-2192,2048
63775569,4202,0,0.8441112,1.3188547,-9.481095,0.0034093992,-0.014833446,-0.03384113,45.875,78.0,0.0023928226,1114658,1958,-3505,-1212,-3
63877415,5234,0,-0.54721385,1.0282968,-8.187859,-0.03653305,-0.0008847275,-0.020755654,45.75,78.0,0.0023928226,1114658,1484,-1343,-7694,8482
63980344,4182,0,-0.14723086,-0.5266804,-9.498185,0.034504566,0.0073377,-0.07542608,45.75,78.0,0.0023928226,1114658,1118,3701,-9897,8481
64081148,4234,0,-0.2703684,-0.9529315,-10.549315,0.005704504,-0.0030251362,-0.062088616,45.75,78.0,0.0023928226,1114658,-1960,119,-3409,8509
64179815,4200,0,-0.7115368,0.2766409,-9.7818365,-0.00081303145,0.0031396549,-0.03446964,45.875,78.0,0.0023928226,1114658,1553,2636,-1433,2049
64285900,4235,0,0.5461244,0.92054504,-9.828966,0.010723821,-0.007997233,-0.052149348,45.875,78.0,0.0023928226,1114658,1266,920,-896,8486
64384565,4200,0,-0.6418074,1.335142,-10.558204,0.039758496,-0.009653542,-0.066726185,45.75,78.0,0.0023928226,1114658,3037,6041,-3493,9164
64485365,4190,0,0.59224874,-1.0858502,-11.122045,0.038183913,-0.01630896,-0.038371053,45.875,78.0,0.0023928226,1114658,3873,-1019,-1880,8193
64589315,5251,0,-0.51513916,-1.0774275,-9.105164,-0.031002477,0.00994204,-0.032826588,45.75,78.0,0.0023928226,1114658,-2461,-1939,-4820,8192
64690159,4210,0,-0.94568163,1.3425255,-7.895394,-0.024695963,0.017363515,-0.060913958,45.625,78.0,0.0023928226,1114658,-594,1861,-7616,8487
64790914,4162,0,-1.1247363,1.5479629,-9.534805,-0.011020338,0.013027501,-0.046857454,45.75,78.0,0.0023928226,1114658,2273,3415,-7561,0
64891721,4186,0,-1.2460511,0.741347,-10.161966,0.034311406,3.9954903e-06,-0.042271867,45.75,78.0,0.0023928226,1114658,2135,6835,-2446,8496
64994770,4355,0,0.20220137,-1.0874084,-10.828293,0.03828414,-0.009430448,-0.022096174,45.75,78.0,0.0023928226,1114658,2031,449,29,8491
65095569,4329,0,0.5783853,0.04594858,-9.586574,0.023753118,0.0038153885,-0.024670077,45.625,78.0,0.0023928226,1114658,1089,-2806,-2535,-4
65199374,4210,0,-0.30304587,1.7121496,-9.10349,-0.03484993,0.012340189,-0.04816315,45.875,78.0,0.0023928226,1114658,-1801,79,-3106,2049
65295964,4199,0,1.2141662,1.4539151,-9.403314,0.0076389983,-0.019086052,-0.025480023,45.875,78.0,0.0023928226,1114658,2007,-2679,-4448,2049
65402015,4090,0,-1.3944023,-0.6365901,-10.396725,0.013020367,0.003990397,-0.0418195,45.75,78.0,0.0023928226,1114658,1168,4282,-3172,8475
65502815,4085,0,-1.6425111,-1.5957971,-10.2069,0.012562021,-0.00091962906,-0.038134456,45.75,78.0,0.0023928226,1114658,-1039,5943,-2648,8492
65603625,4095,0,-0.5101412,0.6110718,-8.25604,0.03551508,0.007636056,-0.0368403,46.0,78.0,0.0023928226,1114658,-461,3686,-6816,8493
65706515,4197,0,0.3436961,1.557492,-9.259932,0.04716955,-0.0021328977,-0.08150631,45.75,78.0,0.0023928226,1114658,1463,1929,-5719,2049
65805215,4064,0,-1.1314819,0.9102921,-9.949624,0.019605936,-0.007546774,-0.06354248,45.875,78.0,0.0023928226,1114658,2009,3352,-6082,2048
65911266,4201,0,0.903392,-1.6307245,-9.476802,-0.0018074145,-0.0019206178,-0.057009157,45.75,78.0,0.0023928226,1114658,739,-3930,-7363,-3
66007865,6301,0,-1.3317404,-1.3084271,-10.318191,-0.013708326,-0.0135085825,-0.040941242,45.875,78.0,0.0023928226,1114658,-527,5237,-3148,-3
66111814,4199,0,0.48098597,1.7569418,-9.64036,0.02138619,0.015874557,-0.062401474,45.75,78.0,0.0023928226,1114658,739,-1253,-2766,8192
66212615,4200,0,0.900986,1.7954166,-9.753211,0.028424492,-0.012249489,-0.050343342,45.625,78.0,0.0023928226,1114658,4445,-800,-4158,-3
66314465,5250,0,1.3234853,-0.5118899,-9.92699,0.031684313,-0.020051003,-0.034118645,45.75,78.0,0.0023928226,1114658,1536,-623,-2299,8493
66415265,4175,0,0.65547305,-1.7897012,-11.136007,0.037175935,-0.0014590732,-0.06087401,45.75,78.0,0.0023928226,1114658,222,155,795,8499
66515015,4175,0,-1.6009958,-0.78757167,-10.314719,0.0006506641,-0.0058341227,-0.030526377,45.875,78.0,0.0023928226,1114658,-891,5344,-316,8496
66618965,4182,0,-1.0201663,1.7022387,-9.206543,0.023800828,0.007864942,-0.076213025,45.75,78.0,0.0023928226,1114658,-384,4859,-4582,8505
66722915,4179,0,0.53902864,-0.052513428,-9.411623,0.04146904,-0.012022151,-0.044500396,46.0,78.0,0.0023928226,1114658,1297,4064,-7992,8497
66823714,4183,0,-1.4480919,-1.7082909,-10.4842,-0.006797067,-0.011778881,-0.060637202,45.875,78.0,0.0023928226,1114658,-30,5128,-1288,2048
66926771,4356,0,-1.155957,-0.21341692,-9.16642,0.020697953,0.014326082,-0.046666816,45.75,78.0,0.0023928226,1114658,-1172,4843,-6870,8500
67027574,4359,0,-0.99005866,1.6722577,-9.485722,-0.038926836,0.0067059076,-0.03626457,45.75,78.0,0.0023928226,1114658,1913,-962,-3520,8487
67128366,4352,0,-0.69339657,1.5851196,-9.66025,-0.03296174,-0.004255918,-0.03327783,45.75,78.0,0.0023928226,1114658,1908,-1663,-4494,8495
67232164,4199,0,1.0762144,-0.81571156,-10.7755165,-0.041740473,-0.016199416,-0.012085961,45.875,78.0,0.0023928226,1114658,3168,-4335,-1850,2049
67328764,4199,0,-0.5966462,-1.4541076,-10.314916,0.03229825,-0.014871815,-0.027790077,45.75,78.0,0.0023928226,1114658,2662,3034,-3930,16951
67434815,4045,0,0.6071268,0.04972278,-8.901754,-0.009668097,0.004248386,-0.01729401,45.875,78.0,0.0023928226,1114658,-1986,-4351,-2247,8496
67535617,4093,0,0.48832285,2.2517622,-8.735507,0.033746585,0.005218654,-0.04952747,45.875,78.0,0.0023928226,1114658,-150,17,-6347,8505
67636415,4082,0,-0.18988028,1.7039921,-10.204299,0.035764616,0.00032667944,-0.05888416,45.75,78.0,0.0023928226,1114658,2475,3592,-2984,8508
67738265,5165,0,-0.06535692,-0.852139,-10.147068,0.023271266,-0.018376818,-0.04094063,45.75,78.0,0.0023928226,1114658,550,3861,-1820,-4
67842215,4200,0,-0.88380146,-0.9558649,-10.326468,0.030364847,0.014137786,-0.074303426,45.875,78.0,0.0023928226,1114658,109,2959,-1908,8502
67939865,4200,0,-0.6001839,0.3644093,-10.210312,-0.020158293,0.017432172,-0.04019978,45.875,78.0,0.0023928226,1114658,1251,-555,-546,8193
68040664,4200,0,0.7464704,1.5524887,-10.417813,-0.025355542,0.0005863855,-0.05119928,45.75,78.0,0.0023928226,1114658,-954,-4946,753,8503
68142514,5250,0,0.40026838,1.29846,-9.621928,-0.008129337,-0.018549124,-0.050781842,45.875,78.0,0.0023928226,1114658,1260,-4372,-2417,-4
68245415,4200,0,0.63603824,-1.4365973,-11.542193,-0.037247524,-0.007210136,-0.044509053,45.875,78.0,0.0023928226,1114658,-444,-3012,1078,8500
68348332,4171,0,-0.49246547,-1.7644231,-9.045254,-0.04226769,0.009463118,-0.047928635,45.75,78.0,0.0023928226,1114658,-3831,152,-5548,8503
68450165,5222,0,0.10374012,0.8643725,-9.165328,-0.02691221,0.009047276,-0.051366717,45.875,78.0,0.0023928226,1114658,-501,-1863,-4211,8500
68553130,5315,0,0.27150357,0.92773855,-8.220149,-0.03902821,-0.012329283,-0.050702002,45.875,78.0,0.0023928226,1114658,-209,-3166,-9563,8506
68655965,6300,0,1.0605426,-0.54253936,-10.810604,-0.031169048,-0.020613981,-0.049013026,45.875,78.0,0.0023928226,1114658,-156,-2464,-2601,8503
68757914,5349,0,0.72385246,-1.9096591,-9.745909,-0.029541899,-0.0018584921,-0.04423394,45.75,78.0,0.0023928226,1114658,-1587,-5018,-6748,9269
68860715,4200,0,0.14464368,0.5362108,-9.911044,-0.0388331,0.008238087,-0.020785658,45.875,78.0,0.0023928226,1114658,-1186,-4889,-2370,2048
68957314,6293,0,-1.421351,1.1447638,-10.12717,0.00067843974,0.032929495,-0.058537245,45.875,78.0,0.0023928226,1114658,-298,4386,-3518,-4
69063365,4200,0,1.6247041,0.9431285,-10.949695,0.01413184,-0.016868033,-0.046052907,45.875,78.0,0.0023928226,1114658,3650,-3325,1566,8193
69164202,4238,0,0.59146935,-1.012331,-10.463545,0.046973918,-0.0038435094,-0.03655283,45.75,78.0,0.0023928226,1114658,1782,1219,-4715,8192
69973714,4199,0,0.28991643,2.2421825,-9.660266,0.035139944,0.003963542,-0.038916275,45.875,78.0,0.0023928226,1114658,2358,2818,-3579,8193
70074525,4210,0,-1.2967296,0.51182014,-9.026003,-0.011862428,-0.01854236,-0.04925804,45.75,78.0,0.0023928226,1114658,-502,5084,-7495,8192
70180569,5255,0,-0.9362094,-2.333779,-9.18215,0.01761265,-0.016937109,-0.029726662,45.75,78.0,0.0023928226,1114658,581,3686,-6551,8501
70281402,4204,0,-1.7430637,-0.033360552,-10.068253,-0.020488063,0.009996101,-0.032476895,45.875,78.0,0.0023928226,1114658,-780,3726,-960,-4
70386365,4161,0,0.32387236,1.6057471,-8.8114395,-0.022781383,0.014125337,-0.03885226,45.875,78.0,0.0023928226,1114658,748,2127,-7997,2048
70486159,4235,0,0.7147773,0.23588215,-10.8696,-0.0074894475,-0.015920406,-0.05178348,45.875,78.0,0.0023928226,1114658,1826,-3760,-3263,8509
70589161,4346,0,0.846263,-1.7335229,-9.807592,0.03126939,-0.0038180663,-0.054345973,45.875,78.0,0.0023928226,1114658,-167,-503,-7647,8503
70690873,4166,0,-2.1749902,-0.95255333,-9.926488,0.006977984,0.0031046078,-0.027324166,45.75,78.0,0.0023928226,1114658,797,5286,-3858,0
70789566,4201,0,-0.56398183,-0.21215087,-9.47066,-0.03575816,0.014760585,-0.02375664,45.75,78.0,0.0023928226,1114658,-2424,-2902,-2084,8192
70892465,6300,0,0.8901321,1.8764254,-9.828727,0.0024974954,0.0030340904,-0.090910494,45.75,78.0,0.0023928226,1114658,-582,-5363,690,8504
70994315,5183,0,0.40361804,0.57796925,-9.567591,0.039482024,-0.019600358,-0.06852354,45.875,78.0,0.0023928226,1114658,2512,755,-5539,8192
71101451,4223,0,0.6361011,-1.267387,-9.5474615,-0.0031540026,0.004663688,-0.043473467,45.875,78.0,0.0023928226,1114658,-2830,-5117,-6601,-4
71198059,4135,0,-0.23994753,-0.20270933,-9.314542,-0.0407617,0.016335655,-0.053337354,45.875,78.0,0.0023928226,1114658,147,-1777,-5474,8506
71301976,5261,0,-0.54722625,0.780244,-8.903517,-0.038539585,0.009895282,-0.047412217,45.875,78.0,0.0023928226,1114658,-2098,-3690,-4897,8517
71402765,4201,0,0.6667835,1.3051555,-10.266363,0.021571415,-0.017811326,-0.04656841,45.625,78.0,0.0023928226,1114658,1685,-688,1340,8492
71504615,4156,0,-1.6742189,-1.1533412,-9.890936,-0.018094577,0.0016933233,-0.06750629,45.75,78.0,0.0023928226,1114658,295,5734,-4012,8526
71607544,4230,0,1.001703,-0.659888,-8.901194,-0.03767252,-0.0073249904,-0.006721203,45.875,78.0,0.0023928226,1114658,1241,-5306,-3937,8502
71706215,4161,0,-0.4460424,0.63138187,-7.928342,-0.02954232,-0.0003917738,-0.034405503,46.0,78.0,0.0023928226,1114658,718,-1863,-9701,0
71808064,5249,0,-0.28509623,1.6371416,-9.237299,0.038255025,0.0086482875,-0.05331781,45.875,78.0,0.0023928226,1114658,-98,3632,-394,-4
71910994,4217,0,-0.5611571,-0.2912711,-9.871901,0.029064985,-0.013087296,-0.02202902,45.875,78.0,0.0023928226,1114658,1837,5403,-567,2049
72011764,4187,0,0.41876927,-1.1171874,-10.318005,-0.0333711,-0.00206355,-0.061826788,45.875,78.0,0.0023928226,1114658,643,-4310,-4171,8519
72114757,4292,0,-2.187453,-0.688332,-10.730025,-0.01575436,0.008342368,-0.04193649,45.75,78.0,0.0023928226,1114658,-1551,-3122,-2712,8499
72214415,4200,0,-1.1963971,1.4053867,-8.774168,0.033490814,0.014963298,-0.02943695,45.875,78.0,0.0023928226,1114658,1350,4669,-9554,8523
72317315,4188,0,-0.7752367,1.1131128,-8.871621,0.0025920924,0.00780932,-0.02652736,46.0,78.0,0.0023928226,1114658,882,4734,-5732,8517
72419198,4234,0,1.4035963,-1.1573681,-10.296889,-0.024386901,-0.021013848,0.012824685,45.875,78.0,0.0023928226,1114658,2938,-5263,-4382,-3
72519965,4194,0,-0.46824014,-1.2979046,-11.356778,0.028517887,0.00057634286,-0.047075707,45.75,78.0,0.0023928226,1114658,2072,1126,-2723,2049
72621932,5344,0,-0.74050105,0.6062154,-9.176112,-0.0016412567,0.0135521265,-0.06896744,45.875,78.0,0.0023928226,1114658,-422,953,-6684,8513
72722732,4317,0,-0.23100357,1.2841141,-9.906487,-0.03319755,0.004824353,-0.049548145,45.875,78.0,0.0023928226,1114658,-974,-3303,-1390,8519
72823477,4263,0,1.2839489,0.54347265,-9.512288,0.03219667,-0.0134250745,-0.06638061,45.875,78.0,0.0023928226,1114658,-541,-369,-5898,8192
72927365,4200,0,1.1452876,-1.1653988,-10.066797,0.0218514,-0.0027306103,-0.06434216,46.0,78.0,0.0023928226,1114658,1879,-1948,-6114,8193
73028164,4199,0,-1.9964836,-0.909471,-8.77853,-0.0042432044,0.012247988,-0.013654139,45.875,78.0,0.0023928226,1114658,673,3346,-10694,9334
73127914,5214,0,0.7650093,0.49508163,-10.268137,0.020698925,0.0039913445,-0.05462998,46.0,78.0,0.0023928226,1114658,893,-2367,188,-4
73230834,5269,0,0.6614843,1.1418829,-11.056148,0.026473196,0.0055391164,-0.08127238,45.875,78.0,0.0023928226,1114658,259,4086,-401,0
73333736,4222,0,-1.8847435,-0.45725548,-9.8821945,-0.006269914,-0.003511785,-0.052883986,46.0,78.0,0.0023928226,1114658,116,4016,-4458,-4
73430314,4155,0,-0.38166156,-0.5326444,-10.425692,0.04138967,-0.009670879,-0.09178221,45.875,78.0,0.0023928226,1114658,675,5276,-4049,8192
73536365,4201,0,-0.99709576,-0.2668196,-10.242718,0.029441059,0.0037582393,-0.040145203,45.875,78.0,0.0023928226,1114658,1421,4298,-3209,8193
73637180,4216,0,-1.1313953,1.0597591,-9.155859,-0.033313885,0.024482591,-0.05256529,45.875,78.0,0.0023928226,1114658,-2387,-168,-2884,8517
73737984,4219,0,0.23172148,1.706992,-9.535365,0.042279713,-0.007346361,-0.028218016,46.0,78.0,0.0023928226,1114658,2696,2607,-2674,8525
73839815,5251,0,-0.9407325,0.25931555,-9.9812155,0.0067812703,-0.009687701,-0.044957574,45.875,78.0,0.0023928226,1114658,3127,4101,-4762,9356
73940615,4177,0,0.9457598,-1.9485544,-10.948739,-0.02873051,-0.0073386407,-0.045192074,45.75,78.0,0.0023928226,1114658,-1157,-5675,395,8192
74039327,4177,0,-1.3669925,-2.1998034,-10.718436,0.024458686,0.01233683,-0.028343093,46.0,78.0,0.0023928226,1114658,372,4247,-7785,2049
74145376,4170,0,-1.0818416,1.8098454,-9.679949,0.019275574,0.011173681,-0.07569585,45.875,78.0,0.0023928226,1114658,-268,4769,-4077,8193
74246165,4182,0,-0.13812447,0.87058824,-8.968252,-0.046370607,-0.0018338521,-0.031034121,45.875,78.0,0.0023928226,1114658,264,-745,-5901,-4
74345945,5281,0,1.8068352,0.10098746,-10.490036,0.04165756,-0.013143187,-0.068546616,45.875,78.0,0.0023928226,1114658,2089,2998,-249,8521
74446731,4217,0,-1.0468986,-2.252792,-10.297283,-0.043414567,-0.007830622,-0.059771884,45.75,78.0,0.0023928226,1114658,177,-92,-3354,8518
74547564,4219,0,-0.8965321,-1.4145783,-10.016681,0.024349004,0.016990112,-0.05264767,45.75,78.0,0.0023928226,1114658,-566,1563,-5340,8524
74651539,4274,0,-1.2336257,1.2946382,-7.3441896,0.030202236,0.008788235,-0.043090794,46.0,78.0,0.0023928226,1114658,227,4158,-5890,8521
74752345,4281,0,0.16105938,0.7159195,-9.329106,-0.021151433,-0.01898459,0.0056014564,45.875,78.0,0.0023928226,1114658,857,-4003,-3224,-4
74853189,6396,0,-1.6971684,-0.027185908,-8.287987,0.022511669,-0.011147397,-0.07778687,45.875,78.0,0.0023928226,1114658,945,4123,-4259,-4
74958065,4095,0,-3.5505571,-0.6768114,-11.442799,-0.05340621,-0.0042041084,-0.033717874,45.75,78.0,0.0023928226,1114658,-1468,2710,1120,8528
75059914,4199,0,0.66657114,1.3882933,-9.542315,0.001183895,0.009695452,-0.027878648,46.125,78.0,0.0023928226,1114658,414,-4377,-4152,8523
75162814,4089,0,-0.38262844,1.1640242,-9.8545,0.050754044,-0.00021579614,-0.08161879,45.875,78.0,0.0023928226,1114658,-339,4079,-4681,-4
75264665,4200,0,-0.99454194,-1.580645,-9.576097,-0.03493583,-0.004808863,-0.018027017,46.0,78.0,0.0023928226,1114658,224,1715,-6546,9390
75365465,4200,0,1.1531968,-0.7560936,-11.305166,0.02109883,-0.00852362,-0.016318785,46.0,78.0,0.0023928226,1114658,1909,-1978,2073,8192
75467314,5249,0,-2.1928458,0.7951888,-9.7754345,-0.03579496,0.02286565,-0.06461568,45.875,78.0,0.0023928226,1114658,-930,3491,-2426,2049
75568162,4248,0,0.79616,1.4632732,-10.194767,0.0021419546,0.0062449486,-0.057656623,45.875,78.0,0.0023928226,1114658,487,-4293,-2273,8192
75668914,4198,0,-1.0637494,0.76785,-8.68034,-0.011264972,0.023924548,-0.040066116,45.875,78.0,0.0023928226,1114658,1314,3906,-9584,16951
75772865,4201,0,2.4546301,-0.7973997,-10.175865,-0.0149750905,-0.0067951465,-0.0464641,45.875,78.0,0.0023928226,1114658,2269,-5151,584,8193
75873667,4202,0,-1.0896646,-0.6764766,-8.929409,-0.04648599,0.008297101,-0.036800906,46.0,78.0,0.0023928226,1114658,-2099,533,-8450,8538
75974498,4233,0,-1.1429094,1.3871893,-8.972065,0.05326531,0.0061270567,-0.030220559,45.875,78.0,0.0023928226,1114658,73,4003,-7463,2049
76076328,5263,0,1.1390541,1.4036248,-8.875037,-0.030849028,0.006746579,-0.03266554,45.875,78.0,0.0023928226,1114658,-2356,-3487,-4977,8192
76175015,4150,0,-1.9293256,0.6636203,-8.664424,-0.009474016,0.0016897193,-0.037320554,45.875,78.0,0.0023928226,1114658,311,6758,-2858,8535
76275815,4160,0,0.75766754,-0.8696583,-11.444039,0.044724293,-0.01138484,-0.034826633,45.875,78.0,0.0023928226,1114658,459,2851,1735,8193
76378730,4216,0,-0.20256819,-1.5785806,-9.603081,-0.049937986,-0.0004324956,0.0020139571,46.0,78.0,0.0023928226,1114658,-2035,-4008,-6559,8533
76484764,4200,0,0.66698605,1.9029732,-9.732052,0.008113931,-0.0017267561,-0.032820027,45.875,78.0,0.0023928226,1114658,2484,-3064,-142,-4
76585564,4199,0,-0.54760253,0.3390148,-9.128422,-0.029103184,-0.017651089,-0.032150302,45.875,78.0,0.0023928226,1114658,2658,747,-6593,8192
76688484,4110,0,-0.21518455,-1.676557,-11.07573,0.030064637,0.0016150479,-0.067471735,46.0,78.0,0.0023928226,1114658,-19,4070,367,-4
76790317,4155,0,0.7080035,-0.63635945,-10.893998,-0.016435068,0.013881465,-0.030556781,45.875,78.0,0.0023928226,1114658,-382,-4823,3791,8192
76891159,4244,0,-2.1648748,1.4273531,-9.684665,-0.036102895,0.0054342053,-0.03598311,45.875,78.0,0.0023928226,1114658,-1267,2755,1634,0
76995065,4174,0,1.0255693,1.0648853,-9.616286,0.004348089,-0.016694328,-0.028287651,45.875,78.0,0.0023928226,1114658,1969,-3759,-8298,8543
77093765,4151,0,1.5246497,0.045621548,-10.7694645,-0.020721836,-0.011853009,-0.030334497,45.75,78.0,0.0023928226,1114658,1352,-4552,-2131,8192
77194565,4165,0,-0.3882092,-1.5168446,-10.72395,-0.037216295,-0.013753664,-0.003168231,46.0,78.0,0.0023928226,1114658,737,-108,-302,-4
77295365,4200,0,-3.053918,-0.924913,-10.501298,0.019722588,-0.0009746833,-0.0508744,46.0,78.0,0.0023928226,1114658,-1536,7045,632,8193
77398265,4198,0,1.866068,1.096149,-9.244805,0.0009310821,0.0038883984,-0.0040269773,45.875,78.0,0.0023928226,1114658,-2423,-4683,-127,8544
77500158,4239,0,-1.1565278,0.89786077,-9.068825,-0.028281132,0.004604609,-0.029063595,46.0,78.0,0.0023928226,1114658,-434,3137,-1631,8192
77606174,4171,0,1.7097096,-0.85069424,-11.054709,-0.00928107,-0.0032234571,-0.065555684,45.875,78.0,0.0023928226,1114658,135,-5902,-956,8533
77706970,4188,0,-1.9434459,-0.16307667,-9.880622,-0.06238054,0.020734228,-0.050538387,45.875,78.0,0.0023928226,1114658,218,810,-3733,8535
77804626,4212,0,-2.3622253,-0.04880887,-9.021954,-0.025694659,0.01547921,-0.024124708,45.875,78.0,0.0023928226,1114658,-1814,4601,-3029,-4
77909615,4186,0,1.5220293,1.4109952,-9.616244,0.0031947973,-0.015783712,-0.06238618,46.0,78.0,0.0023928226,1114658,1801,-2134,-5350,2048
78011501,5257,0,-0.5377082,-0.19742092,-9.715827,-0.037165973,-0.00883891,-0.052052364,45.75,78.0,0.0023928226,1114658,-761,426,-5941,8554
78112325,4259,0,-1.4738092,-1.7834316,-9.925404,0.01854468,-0.0012008834,-0.05556696,45.875,78.0,0.0023928226,1114658,-354,3666,-6541,8541
78213164,4299,0,0.8420507,0.24559225,-10.237121,0.021169037,0.006698487,-0.015177037,46.125,78.0,0.0023928226,1114658,1,-2557,397,8539
78317124,4309,0,-0.2967602,1.4041582,-8.569583,0.0137410015,0.014154032,-0.07791395,46.0,78.0,0.0023928226,1114658,309,2097,-7584,8536
78417908,4294,0,2.14706,0.049559947,-9.553617,-0.0016211189,-0.006665851,-0.076820664,46.0,78.0,0.0023928226,1114658,2061,-3982,-5440,9437
78517564,5189,0,0.36679643,-1.8441062,-10.556166,-0.038650893,-0.021576505,-0.037930053,46.0,78.0,0.0023928226,1114658,-94,-3272,-1412,8539
79538165,4200,0,-1.3512217,0.34423548,-9.653779,0.032333232,0.016237115,-0.07674435,45.75,78.0,0.0023928226,1114658,231,3221,-7367,9468
79638965,4169,0,-1.1097851,1.2433594,-9.8004465,-0.021931102,0.010292515,-0.04622396,45.875,78.0,0.0023928226,1114658,-62,1222,-851,8556
79740846,5263,0,0.6171376,1.5083544,-10.022617,0.03566855,-0.010221076,-0.06609745,46.0,78.0,0.0023928226,1114658,3664,-232,-3278,-4
79843715,4172,0,-1.3949784,-1.1356994,-10.959662,0.02312503,0.0011140158,-0.043173015,46.0,78.0,0.0023928226,1114658,2259,6298,-2017,2048
79940362,5297,0,-2.0091197,-1.7645923,-9.706866,0.019744128,0.003938083,-0.061491884,45.875,78.0,0.0023928226,1114658,-364,7568,-5887,-4
80045315,4142,0,-1.4584732,0.83000565,-9.305332,-0.033315275,0.005222415,-0.06528003,46.0,78.0,0.0023928226,1114658,-2333,2360,-1962,8551
80147164,4199,0,0.5377762,1.9746965,-10.134273,-0.026007785,0.007883441,-0.05352786,45.875,78.0,0.0023928226,1114658,1566,-5552,-264,8557
80247974,4209,0,-0.13888058,1.4592532,-10.448823,0.021795442,-0.0033839643,-0.06638072,46.0,78.0,0.0023928226,1114658,2150,6394,-3116,8553
80349924,5359,0,1.604707,-1.2203605,-11.408227,-0.025040627,-0.027520819,-0.03869296,45.875,78.0,0.0023928226,1114658,4612,-5390,81,8553
80452715,4200,0,-0.9677613,-0.6441882,-10.561698,0.029135052,0.012803294,-0.025738163,45.75,78.0,0.0023928226,1114658,29,2948,-1588,8193
80553515,4200,0,-1.2795857,1.6473078,-8.351406,-0.014632795,0.0003360509,0.001269036,45.875,78.0,0.0023928226,1114658,1045,205,-5335,8544
80654314,4155,0,-0.71210253,2.2510793,-10.119956,0.029522927,-0.0076678223,-0.07416689,45.875,78.0,0.0023928226,1114658,1507,3894,-870,8192
80753134,4320,0,-0.047558133,1.0572939,-11.55493,0.012722326,-0.015363295,-0.06930086,46.0,78.0,0.0023928226,1114658,1871,-3247,-134,8545
80854865,4165,0,-0.9354937,-1.2419845,-9.337603,0.0029746522,0.003605461,-0.049230993,45.875,78.0,0.0023928226,1114658,-411,1460,-10938,-3
80958815,5248,0,-0.745178,-0.41305688,-8.637656,-0.06416287,0.009561741,-0.047383346,46.0,78.0,0.0023928226,1114658,1060,-2849,-8634,9479
81065931,4214,0,-1.6423157,1.2266018,-9.210989,-0.029084703,0.0015182905,-0.034755573,46.125,78.0,0.0023928226,1114658,-127,4078,-623,8558
81164615,4200,0,-0.780343,0.24330777,-9.213379,0.034263734,0.0078041675,-0.074851006,46.0,78.0,0.0023928226,1114658,94,5575,-4733,2048
81266511,5296,0,-0.45923617,-1.3072822,-9.181414,-0.029619081,-0.0125480695,-0.027836869,46.0,78.0,0.0023928226,1114658,1436,-994,-7886,8193
81369365,4176,0,-0.35848424,-0.5296698,-9.45402,-0.035860408,0.016422713,-0.045373727,46.0,78.0,0.0023928226,1114658,-2611,-4540,-4324,8193
81465975,4175,0,-0.12413204,0.5357029,-9.20437,-0.02491161,0.011717115,-0.047051717,46.0,78.0,0.0023928226,1114658,-584,-1701,-7777,8554
81572015,4200,0,-0.39093432,0.78752047,-8.894713,0.032312986,-0.007668727,-0.022069942,46.0,78.0,0.0023928226,1114658,1743,5300,-8288,-3
81672815,4187,0,0.4433131,-1.4388247,-9.941257,-0.028165568,-0.026077673,-0.0119049,46.0,78.0,0.0023928226,1114658,837,-4049,-5842,-3
81875527,5313,0,-1.7420958,-0.46397534,-8.739403,0.034362018,0.008662215,-0.034883987,46.0,78.0,0.0023928226,1114658,939,4985,-8190,8549
81978365,6300,0,-1.0576906,1.2285104,-9.748393,-0.022886273,0.023667222,-0.062274717,45.875,78.0,0.0023928226,1114658,253,2932,-10021,8193
82080332,4307,0,0.8447604,1.157297,-9.418479,-0.038051922,-0.012777964,-0.036993515,46.0,78.0,0.0023928226,1114658,1889,-4728,-4324,8561
82181130,4285,0,-0.5308132,-1.2471052,-10.719617,0.020246135,0.0018295902,-0.08320593,45.875,78.0,0.0023928226,1114658,106,5194,-4205,8567
82280801,4236,0,0.09833084,-1.5336426,-10.449377,-0.036912687,-0.0021321925,-0.022118842,46.0,78.0,0.0023928226,1114658,1220,-1884,-5311,0
82383665,4165,0,0.24424271,0.31430003,-9.870373,0.013014621,0.008614548,-0.037339006,46.125,78.0,0.0023928226,1114658,1378,-2251,-690,8192
82489715,5250,0,-0.68359554,1.4346704,-8.266234,-0.024152465,-0.00690481,-0.021739397,46.0,78.0,0.0023928226,1114658,2064,-150,794,8193
82590514,4191,0,-0.42722768,0.20350201,-10.748861,0.026871732,-0.0049784887,-0.03717087,46.0,78.0,0.0023928226,1114658,994,5799,1744,2049
82690265,4187,0,2.307097,-1.3317385,-10.7118635,-0.020644205,-0.010640983,-0.043493476,46.0,78.0,0.0023928226,1114658,-622,-5938,-121,-4
82791064,5140,0,-1.6972159,-1.2330656,-9.342649,0.031348154,0.0127904285,-0.08487196,46.0,78.0,0.0023928226,1114658,481,3858,-9487,-4
82895014,4167,0,-0.48695105,1.3848224,-9.220472,-0.002107952,0.0042595575,-0.037646182,46.125,78.0,0.0023928226,1114658,53,2921,-3589,-4
82996865,4197,0,0.6810149,1.4681599,-10.763227,-0.040845115,-0.0039494187,-0.056100123,46.0,78.0,0.0023928226,1114658,2125,-3058,1094,8193
83095578,4213,0,-0.9442433,-0.22441188,-10.139095,0.01339473,-0.0007209426,-0.06928541,46.0,78.0,0.0023928226,1114658,856,6376,-7324,9519
83196418,4212,0,1.0564568,-1.9570342,-10.349611,-0.02996651,-0.0041275574,-0.0377441,45.875,78.0,0.0023928226,1114658,-477,-2149,-2286,-4
83298215,5247,0,-1.0128278,-0.5471082,-9.784115,0.032663483,0.015680172,-0.08549055,46.0,78.0,0.0023928226,1114658,240,2566,-4859,8565
83399014,4196,0,-1.0332674,1.3466169,-8.760248,0.008013636,0.013109748,-0.048530135,46.0,78.0,0.0023928226,1114658,-664,4916,-3476,8192
83504014,4200,0,-0.93450487,0.86644953,-9.778901,0.022845253,-0.0044689677,-0.060542792,46.125,78.0,0.0023928226,1114658,2252,5902,-3161,8192
83610065,4099,0,-0.3851373,-1.344903,-10.939539,0.031622235,-0.0014802141,-0.026128236,46.0,78.0,0.0023928226,1114658,-170,1537,-3594,8569
83708774,4209,0,-2.0351114,-0.6821223,-10.67913,-0.035852328,0.005366309,-0.036815822,46.0,78.0,0.0023928226,1114658,-1647,1487,1268,8193
83810745,5380,0,-0.17420745,1.6107067,-9.18087,-0.0067353803,0.00544695,-0.0425402,46.0,78.0,0.0023928226,1114658,2487,1060,-4232,8567
83913536,4221,0,-0.9817632,1.0426953,-10.361736,-0.016541706,-0.0041819788,-0.030483477,46.125,78.0,0.0023928226,1114658,2187,1728,-2171,-4
84014391,4275,0,1.2456279,-1.7295195,-10.168011,-0.012940153,-0.015065506,-0.040275596,46.125,78.0,0.0023928226,1114658,-1371,-4227,-2884,-4
84115159,4224,0,-0.25294355,-1.9524403,-10.2755,0.03241025,-0.0116644185,-0.05245722,46.0,78.0,0.0023928226,1114658,-683,1248,-1800,8567
84218015,4089,0,-0.2240707,-0.01626477,-9.476604,0.036055602,0.0010949128,-0.03489265,46.0,78.0,0.0023928226,1114658,-1470,2871,41,8568
84319865,4200,0,-0.9351204,1.7213655,-9.512641,0.03382442,-0.0027173182,-0.025790678,45.875,78.0,0.0023928226,1114658,2170,3417,-5706,8193
84420664,4199,0,-1.1114038,0.76799214,-9.077035,-0.019808998,0.004005878,-0.0747832,46.0,78.0,0.0023928226,1114658,-721,4389,-6035,-4
84522531,4205,0,0.1658879,-1.2355409,-9.769344,-0.052250974,-0.0110757975,0.006490002,46.0,78.0,0.0023928226,1114658,629,-3604,-4286,2049
84624391,5271,0,0.3574677,-0.6655058,-10.823977,-0.010490947,0.0028664535,-0.037218448,45.875,78.0,0.0023928226,1114658,454,-2738,4066,8193
84725202,4238,0,0.6810448,0.54580945,-9.350025,-0.009837339,0.011092257,-0.059343457,46.0,78.0,0.0023928226,1114658,135,-3476,-5210,8575
84823865,4201,0,-0.63468903,2.0136044,-9.759941,0.03760786,0.011444133,-0.06924355,45.875,78.0,0.0023928226,1114658,4,3585,-1826,8193
84926808,6343,0,-1.7420762,1.7993609,-9.371561,0.04043668,-0.004461811,-0.08988992,46.125,78.0,0.0023928226,1114658,2485,4072,-4422,8574
85028614,5244,0,-0.47722745,-1.6711787,-10.477559,0.0038699214,-0.007828275,-0.059629325,46.0,78.0,0.0023928226,1114658,2246,1499,-5744,16952
