timestamp,integral_dt,error_count,x,y,z,x_integral,y_integral,z_integral,temperature,range_m_s2,scaling,device_id,x_raw,y_raw,z_raw,temperature_raw
55789800,4000,0,0.22774528,0.5008594,-9.661571,0.00039813865,0.004995309,-0.040551372,48.027702,156.9064,0.0047884034,1442826,-157,85,2148,4703
55889799,3999,0,0.4554689,0.8768972,-10.016611,0.0014392773,-0.0055564875,-0.039078202,48.03324,156.9064,0.0047884034,1442826,442,-8,1940,4705
55993804,3965,0,0.63142973,1.8973384,-10.049391,0.0038432674,0.0076416135,-0.045065016,48.06094,156.9064,0.0047884034,1442826,-39,-235,2042,4715
56093799,3990,0,-0.12518829,-0.09453828,-9.798227,0.004233645,0.015267072,-0.03801961,48.049862,156.9064,0.0047884034,1442826,-866,-312,2201,4711
56193799,4000,0,-0.19645755,-0.876071,-9.876624,0.0015629968,0.0044658203,-0.04157945,48.0554,156.9064,0.0047884034,1442826,-473,-335,2110,4713
56297810,4010,0,0.31463787,0.2873857,-10.113511,0.0027812135,0.00743983,-0.039585628,48.085873,156.9064,0.0047884034,1442826,-213,-177,1869,4724
56397799,4000,0,0.46625996,0.9328876,-9.8406725,0.0018930349,0.004860471,-0.037054636,48.07479,156.9064,0.0047884034,1442826,141,17,1956,4720
56499399,4000,0,0.21718904,0.583746,-9.647497,-0.0019097994,-0.002329451,-0.03882606,48.09141,156.9064,0.0047884034,1442826,360,150,2110,4726
56599399,3994,0,0.15837714,-0.27948138,-10.105806,0.004222549,0.003344547,-0.039420225,48.119114,156.9064,0.0047884034,1442826,126,-183,1789,4736
56703399,4000,0,-0.7073449,-0.66640353,-10.248747,-0.0007115321,-0.008410374,-0.04492402,48.102493,156.9064,0.0047884034,1442826,65,-449,1971,4730
56803420,4020,0,0.46435782,0.11025524,-9.7918005,-0.008732079,-0.006346237,-0.040701278,48.132965,156.9064,0.0047884034,1442826,3,663,2211,4741
56907441,4013,0,-1.0365303,-0.2553085,-10.362242,0.0026988925,-0.0035710568,-0.04757676,48.13019,156.9064,0.0047884034,1442826,231,-755,1502,4740
57007410,4011,0,0.31733307,0.30489367,-10.012172,0.0063967584,0.012771957,-0.040560886,48.163433,156.9064,0.0047884034,1442826,-401,-772,835,4752
57111408,4007,0,-0.25205994,-0.5941382,-10.22043,0.00972539,0.0035575489,-0.037280723,48.155125,156.9064,0.0047884034,1442826,-263,-652,1822,4749
57211399,3999,0,-0.5730325,-0.07588641,-10.081777,0.007906964,-0.0058122054,-0.05355362,48.163433,156.9064,0.0047884034,1442826,-49,-908,2585,4752
57311406,3964,0,1.0584747,0.19159152,-9.574038,-0.013534765,0.000719356,-0.04483505,48.160664,156.9064,0.0047884034,1442826,-483,834,2999,4751
57415408,3964,0,1.065417,0.27645627,-10.224763,0.001948669,0.008447004,-0.03156984,48.174515,156.9064,0.0047884034,1442826,-507,216,1675,4756
57515399,3999,0,0.75605714,0.9986464,-10.443633,0.014776769,0.00042724516,-0.030406848,48.177284,156.9064,0.0047884034,1442826,30,-310,1228,4757
57615400,4000,0,0.39549986,0.4409584,-9.938867,-0.025604745,0.002453833,-0.05461577,48.185596,156.9064,0.0047884034,1442826,597,1212,2876,4760
57719399,4000,0,0.25907266,-0.58465517,-10.99041,-0.01140323,-0.0008813256,-0.049704656,48.221607,156.9064,0.0047884034,1442826,-372,137,1218,4773
57823399,4000,0,0.40540558,0.5032481,-10.028909,-0.0068853134,-9.9101424e-05,-0.04347098,48.243767,156.9064,0.0047884034,1442826,-58,775,2727,4781
57923399,4000,0,0.65084094,1.3635305,-10.609419,0.006244978,-0.0032294253,-0.043024767,48.238228,156.9064,0.0047884034,1442826,-11,60,1463,4779
58027412,4013,0,0.394457,-0.08324066,-9.412879,-0.006465695,0.0019972431,-0.041481182,48.202217,156.9064,0.0047884034,1442826,-505,-402,3079,4766
58127406,4007,0,-0.3271365,-0.48109186,-10.49783,0.0044201743,0.0062101632,-0.040870056,48.229916,156.9064,0.0047884034,1442826,-566,-742,1725,4776
58227399,4000,0,0.07436898,-0.56114167,-10.178702,0.0010579636,0.0023855506,-0.029881256,48.282547,156.9064,0.0047884034,1442826,-554,-690,1050,4795
58331414,4015,0,-0.19486563,0.65251076,-9.518069,0.010631138,0.00860697,-0.033093765,48.265926,156.9064,0.0047884034,1442826,-280,-407,2832,4789
58431421,4022,0,0.08545047,0.34751895,-9.9328375,-0.0006249888,-0.0069869845,-0.03500448,48.277008,156.9064,0.0047884034,1442826,-87,-355,1533,4793
58531399,4000,0,0.6999937,-0.13603048,-9.846223,-0.006979583,-0.007528209,-0.0465503,48.27147,156.9064,0.0047884034,1442826,1242,158,754,4791
58635441,4040,0,-0.15239568,-0.3574545,-10.0754175,-0.013604255,0.0039602383,-0.038753204,48.29363,156.9064,0.0047884034,1442826,252,147,1519,4799
58739404,4005,0,0.07592923,1.1557465,-9.733623,-0.010171463,0.0006812407,-0.038701694,48.31579,156.9064,0.0047884034,1442826,-145,-309,649,4807
58843400,3996,0,0.25161555,-0.020126687,-10.329491,-0.007756489,-0.009398013,-0.042204708,48.31302,156.9064,0.0047884034,1442826,322,-146,1523,4806
58943422,4023,0,0.5335567,-0.6221089,-10.801696,0.006883457,-0.0024188247,-0.029288426,48.279778,156.9064,0.0047884034,1442826,-3,-363,2570,4794
59043410,4010,0,0.3544478,-0.6952234,-10.80119,0.0040083416,-0.001273827,-0.045397878,48.3241,156.9064,0.0047884034,1442826,199,647,2190,4810
59147400,4001,0,-0.58426493,0.8384627,-10.340304,-0.0036968107,0.012433699,-0.055573422,48.32687,156.9064,0.0047884034,1442826,-543,-856,2074,4811
59247399,4000,0,-0.4186975,0.96051466,-10.3878565,-0.0014966794,0.005981285,-0.054595955,48.34903,156.9064,0.0047884034,1442826,-107,-826,2353,4819
59347399,3956,0,-0.19006932,0.22863479,-10.343897,-0.0004104079,-0.0011114001,-0.051165495,48.34903,156.9064,0.0047884034,1442826,529,-625,2478,4819
59451399,3967,0,0.55137306,-1.1421864,-11.062172,0.00033746427,-0.00780982,-0.030903846,48.38227,156.9064,0.0047884034,1442826,-35,955,1722,4831
59551412,4013,0,-0.4443775,-0.36220795,-10.913497,-0.0031732142,0.01679985,-0.05118995,48.393353,156.9064,0.0047884034,1442826,-590,-728,2093,4835
59651406,4007,0,-0.05916823,0.6102204,-10.744459,-0.0078107887,0.0078129545,-0.03771803,48.35734,156.9064,0.0047884034,1442826,-461,-127,1024,4822
59755399,4000,0,0.5277283,0.9836249,-10.621856,-2.7908012e-05,-0.012313037,-0.035766505,48.36842,156.9064,0.0047884034,1442826,541,947,1985,4826
59855402,4004,0,0.28371015,0.05026451,-10.688729,-0.0022168285,0.0035170885,-0.048997685,48.44044,156.9064,0.0047884034,1442826,-614,-581,3132,4852
59959399,3994,0,0.06270474,-0.34117487,-10.773117,0.01585363,0.010104843,-0.03947337,48.40443,156.9064,0.0047884034,1442826,247,278,3530,4839
60059399,4000,0,0.2828174,0.40464854,-9.895573,0.003765558,-0.0044382657,-0.041702665,48.454292,156.9064,0.0047884034,1442826,-468,513,2096,4857
60159401,4002,0,0.2778527,0.9533477,-9.280535,0.0026750357,-0.0046568383,-0.040435895,48.432133,156.9064,0.0047884034,1442826,300,406,3573,4849
60263442,4043,0,0.18689053,-0.42169347,-10.2942705,-0.003157161,-0.0047946214,-0.04413132,48.479225,156.9064,0.0047884034,1442826,126,-370,1384,4866
60363399,4000,0,-0.09886044,-1.0569088,-10.036071,-0.0016517871,0.0009019897,-0.031634476,48.443214,156.9064,0.0047884034,1442826,231,-18,1966,4853
60467399,3998,0,-0.15308687,0.9685397,-9.537343,0.009707193,0.012217429,-0.03676772,48.484764,156.9064,0.0047884034,1442826,525,-182,1678,4868
60567400,4000,0,0.43199253,1.705672,-9.947435,0.015043246,0.0021931874,-0.039673146,48.504154,156.9064,0.0047884034,1442826,477,91,1175,4875
60667400,4001,0,0.4051043,0.6416164,-9.669389,0.0038284375,-0.014835434,-0.03893067,48.468143,156.9064,0.0047884034,1442826,-500,90,2039,4862
60767399,4000,0,0.12345322,-0.34595862,-10.29969,-0.0031639114,-0.0021319538,-0.043587092,48.470913,156.9064,0.0047884034,1442826,745,-130,2552,4863
60871399,3973,0,0.50823396,-0.59378636,-9.854942,0.009122136,-0.0013333587,-0.021706954,48.509693,156.9064,0.0047884034,1442826,-225,1091,3634,4877
60971399,4000,0,0.02221076,0.9128974,-9.335128,-0.0047873976,0.0089899395,-0.03621742,48.540165,156.9064,0.0047884034,1442826,-38,531,2187,4888
61075399,4000,0,0.04096067,1.0133415,-9.709238,0.004681975,-0.0024576846,-0.036734723,48.529087,156.9064,0.0047884034,1442826,68,-554,2770,4884
61177034,4034,0,0.53426516,-0.37218648,-9.920564,0.014070494,-0.004655034,-0.03321233,48.554016,156.9064,0.0047884034,1442826,297,-12,2145,4893
61277001,3995,0,0.64691246,-0.95698977,-10.2600155,-0.008604729,0.0017691166,-0.049697764,48.529087,156.9064,0.0047884034,1442826,223,846,2522,4884
61377000,3982,0,0.12864894,-0.33194724,-9.8607855,-0.008619758,-0.004542856,-0.023899812,48.554016,156.9064,0.0047884034,1442826,-217,1045,2000,4893
61480999,3960,0,0.04131833,1.7611762,-9.060491,0.00024998514,0.0075006615,-0.048415013,48.554016,156.9064,0.0047884034,1442826,-962,33,3601,4893
61581016,4017,0,0.5083019,0.9599882,-10.020641,0.011395568,-0.0012906904,-0.03782718,48.565098,156.9064,0.0047884034,1442826,768,-494,1414,4897
61685011,4012,0,0.47387177,-1.147708,-9.792075,0.00027681608,-0.0067094527,-0.02048498,48.595566,156.9064,0.0047884034,1442826,-589,428,600,4908
61784999,4000,0,0.03465061,-0.48917246,-9.275554,0.0064414744,0.0021451558,-0.034747057,48.6205,156.9064,0.0047884034,1442826,-352,-239,1689,4917
61884999,3999,0,-0.048941363,0.85286444,-9.421174,0.006502015,0.004872978,-0.023151645,48.645428,156.9064,0.0047884034,1442826,-658,-487,846,4926
61988999,3994,0,0.38576704,1.0559374,-9.602526,0.011997656,-0.0024108773,-0.032583863,48.64266,156.9064,0.0047884034,1442826,142,75,2189,4925
62089006,3937,0,0.5295721,-0.024047451,-10.623651,0.007939478,-0.004590529,-0.05176723,48.66759,156.9064,0.0047884034,1442826,983,-370,1079,4934
62193006,3996,0,0.14727388,-1.0013148,-9.9724865,-0.0068146926,0.0036787663,-0.02272359,48.645428,156.9064,0.0047884034,1442826,-651,383,1644,4926
62296999,3996,0,-0.20695373,1.4270126,-9.536344,0.0048886416,0.012068062,-0.046645805,48.68421,156.9064,0.0047884034,1442826,-571,-298,2971,4940
62397008,3998,0,0.11264934,0.6567932,-8.178058,0.0016794538,0.00839943,-0.04801489,48.6759,156.9064,0.0047884034,1442826,-149,-530,1952,4937
62501000,4000,0,0.6673499,-0.14052719,-7.028901,-0.010250525,-0.003070694,-0.030937502,48.68144,156.9064,0.0047884034,1442826,219,157,1500,4939
62601012,3977,0,-0.17909661,0.51657116,-7.542351,0.018902088,0.014084652,-0.03236292,48.720222,156.9064,0.0047884034,1442826,998,-874,1217,4953
62700999,4000,0,-0.76120275,0.64923036,-8.319385,-0.022547292,-0.0002547216,-0.035070337,48.71468,156.9064,0.0047884034,1442826,692,-126,-1040,4951
62805000,4001,0,0.013460489,-0.089031875,-7.924761,-0.005916915,0.00068753783,-0.019569166,48.71468,156.9064,0.0047884034,1442826,-177,-90,3286,4951
62905039,4040,0,0.39154398,-0.36760312,-8.923183,0.0017915638,-0.004585222,-0.018080976,48.75069,156.9064,0.0047884034,1442826,-180,798,3740,4964
63004999,3999,0,0.04413524,-0.5342769,-10.056804,-0.007612808,-0.0037097228,-0.021419674,48.756233,156.9064,0.0047884034,1442826,-1010,717,1690,4966
63108999,4000,0,0.52451473,1.8019145,-9.698164,0.007618813,0.010817109,-0.049197752,48.753464,156.9064,0.0047884034,1442826,252,686,2585,4965
63212999,3980,0,0.010367619,0.354663,-10.196668,-0.00063433987,-0.00015049218,-0.037170734,48.76454,156.9064,0.0047884034,1442826,945,-841,3210,4969
63317023,4024,0,0.6557219,-1.3625249,-11.371729,0.0015704702,-0.01346512,-0.037067555,48.778393,156.9064,0.0047884034,1442826,-866,1282,2833,4974
63420999,4000,0,-0.2663783,0.5948196,-9.864713,0.005730859,0.017260214,-0.0306243,48.806095,156.9064,0.0047884034,1442826,654,-711,1265,4984
63520999,4000,0,-0.1391978,1.8031313,-10.242382,0.010397742,0.0070289085,-0.043608986,48.795013,156.9064,0.0047884034,1442826,213,-505,1748,4980
63620999,3992,0,0.18167551,1.8446013,-10.082079,0.015240558,-0.006899609,-0.025593102,48.828255,156.9064,0.0047884034,1442826,621,200,3241,4992
63724999,3989,0,0.3761197,-0.7162356,-10.981178,0.002240045,-0.0009932352,-0.06635513,48.806095,156.9064,0.0047884034,1442826,336,-731,1616,4984
63824999,3995,0,-0.08992018,-0.78697276,-10.694441,0.013956939,-0.0002661948,-0.029285973,48.850414,156.9064,0.0047884034,1442826,-379,-548,3204,5000
63929005,4005,0,-0.3187659,1.0138305,-9.6116495,-0.00091792597,0.0046667336,-0.044122335,48.844875,156.9064,0.0047884034,1442826,-1434,312,3211,4998
64028999,3993,0,-0.16057464,1.3606157,-9.544421,-0.013018251,0.006639584,-0.05744488,48.839336,156.9064,0.0047884034,1442826,787,-92,1402,4996
64133006,4006,0,-0.0026252833,-0.21599977,-10.231459,0.00090847304,0.003348202,-0.049304266,48.880886,156.9064,0.0047884034,1442826,492,-964,2993,5011
64233010,4009,0,0.033471998,-0.651847,-10.690689,0.0013007047,0.0029123,-0.046166472,48.880886,156.9064,0.0047884034,1442826,-328,61,2788,5011
64336999,3985,0,0.38915685,0.54851395,-9.459898,0.00040369853,0.0032411278,-0.029237136,48.867035,156.9064,0.0047884034,1442826,-1008,1183,3605,5006
64437006,4007,0,0.2284281,1.3775437,-9.843606,-0.0048506293,0.0022453864,-0.042793985,48.878117,156.9064,0.0047884034,1442826,942,146,1099,5010
64541003,4004,0,0.15864944,-0.18773319,-10.065617,0.0044541303,-0.005592588,-0.03303531,48.891968,156.9064,0.0047884034,1442826,-473,-100,4619,5015
64640999,4000,0,0.3453647,-0.7394925,-11.107604,-0.00020165951,0.0056074704,-0.06067188,48.911358,156.9064,0.0047884034,1442826,615,-526,905,5022
64740999,3999,0,-0.75739574,-0.68480945,-10.531015,0.0010292944,0.0036372687,-0.042211954,48.936287,156.9064,0.0047884034,1442826,-565,-1417,2175,5031
64844999,4000,0,-0.031384293,0.84182143,-9.795409,-0.0046383683,-0.0059565557,-0.039833337,48.905815,156.9064,0.0047884034,1442826,-1341,33,2112,5020
64945039,4040,0,0.08209261,0.8743688,-9.631546,-0.007957423,0.0019997414,-0.039702307,48.958447,156.9064,0.0047884034,1442826,720,201,2071,5039
65045010,4011,0,0.30884185,-0.39249572,-10.034422,-0.007785715,-0.0076640467,-0.037169196,48.930748,156.9064,0.0047884034,1442826,-31,-206,2296,5029
65149003,4004,0,0.054051235,-0.6326192,-10.375231,0.0066705407,0.0022811992,-0.02410991,48.97784,156.9064,0.0047884034,1442826,-305,-148,1888,5046
65248999,3998,0,-0.36745968,0.613902,-9.45469,0.011428343,0.0076586185,-0.032254808,48.97784,156.9064,0.0047884034,1442826,-946,-357,2463,5046
65350599,4800,0,0.089964546,1.6313245,-9.221469,0.0016616158,0.0013371324,-0.05361093,48.96953,156.9064,0.0047884034,1442826,1317,-557,1770,5043
66174599,3980,0,0.5687398,0.6026123,-9.160239,0.0077380827,-0.01124106,-0.018729918,49.047092,156.9064,0.0047884034,1442826,223,1123,4639,5071
66278599,3987,0,-0.03934541,-1.2398493,-10.055421,-0.007929755,-0.0058863084,-0.02603957,49.069252,156.9064,0.0047884034,1442826,-355,1251,4937,5079
66382642,3995,0,-0.11808905,0.24142914,-9.368929,0.0034313146,0.009540228,-0.035477933,49.083103,156.9064,0.0047884034,1442826,-1161,358,4460,5084
66482600,4000,0,-0.3185036,1.3189064,-9.44603,-0.00081596477,0.012380408,-0.0653246,49.102493,156.9064,0.0047884034,1442826,-650,-960,1088,5091
66582600,4001,0,-0.2812242,1.389266,-9.690748,-0.0011014943,0.009968546,-0.055433776,49.1108,156.9064,0.0047884034,1442826,816,-1342,-57,5094
66682599,3993,0,0.31652623,-0.1448979,-10.105874,0.0007951815,-0.010796763,-0.023600325,49.096954,156.9064,0.0047884034,1442826,322,494,4514,5089
66786651,4030,0,0.452183,-1.0886723,-9.835128,0.003736567,-0.005536812,-0.03441709,49.127422,156.9064,0.0047884034,1442826,-586,1073,4655,5100
66886639,4040,0,-0.20861474,0.32198632,-10.292896,0.0041052313,0.010359562,-0.062051613,49.124653,156.9064,0.0047884034,1442826,206,-551,-948,5099
66990600,4001,0,0.52037543,1.2968614,-9.488186,0.0018903455,-0.0007226427,-0.040709782,49.138504,156.9064,0.0047884034,1442826,-244,-521,-478,5104
67090606,4007,0,0.583308,0.72604483,-9.256578,0.0021032821,-0.0115864705,-0.027240882,49.13019,156.9064,0.0047884034,1442826,492,933,5447,5101
67190600,3991,0,0.50718,-0.32173914,-10.395634,-0.016019441,-0.011781699,-0.0653473,49.202217,156.9064,0.0047884034,1442826,-608,246,1364,5127
67294615,3973,0,-0.58049804,-0.86915714,-10.031382,-0.007445206,0.010003323,-0.05900865,49.191135,156.9064,0.0047884034,1442826,-1295,-524,1203,5123
67394623,4023,0,-0.36702108,0.44703335,-9.622729,0.0075428784,0.016823325,-0.026952527,49.227146,156.9064,0.0047884034,1442826,633,-405,1993,5136
67498602,3969,0,0.26141417,1.7303869,-9.594932,0.012269368,0.0020197108,-0.014729891,49.216064,156.9064,0.0047884034,1442826,1725,69,1552,5132
67598604,4004,0,0.53173417,0.06297047,-9.917415,0.010314925,-0.015954781,-0.042975016,49.185596,156.9064,0.0047884034,1442826,-184,352,3950,5121
67702600,3986,0,-0.31914276,-1.0500102,-10.304492,-0.008645162,-0.005162932,-0.045839638,49.23546,156.9064,0.0047884034,1442826,-1376,248,2844,5139
67802599,3995,0,-0.21608925,-0.34117422,-9.690412,-0.010787829,0.017112074,-0.041751996,49.232685,156.9064,0.0047884034,1442826,-149,-164,309,5138
67902607,4007,0,0.39966917,1.1231709,-8.924294,-0.0031267365,0.0036849328,-0.0054595433,49.224377,156.9064,0.0047884034,1442826,-75,1156,3947,5135
68006599,3999,0,0.070912175,0.79926366,-9.824162,0.008657851,-0.0018554744,-0.020453934,49.243767,156.9064,0.0047884034,1442826,131,286,4463,5142
68106599,3993,0,0.25090125,-0.83108586,-10.415369,0.0070500346,-0.008638256,-0.043361112,49.257618,156.9064,0.0047884034,1442826,-320,-493,1974,5147
68206599,3987,0,-0.21654919,-1.3779027,-10.482894,0.000530018,0.00740001,-0.054563724,49.301937,156.9064,0.0047884034,1442826,-148,-1115,422,5163
68310600,4001,0,-0.12335339,0.6587493,-9.856076,0.006652659,0.005608311,-0.03153772,49.28809,156.9064,0.0047884034,1442826,-147,126,1076,5158
68410641,4042,0,0.2177983,1.1908864,-9.092551,0.00531314,0.0004623516,-0.026839418,49.263157,156.9064,0.0047884034,1442826,-883,476,3627,5149
68510602,4003,0,1.009828,1.423491,-9.5620365,0.017031923,0.0045104865,-0.03238806,49.301937,156.9064,0.0047884034,1442826,1439,870,1770,5163
68614599,4000,0,0.74452347,-0.4761711,-10.078736,-0.005983972,-0.003466026,-0.030054394,49.2964,156.9064,0.0047884034,1442826,955,1081,2561,5161
68714599,4000,0,-0.345206,-0.9960409,-10.354023,-0.0025113744,-0.0012999475,-0.03501405,49.32687,156.9064,0.0047884034,1442826,-1514,-575,2308,5172
68814600,4001,0,-0.64604956,-0.015696837,-9.716326,-0.0139370635,0.009009348,-0.055313524,49.31302,156.9064,0.0047884034,1442826,-749,-1054,-317,5167
68918599,4000,0,0.30078712,1.668505,-9.667134,-0.0015431647,0.0066533834,-0.06526837,49.3518,156.9064,0.0047884034,1442826,1031,-466,299,5181
69018599,4000,0,0.8503654,0.96480465,-9.699354,0.010256336,-0.0047688764,-0.023263177,49.337948,156.9064,0.0047884034,1442826,1423,769,2959,5176
69122599,4000,0,0.24604297,-1.4176223,-9.668093,-0.00714795,0.0011817807,-0.018606227,49.36011,156.9064,0.0047884034,1442826,-510,1356,5378,5184
69220199,4798,0,0.25820565,-1.7788519,-10.116277,-0.0051287785,-0.00025140215,-0.049639598,49.37119,156.9064,0.0047884034,1442826,-1104,580,2668,5188
69324209,3998,0,-0.73381513,0.5164281,-10.031776,0.009792794,0.015804162,-0.03468662,49.36565,156.9064,0.0047884034,1442826,-776,-615,1540,5186
69424199,3962,0,0.13184544,1.3658681,-9.301261,0.00015002955,0.0017334695,-0.032896724,49.373962,156.9064,0.0047884034,1442826,494,-651,3454,5189
69528247,4013,0,0.2520522,-0.024628822,-9.856479,0.0088801,-0.019884858,-0.0358323,49.39889,156.9064,0.0047884034,1442826,1256,253,4378,5198
69628248,4012,0,0.2771425,-0.86758614,-10.609656,0.00069397275,-0.0044713872,-0.05103284,49.39889,156.9064,0.0047884034,1442826,580,135,1426,5198
69728205,3997,0,0.18530005,-1.0137514,-10.065211,0.0050477413,-0.00078261853,-0.023220208,49.40166,156.9064,0.0047884034,1442826,895,166,1071,5199
69832206,4007,0,0.424117,1.3571745,-9.033665,-0.0045734737,0.0022316135,-0.015592592,49.40166,156.9064,0.0047884034,1442826,567,1114,3201,5199
69936200,3978,0,0.39169347,0.6541089,-9.281334,0.008549943,-0.0042570224,-0.027504964,49.459835,156.9064,0.0047884034,1442826,62,502,5361,5220
70040230,4015,0,0.28547648,-0.94476014,-10.014641,-0.009414956,-0.002747268,-0.02780182,49.462605,156.9064,0.0047884034,1442826,456,1419,4082,5221
70140211,4012,0,0.26560622,-1.150375,-10.016707,-0.0075064925,-0.0042053154,-0.027853467,49.454292,156.9064,0.0047884034,1442826,-114,394,1647,5218
70240199,3979,0,0.055751313,0.7422958,-9.087316,-0.0012315273,0.0038195208,-0.02647379,49.451523,156.9064,0.0047884034,1442826,-389,863,2802,5217
70344199,4000,0,0.11341121,1.3867,-9.845418,0.007019291,0.00015412271,-0.02980184,49.459835,156.9064,0.0047884034,1442826,988,-184,2111,5220
70444199,4000,0,0.06266401,0.09447026,-10.102597,0.016884899,-0.0071948147,-0.035023738,49.479225,156.9064,0.0047884034,1442826,67,-1048,3336,5227
70544222,4017,0,0.014610191,-1.2060806,-10.38658,-0.0025859273,-0.0006208092,-0.06834122,49.490303,156.9064,0.0047884034,1442826,276,-820,878,5231
70648206,4007,0,-0.24094619,-0.6243608,-9.939838,-0.0061234687,-0.0020071615,-0.03612963,49.498615,156.9064,0.0047884034,1442826,-1154,108,1769,5234
70748199,4000,0,-0.028331917,0.73797005,-9.137361,-0.010745472,0.0072375713,-0.04064108,49.506924,156.9064,0.0047884034,1442826,-486,-136,1031,5237
70848199,3993,0,0.4850134,0.9825497,-8.788842,-0.005268536,-0.0048338985,-0.030749902,49.509693,156.9064,0.0047884034,1442826,-1524,677,3096,5238
70952214,4006,0,0.001439916,-0.3073086,-10.39741,-0.0036974354,0.0006054512,-0.04932155,49.509693,156.9064,0.0047884034,1442826,-254,-1117,878,5238
71052199,4000,0,0.52401763,-0.8889878,-10.070095,0.004374605,-0.005189103,-0.0317178,49.56233,156.9064,0.0047884034,1442826,-274,297,2435,5257
71152199,4000,0,-0.07309231,-0.38493735,-10.033592,0.006164019,0.009987335,-0.046450906,49.565098,156.9064,0.0047884034,1442826,284,-576,701,5258
71256228,4020,0,0.6114832,1.2037493,-9.367308,0.00077145715,0.0046357987,-0.020561254,49.542934,156.9064,0.0047884034,1442826,-136,100,609,5250
71356199,3982,0,0.43665498,1.4909825,-9.654534,-0.007611175,0.0039752764,-0.056252025,49.570637,156.9064,0.0047884034,1442826,-57,130,2459,5260
71460222,3996,0,0.25836506,-0.271423,-10.453686,0.008353555,-0.007094063,-0.047126904,49.578945,156.9064,0.0047884034,1442826,95,-594,-151,5263
71560223,4024,0,0.27683818,-1.0525541,-10.463828,0.018384282,0.0009522904,-0.037492804,49.576176,156.9064,0.0047884034,1442826,598,81,2793,5262
71664203,3997,0,-0.19728546,0.26597992,-9.826345,-0.0044026994,0.0104552945,-0.033655547,49.584488,156.9064,0.0047884034,1442826,-94,323,1064,5265
71764240,4041,0,0.0928884,1.3019568,-8.96524,-0.005065867,-0.004510592,-0.040070232,49.603878,156.9064,0.0047884034,1442826,-1708,218,3751,5272
71864200,4000,0,0.19347352,1.3733282,-9.964325,-0.010222566,-0.0018331765,-0.056597114,49.609417,156.9064,0.0047884034,1442826,378,-552,-257,5274
71968199,3971,0,0.18674384,-1.0831141,-10.195674,0.0017791297,-0.0010126745,-0.047134716,49.612186,156.9064,0.0047884034,1442826,323,-479,2117,5275
72068199,4000,0,-0.35880652,-1.554646,-10.656017,-0.010517722,0.0032079993,-0.058687,49.62327,156.9064,0.0047884034,1442826,64,-1146,1025,5279
72168199,4000,0,-0.19784857,-0.35308972,-10.180189,0.0005173366,0.007983712,-0.032422457,49.66205,156.9064,0.0047884034,1442826,-404,221,2529,5293
72272199,4000,0,0.037044413,1.1659228,-9.238518,-0.012706826,0.0006102094,-0.04997055,49.612186,156.9064,0.0047884034,1442826,186,75,1685,5275
72372199,3982,0,0.71688724,0.77648014,-9.496125,-0.0023417093,-0.011449571,-0.022693126,49.664818,156.9064,0.0047884034,1442826,-384,659,2660,5294
72476211,4011,0,0.12800121,-0.6713884,-10.184945,-0.0037968117,0.0005427657,-0.04799953,49.65928,156.9064,0.0047884034,1442826,845,-170,2525,5292
72580199,3964,0,0.22402383,0.13616577,-9.560904,0.0066330866,0.011029009,-0.022567581,49.67313,156.9064,0.0047884034,1442826,1201,413,2614,5297
72680199,3963,0,0.07784318,1.3723416,-9.348419,0.0013029731,0.00923833,-0.041028608,49.6759,156.9064,0.0047884034,1442826,18,335,2573,5298
72780237,4037,0,0.21738163,1.6136396,-9.414644,0.0010280325,-0.005701557,-0.0437473,49.68421,156.9064,0.0047884034,1442826,-373,184,1700,5301
72881814,4015,0,1.171649,0.65781194,-9.872195,8.715957e-05,-0.012061073,-0.022224108,49.68421,156.9064,0.0047884034,1442826,1017,299,762,5301
72985799,4000,0,-0.26729637,-1.2008213,-10.261152,-0.0067510726,-0.0066756187,-0.0431989,49.70637,156.9064,0.0047884034,1442826,-856,28,3567,5309
73085847,4048,0,0.058041554,-0.5469118,-10.218812,0.0039666677,0.004633249,-0.021971684,49.720222,156.9064,0.0047884034,1442826,-469,-468,763,5314
73185799,3979,0,-0.27991277,0.5108981,-9.718589,0.009945994,0.016033191,-0.039160065,49.720222,156.9064,0.0047884034,1442826,-985,-560,2053,5314
73289838,4039,0,0.5710495,1.5460632,-10.096934,0.005100455,-0.0045936718,-0.03517512,49.722992,156.9064,0.0047884034,1442826,732,-408,-538,5315
73389806,4007,0,1.0863521,0.43354315,-10.240515,0.0109641375,-0.008772815,-0.031332094,49.7313,156.9064,0.0047884034,1442826,1341,1061,3335,5318
73493799,4000,0,-0.24257584,-1.2791966,-10.799142,-0.004385896,-0.006708607,-0.040676698,49.753464,156.9064,0.0047884034,1442826,-813,-659,825,5326
73593799,3971,0,-0.29334348,-0.03961437,-9.794898,0.010713375,0.018153356,-0.026902042,49.74792,156.9064,0.0047884034,1442826,213,-337,2021,5324
73697800,3963,0,0.6781133,1.7736667,-9.740599,0.009836894,0.004235731,-0.030213805,49.781162,156.9064,0.0047884034,1442826,936,586,1286,5336
73797799,4000,0,0.20980895,1.1438968,-10.064411,0.01345256,-0.011213502,-0.042979226,49.761772,156.9064,0.0047884034,1442826,-408,-423,1872,5329
73897799,3999,0,0.38578448,0.25042254,-9.753132,0.0015769822,-0.008061839,-0.03616579,49.797783,156.9064,0.0047884034,1442826,1700,590,3266,5342
74001799,3999,0,-0.2858591,-0.95099074,-9.889625,-0.0062957252,0.007143043,-0.025820766,49.795013,156.9064,0.0047884034,1442826,616,61,3140,5341
74105799,3999,0,-0.49478292,1.0980644,-9.772162,0.014476035,0.0046375,-0.040055607,49.842106,156.9064,0.0047884034,1442826,-261,-761,3799,5358
74205806,4006,0,-0.40140972,1.7666657,-10.107949,0.006877573,0.0135348905,-0.04596785,49.811634,156.9064,0.0047884034,1442826,1231,-895,-73,5347
74305813,4014,0,0.8822685,0.69916904,-9.162562,0.004147052,-0.011867416,-0.033887938,49.844875,156.9064,0.0047884034,1442826,-590,926,3991,5359
74409799,4000,0,0.06589648,-1.5629694,-10.28322,-0.017729037,-0.010637894,-0.043275576,49.822716,156.9064,0.0047884034,1442826,-1314,861,3211,5351
74509799,4000,0,-0.13494968,-1.0511097,-10.067528,-0.012214474,0.0041075996,-0.035245374,49.811634,156.9064,0.0047884034,1442826,-93,-135,1365,5347
74613799,4000,0,-0.11510613,1.0909684,-9.545367,-0.00083905784,-0.00020833837,-0.048290767,49.875347,156.9064,0.0047884034,1442826,-551,-904,649,5370
74713799,3973,0,-0.1016514,1.2563181,-9.644813,0.006826883,0.0017734264,-0.030305188,49.864265,156.9064,0.0047884034,1442826,-334,-766,1408,5366
74813800,4001,0,0.2915682,0.2707121,-9.717358,-0.0023959442,0.007041266,-0.041325003,49.889194,156.9064,0.0047884034,1442826,611,529,3640,5375
74917799,4000,0,0.02028191,-1.1336412,-10.727916,0.0028980174,-0.00046094786,-0.045012277,49.872578,156.9064,0.0047884034,1442826,925,-205,1587,5369
75017839,4040,0,0.16067548,-0.7154482,-9.880103,0.009487651,0.008915286,-0.024962552,49.864265,156.9064,0.0047884034,1442826,167,667,2616,5366
75117799,3991,0,-0.44174874,0.7308932,-9.65589,0.010197373,0.0030767897,-0.036157653,49.878117,156.9064,0.0047884034,1442826,134,194,2999,5371
75221835,4029,0,0.73443437,1.2020721,-9.491596,0.0025227023,-0.0057227006,-0.042097624,49.900276,156.9064,0.0047884034,1442826,-103,420,1889,5379
75325806,3990,0,0.28705692,-0.7177386,-10.397937,0.00046472167,0.0011020701,-0.03750144,49.92798,156.9064,0.0047884034,1442826,823,-283,1499,5389
75429845,4033,0,0.10626853,-0.41316712,-10.212877,0.004160144,0.0036886882,-0.042219527,49.94183,156.9064,0.0047884034,1442826,561,-121,1011,5394
75529800,4001,0,-0.3034374,0.74784267,-9.971894,0.011429627,0.006545032,-0.027883176,49.939056,156.9064,0.0047884034,1442826,-242,249,1540,5393
75629799,3966,0,0.11906173,1.5998431,-9.526363,0.014240276,0.008172509,-0.033834565,49.955677,156.9064,0.0047884034,1442826,173,-758,2282,5399
75733799,4000,0,0.49329716,-0.05075479,-10.125419,-0.00042355643,-0.016210256,-0.029782573,49.99446,156.9064,0.0047884034,1442826,-9,796,4040,5413
75833806,4007,0,0.059563864,-1.0019325,-10.309558,-0.006654538,-0.005118425,-0.044377968,49.98615,156.9064,0.0047884034,1442826,193,-38,278,5410
75933799,4000,0,-0.030520724,-1.2664924,-9.703562,-0.007916402,-0.0033368599,-0.037195317,49.96399,156.9064,0.0047884034,1442826,-1331,630,3351,5402
76037810,3998,0,-0.31969044,1.0222025,-9.374916,-0.0075521213,0.011142939,-0.03440644,49.96953,156.9064,0.0047884034,1442826,-1161,186,2480,5404
76137799,4000,0,-0.043977164,1.6808859,-8.988565,-0.005995224,0.0024775781,-0.039156884,49.99446,156.9064,0.0047884034,1442826,155,-272,2538,5413
76239400,4000,0,0.45480967,0.46537426,-9.893764,0.004689679,0.0021052952,-0.040395644,50.03878,156.9064,0.0047884034,1442826,1421,150,2649,5429
76343399,4000,0,0.26242742,-1.250916,-10.284876,0.009778038,0.0013139646,-0.031589426,50.0277,156.9064,0.0047884034,1442826,-130,195,2793,5425
76447400,4000,0,0.06203457,0.37972122,-10.011753,-0.0017581851,0.0011832027,-0.03883568,50.02493,156.9064,0.0047884034,1442826,-386,271,1427,5424
76547399,4000,0,0.13993931,1.2900158,-9.233953,-0.0021512196,-0.0039108195,-0.028024398,50.02493,156.9064,0.0047884034,1442826,-973,63,2775,5424
76647443,4037,0,0.52500045,1.4378881,-9.180428,-0.0056094415,0.0052564833,-0.042675406,50.03601,156.9064,0.0047884034,1442826,96,207,825,5428
76751406,4007,0,-0.067943044,-0.7475456,-10.521885,-0.015433308,-0.009776844,-0.05973231,50.099724,156.9064,0.0047884034,1442826,289,-845,931,5451
76855399,4000,0,-0.30110845,-0.5036909,-9.952374,0.006594354,0.0018620021,-0.025824208,50.06094,156.9064,0.0047884034,1442826,352,-213,2661,5437
76955399,4000,0,0.20193262,0.64012414,-8.716262,0.00023830845,0.002741607,-0.040837575,50.09141,156.9064,0.0047884034,1442826,-899,1133,4796,5448
77059399,4000,0,0.5232447,1.2141693,-9.150168,-0.01764422,-0.0111269215,-0.044810954,50.099724,156.9064,0.0047884034,1442826,-499,1600,4463,5451
77159443,4043,0,0.6670498,0.36524373,-10.64031,-0.0034010422,-0.008574748,-0.016968662,50.085873,156.9064,0.0047884034,1442826,188,173,-181,5446
77263399,4000,0,0.40035957,-1.0010108,-9.64159,0.010285189,-0.00063849834,-0.013345037,50.108032,156.9064,0.0047884034,1442826,-2,956,4653,5454
77363399,4000,0,-0.5780362,-0.36696506,-10.493821,0.0024354842,0.01348975,-0.056625787,50.121883,156.9064,0.0047884034,1442826,341,-970,414,5459
77467400,4000,0,0.37785313,1.6053115,-9.639086,0.010867351,0.005283106,-0.03598524,50.146812,156.9064,0.0047884034,1442826,290,8,679,5468
77567399,3985,0,0.4122489,1.6421148,-9.665116,0.005856769,-0.002484091,-0.034776263,50.138504,156.9064,0.0047884034,1442826,448,121,2999,5465
77667400,4000,0,0.6024532,0.41365188,-9.723428,0.0050020423,-0.013068358,-0.03529796,50.141273,156.9064,0.0047884034,1442826,290,395,3140,5466
77771405,3991,0,0.012955129,-1.670238,-10.313593,-0.012304665,-0.006600776,-0.03400285,50.138504,156.9064,0.0047884034,1442826,-701,-142,727,5465
77875400,3994,0,-0.40442273,0.4010668,-9.78583,-0.0042249775,0.008192723,-0.040656507,50.157894,156.9064,0.0047884034,1442826,-548,-636,1475,5472
77975400,4001,0,-0.015406847,1.3260955,-9.4163685,0.0012701722,0.0059186704,-0.035348758,50.166206,156.9064,0.0047884034,1442826,-652,473,2794,5475
78075443,4044,0,-0.12241209,1.1957052,-9.478604,-0.012152012,0.0036550374,-0.056057677,50.171745,156.9064,0.0047884034,1442826,-279,-618,867,5477
78179399,3968,0,-0.038108736,-0.896765,-10.84372,-0.0034378031,-0.00447034,-0.06751278,50.180054,156.9064,0.0047884034,1442826,-164,-1535,-530,5480
78279399,4000,0,-0.06130782,-0.95991397,-10.165501,0.0023756656,-0.0007594164,-0.028749544,50.191135,156.9064,0.0047884034,1442826,-573,395,4306,5484
78383399,4000,0,0.18628451,0.49292427,-9.642617,-0.006801583,0.0007493838,-0.04488978,50.224377,156.9064,0.0047884034,1442826,-1026,421,1735,5496
78483399,4000,0,0.25758034,1.6524764,-9.632374,0.00011458411,0.0025859787,-0.03515913,50.204987,156.9064,0.0047884034,1442826,607,530,806,5489
78587399,4000,0,0.5409249,0.23431867,-9.747447,-0.004934433,-0.0033581043,-0.04183065,50.227146,156.9064,0.0047884034,1442826,108,419,3735,5497
78691399,3967,0,-0.08991359,-1.072767,-10.353435,0.004613419,0.0016500899,-0.028437613,50.246536,156.9064,0.0047884034,1442826,-168,464,2938,5504
78791399,3935,0,-0.17312756,-0.2036423,-9.846182,0.010025449,0.0061870273,-0.039354686,50.238228,156.9064,0.0047884034,1442826,-136,-687,249,5501
78891399,4000,0,0.16252093,1.1485566,-9.446655,0.013112536,0.011061714,-0.033886135,50.218838,156.9064,0.0047884034,1442826,342,-223,2694,5494
78995399,4000,0,0.2956993,1.0817306,-9.176866,0.0016935025,-0.009093871,-0.022427754,50.25208,156.9064,0.0047884034,1442826,444,577,4085,5506
80116999,4000,0,0.05192513,-1.1907047,-10.342569,-0.0069292365,-0.0060032518,-0.051076442,50.34349,156.9064,0.0047884034,1442826,-1768,-339,2095,5539
80221015,4016,0,-0.26944155,0.312405,-9.370415,0.0042147506,0.01757553,-0.0428686,50.37119,156.9064,0.0047884034,1442826,-1063,-309,1423,5549
80320999,4000,0,-0.344695,1.4726603,-9.106012,0.0006052895,0.01845117,-0.040346123,50.38504,156.9064,0.0047884034,1442826,753,-417,1427,5554
80420999,3974,0,0.28177977,1.1368017,-8.805571,-0.013696891,0.007885126,-0.046138808,50.36565,156.9064,0.0047884034,1442826,1492,718,2870,5547
80525006,4007,0,0.11643821,-0.9858383,-10.125306,-0.0053789276,0.0035519218,-0.041304905,50.38504,156.9064,0.0047884034,1442826,604,-39,1883,5554
80625021,4022,0,-0.054322895,-1.1735377,-9.990957,-0.0035187418,0.0069827465,-0.020736171,50.42382,156.9064,0.0047884034,1442826,949,50,1575,5568
80725000,4001,0,-0.4796078,-0.4363198,-9.261085,-0.0075580217,-0.0055975486,-0.034133635,50.42382,156.9064,0.0047884034,1442826,-1618,102,3909,5568
80828999,4000,0,0.28058255,1.6510922,-9.429951,0.012741323,-0.006100334,-0.037851147,50.412743,156.9064,0.0047884034,1442826,-451,-409,3629,5564
80928999,4000,0,-0.3519637,0.9503832,-10.092655,0.0030541797,0.0030434872,-0.054575488,50.41828,156.9064,0.0047884034,1442826,943,-969,634,5566
81033000,3990,0,0.35759494,-1.0118852,-10.252278,-0.010451066,-0.0015062894,-0.057514142,50.43767,156.9064,0.0047884034,1442826,644,-179,720,5573
81133039,4029,0,0.053543124,-1.213261,-9.909856,-0.014404454,-0.013417841,-0.037244335,50.432133,156.9064,0.0047884034,1442826,-1117,444,1560,5571
81233005,4004,0,0.11554013,0.31980273,-9.714968,0.007105949,0.0064772666,-0.020083724,50.462605,156.9064,0.0047884034,1442826,-279,825,1612,5582
81337000,4001,0,0.07329982,1.7400799,-9.179829,0.004295119,0.010907238,-0.033751708,50.470913,156.9064,0.0047884034,1442826,1113,-143,2865,5585
81436999,3999,0,-0.110989094,0.5514737,-10.199387,0.0010091271,-0.0015821758,-0.05156012,50.479225,156.9064,0.0047884034,1442826,330,-974,2259,5588
81537029,4008,0,-0.32449058,-0.52952826,-10.638912,-0.0031250173,-0.0016551024,-0.05403028,50.473682,156.9064,0.0047884034,1442826,382,-1360,1819,5586
81641045,4005,0,-0.15048432,-0.8583194,-10.361695,-0.011411931,0.005731279,-0.049605288,50.493073,156.9064,0.0047884034,1442826,-2,-198,624,5593
81741000,4000,0,0.012029201,0.15347533,-9.087566,-0.008872388,0.0032566863,-0.022322975,50.495846,156.9064,0.0047884034,1442826,-1686,1088,4091,5594
81845000,4000,0,0.111831285,1.4488387,-9.527251,0.00424463,0.0011645964,-0.05225706,50.520775,156.9064,0.0047884034,1442826,-34,-120,2626,5603
81944999,4000,0,0.4439905,0.5162798,-10.229386,0.006267842,-0.0020302904,-0.042952698,50.540165,156.9064,0.0047884034,1442826,480,-606,1476,5610
82045013,4013,0,-0.30866578,-0.903154,-10.324695,6.1145984e-06,-0.0007062112,-0.04039002,50.551247,156.9064,0.0047884034,1442826,623,-1332,2015,5614
82148999,3991,0,-0.31040356,-0.37333682,-10.368196,0.0028952272,0.0036867682,-0.035604022,50.551247,156.9064,0.0047884034,1442826,227,-46,83,5614
82248999,4000,0,0.2069322,0.7745099,-9.310471,0.015492651,0.0026414662,-0.020491488,50.548477,156.9064,0.0047884034,1442826,-841,234,3678,5613
82349003,3997,0,0.20058446,1.7935843,-9.507446,0.007773926,-0.0008461692,-0.0485758,50.570637,156.9064,0.0047884034,1442826,-174,31,2981,5621
82454600,4000,0,0.55341846,-0.19852644,-9.973891,0.00020998798,-0.0070430697,-0.053734686,50.584488,156.9064,0.0047884034,1442826,-318,238,3481,5626
82554599,3993,0,0.49857596,-1.2439833,-10.335107,-0.0010322017,-0.0046451204,-0.036607876,50.565098,156.9064,0.0047884034,1442826,-489,811,2000,5619
82654599,3975,0,0.0480316,-1.1047465,-10.254062,0.0120872175,0.008758949,-0.027977597,50.573406,156.9064,0.0047884034,1442826,284,184,2738,5622
82758599,4000,0,-0.17997925,1.6015888,-9.712943,0.0036822797,0.0025990368,-0.045256842,50.606647,156.9064,0.0047884034,1442826,-284,273,2095,5634
82858600,4001,0,0.36682057,1.7076924,-9.47581,0.0010906556,0.0061688935,-0.04759146,50.609417,156.9064,0.0047884034,1442826,1330,39,1752,5635
82958599,3999,0,0.23490646,1.426871,-10.005914,0.015060429,-0.00041453564,-0.015030641,50.612186,156.9064,0.0047884034,1442826,1641,-668,201,5636
83062599,4000,0,0.6076249,-0.90408856,-10.755207,-0.0016875013,-0.010302751,-0.032128282,50.606647,156.9064,0.0047884034,1442826,1038,1088,1095,5634
83162599,4000,0,0.17033085,-0.7450344,-9.857615,-0.0016473108,0.008765323,-0.026099226,50.603878,156.9064,0.0047884034,1442826,1082,847,3139,5633
83262631,4025,0,-0.2726179,0.3530115,-10.270783,0.013324849,0.006986104,-0.03513571,50.65374,156.9064,0.0047884034,1442826,155,-404,395,5651
83366606,3991,0,0.4324986,1.6286408,-9.215062,0.00058726245,-0.0017106214,-0.043452576,50.603878,156.9064,0.0047884034,1442826,688,906,3133,5633
83466600,3973,0,0.6170138,1.0327489,-9.755062,0.01398262,-0.0021730438,-0.023935283,50.62327,156.9064,0.0047884034,1442826,346,256,1409,5640
83570600,3978,0,0.5955478,-1.2529768,-10.361389,-0.0032193987,-0.016956944,-0.040019285,50.626038,156.9064,0.0047884034,1442826,593,448,1488,5641
83670606,3960,0,-0.32173812,-0.92303663,-10.110742,0.0024418673,0.0017371504,-0.034383044,50.67313,156.9064,0.0047884034,1442826,576,-396,2073,5658
83770640,4041,0,-0.5747443,0.46217072,-10.2677,0.0069352994,0.010477563,-0.04614377,50.66759,156.9064,0.0047884034,1442826,312,-1016,-1341,5656
83874599,3999,0,0.8877498,1.8176641,-9.151296,0.012986854,0.0017996654,-0.04072488,50.65651,156.9064,0.0047884034,1442826,394,913,3555,5652
83974600,4000,0,0.4104235,1.0812182,-10.003866,0.009269579,-0.001829759,-0.044098087,50.67867,156.9064,0.0047884034,1442826,199,55,1507,5660
84078599,3999,0,0.8367836,-0.8496028,-10.164051,-0.0012361323,-0.013054805,-0.025363686,50.68975,156.9064,0.0047884034,1442826,963,1100,3828,5664
84178599,3999,0,0.13980472,-1.0991379,-10.385748,-0.0030652655,-0.0046457113,-0.036247253,50.7036,156.9064,0.0047884034,1442826,-275,-368,647,5669
84278633,3974,0,-0.16680638,0.2245638,-9.855299,0.008137085,0.0015559718,-0.036332995,50.71745,156.9064,0.0047884034,1442826,-1126,-579,619,5674
84382601,3995,0,0.53602636,1.8998638,-9.442265,0.008334277,0.0019680553,-0.029325165,50.742382,156.9064,0.0047884034,1442826,1072,362,2050,5683
84486609,4010,0,0.41630346,-0.45344928,-10.2194,0.00051286095,-0.00793951,-0.03746026,50.74515,156.9064,0.0047884034,1442826,81,584,3298,5684
84586599,4000,0,0.46123523,-1.4429787,-9.6508,-0.012245433,-0.005801923,-0.0238977,50.73407,156.9064,0.0047884034,1442826,-181,1903,6019,5680
84690600,4001,0,-0.049622297,-0.27033392,-9.431047,0.0052005113,0.0062999995,-0.026032582,50.70914,156.9064,0.0047884034,1442826,-1021,-343,3267,5671
84790625,4026,0,-0.49134886,1.0559189,-9.155723,-0.006482704,0.011494364,-0.037940525,50.759003,156.9064,0.0047884034,1442826,-32,-29,4329,5689
84890599,3999,0,0.1450816,1.4054013,-8.862905,-0.005613328,-0.0049846796,-0.021145444,50.72576,156.9064,0.0047884034,1442826,-780,1042,4233,5677
84994599,4000,0,0.48292214,-0.29295376,-10.016033,0.004238033,-0.0073658563,-0.026208084,50.772854,156.9064,0.0047884034,1442826,807,592,3940,5694
85094599,4000,0,0.13918452,-0.9612316,-10.220749,-0.0063890745,-0.00019531674,-0.035279486,50.74792,156.9064,0.0047884034,1442826,-423,-95,2074,5685
85198636,4037,0,-0.7892265,0.31006888,-10.026732,-0.005518502,0.018992402,-0.043818373,50.770084,156.9064,0.0047884034,1442826,-236,-673,-142,5693
85296199,4000,0,-0.13898183,0.5989945,-9.913906,0.0032135462,0.011518013,-0.036035866,50.78393,156.9064,0.0047884034,1442826,100,-82,852,5698
85400220,4012,0,0.15953201,1.3290048,-9.975269,-0.0021397679,-0.0017416069,-0.051612806,50.817173,156.9064,0.0047884034,1442826,-107,-2,1899,5710
85500206,4006,0,0.21007423,0.4187774,-10.06789,0.0020704968,-0.008108278,-0.057549756,50.836563,156.9064,0.0047884034,1442826,806,-778,1030,5717
85604200,4001,0,0.11521957,-1.4828025,-9.911281,-0.01362882,0.0036350675,-0.049359497,50.828255,156.9064,0.0047884034,1442826,-224,643,2588,5714
85704199,3981,0,0.029175067,-0.535922,-10.752414,0.002936225,0.0068310304,-0.033594683,50.819942,156.9064,0.0047884034,1442826,105,-68,-914,5711
85804206,4008,0,-0.35874525,0.8219113,-9.234379,0.005873349,0.0075901374,-0.030566705,50.828255,156.9064,0.0047884034,1442826,-273,-159,3187,5714
85908224,4003,0,0.2554247,1.6277198,-9.310643,4.2277155e-05,-0.0020921424,-0.04021293,50.855957,156.9064,0.0047884034,1442826,941,-706,1693,5724
86008232,4021,0,0.29279813,0.600009,-9.824803,0.0047510057,-0.0065435003,-0.04079639,50.869804,156.9064,0.0047884034,1442826,871,-947,1958,5729
86112204,4005,0,0.014976613,-1.4289833,-9.967959,0.00805589,0.00082728325,-0.038924824,50.875347,156.9064,0.0047884034,1442826,-161,201,3206,5731
86212200,4000,0,-0.5971637,-1.1753366,-10.704361,-0.0019178214,0.008163936,-0.050342083,50.880886,156.9064,0.0047884034,1442826,-1436,-479,2034,5733
86312199,4000,0,-0.44417492,0.16934137,-9.791659,0.0034682853,0.019661797,-0.042747933,50.867035,156.9064,0.0047884034,1442826,-231,-279,1522,5728
86416199,3973,0,-0.17703699,1.6344234,-9.702678,0.016449876,0.0018115819,-0.034855008,50.875347,156.9064,0.0047884034,1442826,-458,-1370,2591,5731
86520212,4013,0,0.30839586,-0.0787609,-10.423286,0.0027488505,-0.01344557,-0.048164617,50.90859,156.9064,0.0047884034,1442826,449,-752,526,5743
86620206,4007,0,0.03276166,-1.2190846,-10.502292,0.016197491,-0.0019711321,-0.044415373,50.922436,156.9064,0.0047884034,1442826,331,-374,2268,5748
86720199,4000,0,-0.85601187,-0.8389404,-10.289987,-0.0049379384,0.011657081,-0.06536697,50.92798,156.9064,0.0047884034,1442826,0,-697,1714,5750
86824245,4046,0,0.22680399,1.5017545,-9.122304,0.015556251,7.43377e-05,-0.01379264,50.9446,156.9064,0.0047884034,1442826,172,88,2397,5756
86928199,3967,0,0.7170754,0.85716057,-10.188531,0.007849026,-0.0056972364,-0.039715376,50.98061,156.9064,0.0047884034,1442826,625,156,1013,5769
87028199,3962,0,0.3177611,-0.74970925,-9.677633,0.007300085,-0.009693692,-0.023903888,50.933517,156.9064,0.0047884034,1442826,-922,203,3018,5752
87132215,4016,0,-0.23757944,-0.50060254,-10.155133,0.013061734,0.014316777,-0.034770414,50.96399,156.9064,0.0047884034,1442826,590,-361,759,5763
87236199,4000,0,-0.09043828,1.5702908,-9.086145,-0.0019673181,0.009870984,-0.03996345,50.99446,156.9064,0.0047884034,1442826,130,-707,1006,5774
87336199,3950,0,0.39770538,1.6762974,-9.101529,-0.002403445,0.002025995,-0.043527562,51.00831,156.9064,0.0047884034,1442826,1026,1097,3708,5779
87436237,4030,0,1.0116427,0.7237121,-9.653441,0.01096564,-0.0058567845,-0.018039491,50.958447,156.9064,0.0047884034,1442826,976,1100,3504,5761
87540199,3986,0,0.047567807,-1.713712,-10.933075,-0.0048882286,-0.0054332535,-0.04890141,51.00277,156.9064,0.0047884034,1442826,579,-204,-379,5777
87640199,3995,0,-0.39488694,-0.26749384,-10.368047,-0.004620491,0.010504236,-0.054142915,50.99723,156.9064,0.0047884034,1442826,579,42,-70,5775
87740200,4000,0,-0.3984569,0.7200676,-9.239197,0.00062982965,0.008024771,-0.038195968,50.98615,156.9064,0.0047884034,1442826,-1919,-226,3397,5771
87844199,3999,0,-0.1783929,2.0029318,-9.744636,0.012895402,0.006845765,-0.031919383,51.03601,156.9064,0.0047884034,1442826,674,-1385,3802,5789
87944202,3982,0,0.2683027,0.55952096,-10.068566,0.0019525334,-0.008954285,-0.03976334,51.03047,156.9064,0.0047884034,1442826,-520,-387,3468,5787
88044199,3999,0,0.3502245,-0.9681825,-9.926175,-0.004538565,-0.010537268,-0.04223702,51.03878,156.9064,0.0047884034,1442826,-860,267,4675,5790
88149800,4001,0,-0.34027994,-0.2581693,-9.375455,-0.002956923,0.007104328,-0.028298412,51.04155,156.9064,0.0047884034,1442826,-362,-238,3325,5791
88253800,4001,0,-0.22364128,1.8772926,-9.348676,-0.009988795,0.01251378,-0.04354409,51.05263,156.9064,0.0047884034,1442826,395,-833,1296,5795
88353799,3993,0,0.4468934,1.5663552,-9.975457,-0.008750608,-0.008282255,-0.040618952,51.07479,156.9064,0.0047884034,1442826,-78,-359,1575,5803
88453800,4000,0,0.5223176,0.11094926,-10.052393,0.0047515547,-0.009959842,-0.044545516,51.085873,156.9064,0.0047884034,1442826,282,-770,1826,5807
88557799,4000,0,-0.12651452,-1.3684376,-10.212106,-0.0045153336,-0.00020813738,-0.047065962,51.09418,156.9064,0.0047884034,1442826,260,-121,1680,5810
88657800,3994,0,-0.82077885,-0.2644555,-10.58506,0.0058746263,0.011334774,-0.04709054,51.099724,156.9064,0.0047884034,1442826,-318,-948,1075,5812
88757799,3981,0,-0.29512653,0.52671754,-9.6114025,-0.0037437538,0.018539498,-0.045305513,51.132965,156.9064,0.0047884034,1442826,-572,-365,1246,5824
88861821,4022,0,0.1743125,1.4236851,-9.331383,-0.009886816,0.009738544,-0.043864764,51.1108,156.9064,0.0047884034,1442826,116,38,1638,5816
88965799,3959,0,0.42518252,-0.7862192,-9.905651,-0.015417105,-0.010925818,-0.044453815,51.141273,156.9064,0.0047884034,1442826,62,1084,4303,5827
89065800,4001,0,0.020674396,-1.2366521,-9.818939,0.0007483489,-0.002571479,-0.039859366,51.141273,156.9064,0.0047884034,1442826,-218,692,3109,5827
89169799,4000,0,-0.1111263,0.62892747,-9.408961,0.009888909,0.004044272,-0.031095546,51.119114,156.9064,0.0047884034,1442826,-329,-426,1970,5819
89269799,4000,0,0.07868012,1.6654631,-8.89989,-0.0028718826,0.007122777,-0.04194489,51.146812,156.9064,0.0047884034,1442826,-177,-148,2415,5829
89369799,4000,0,0.14858161,1.4880388,-9.409902,0.0036701323,-0.004669028,-0.0398127,51.160664,156.9064,0.0047884034,1442826,1271,-533,1716,5834
89473813,4008,0,0.28166538,-0.7469058,-10.2576885,0.0075124735,-0.006110371,-0.03082385,51.180054,156.9064,0.0047884034,1442826,-22,643,2863,5841
89573799,3999,0,0.056407917,-1.2908235,-10.230522,0.0016313735,0.0010807,-0.038499877,51.168976,156.9064,0.0047884034,1442826,-971,623,3496,5837
89677826,4013,0,-0.23016302,0.22324884,-9.258717,-0.0069438014,0.009590081,-0.03421853,51.146812,156.9064,0.0047884034,1442826,-857,85,3403,5829
89777799,3993,0,0.4375492,1.8915123,-9.302815,0.008438714,0.0013245855,-0.015486777,51.177284,156.9064,0.0047884034,1442826,-228,611,3039,5840
89877850,4023,0,0.19034797,1.9719312,-9.71479,0.008959263,-0.000866357,-0.055668592,51.199444,156.9064,0.0047884034,1442826,-634,-1152,3129,5848
89981842,4043,0,0.21688086,-0.20462243,-10.827787,0.01437726,-0.013307403,-0.04781381,51.180054,156.9064,0.0047884034,1442826,175,-341,2474,5841
90081799,4000,0,0.3136731,-1.1940538,-10.383912,-0.008507024,-0.002202139,-0.043349233,51.249306,156.9064,0.0047884034,1442826,-804,-287,800,5866
90185799,3999,0,-0.44807658,-0.4402342,-9.616641,-0.004108379,-0.0006870795,-0.02898113,51.213295,156.9064,0.0047884034,1442826,-1746,-413,2360,5853
90285799,3986,0,0.071179725,1.0611615,-8.811433,-0.0018446904,0.0027295907,-0.03658891,51.204987,156.9064,0.0047884034,1442826,-1143,-320,3317,5850
90385800,4001,0,-0.26850253,1.6619625,-9.384616,-0.005476555,0.0030488747,-0.04448953,51.227146,156.9064,0.0047884034,1442826,4,-877,1398,5858
90489800,4001,0,0.36720666,0.075283885,-10.38856,0.0006484138,-0.008392405,-0.051928602,51.249306,156.9064,0.0047884034,1442826,558,148,2268,5866
90589799,4000,0,0.66804415,-1.3290299,-10.181203,0.0023692835,-0.0046567656,-0.034837328,51.257618,156.9064,0.0047884034,1442826,-310,977,3026,5869
90689799,3999,0,-0.10716377,-1.3461399,-10.883978,0.006360761,0.0021772438,-0.03964518,51.282547,156.9064,0.0047884034,1442826,127,145,2517,5878
90791399,3993,0,-0.88071775,-0.24934979,-10.142054,-0.01271938,0.012542299,-0.06165784,51.285316,156.9064,0.0047884034,1442826,-34,-825,147,5879
90895406,4006,0,-0.057118423,1.684196,-9.027427,-0.01801298,0.014369469,-0.0660907,51.249306,156.9064,0.0047884034,1442826,-245,715,3069,5866
90995400,4000,0,0.5960998,1.6470195,-9.473679,0.0031603891,-0.0025775896,-0.041205317,51.31302,156.9064,0.0047884034,1442826,234,349,2158,5889
91095439,4034,0,0.16706371,0.35982108,-9.746952,-0.0016362326,-0.010362774,-0.048600458,51.30748,156.9064,0.0047884034,1442826,-188,-212,3613,5887
91199399,4000,0,0.24776712,-1.146095,-10.541406,-0.0057709683,0.00435399,-0.046394628,51.30471,156.9064,0.0047884034,1442826,839,-90,674,5886
91299399,4000,0,0.10602722,-0.5483088,-9.863694,0.0049358103,0.012442384,-0.030612493,51.29086,156.9064,0.0047884034,1442826,-670,772,2007,5881
91403399,4000,0,-0.01044799,1.7286872,-9.626743,0.0057627754,0.0066898316,-0.034768425,51.31025,156.9064,0.0047884034,1442826,-40,-986,210,5888
91503399,3994,0,-0.23555535,1.9088397,-9.784729,-0.014136635,0.010218076,-0.06431036,51.32133,156.9064,0.0047884034,1442826,585,-684,523,5892
91607434,4028,0,0.58126223,-0.8363592,-10.401294,-0.006230583,-0.010798612,-0.038350437,51.31025,156.9064,0.0047884034,1442826,-165,377,2046,5888
91711406,4007,0,-0.4580699,-0.8780069,-10.458193,-0.009867002,0.0098032225,-0.053540498,51.34349,156.9064,0.0047884034,1442826,286,-245,1313,5900
91811399,4000,0,0.12662521,0.43336493,-9.221719,0.009341972,0.010196459,-0.021484163,51.37119,156.9064,0.0047884034,1442826,-304,466,2791,5910
91911399,3993,0,-0.28056324,1.1882911,-9.250329,-0.011334199,0.014996115,-0.05118623,51.36011,156.9064,0.0047884034,1442826,643,-505,1974,5906
92015406,4007,0,0.20674291,0.5709977,-9.727184,-0.0024998516,-0.0075181467,-0.043984957,51.34349,156.9064,0.0047884034,1442826,393,140,2039,5900
92115399,3999,0,0.55047,-0.45729518,-10.233403,0.003209094,-0.008925024,-0.032535393,51.35457,156.9064,0.0047884034,1442826,1014,-509,870,5904
92215400,4001,0,-0.17150691,-0.9090267,-10.591778,-0.004905763,0.00730836,-0.05295816,51.42105,156.9064,0.0047884034,1442826,1030,-294,851,5928
92319413,4014,0,-0.40692005,0.5583293,-9.2464,-0.0116243,0.0071995417,-0.0528345,51.37673,156.9064,0.0047884034,1442826,-727,-499,2840,5912
92419399,3999,0,0.36363697,1.3258696,-9.497901,-0.0009794107,-0.0024000243,-0.02692246,51.40443,156.9064,0.0047884034,1442826,-716,24,1219,5922
92523440,4041,0,0.87420297,1.0528352,-10.493062,0.001959049,-0.011671018,-0.044711668,51.396122,156.9064,0.0047884034,1442826,270,-71,51,5919
92623437,4038,0,0.5290888,-0.14562084,-10.503961,-0.0010827186,-0.0064980914,-0.062360592,51.4072,156.9064,0.0047884034,1442826,1066,-66,444,5923
92723405,4006,0,0.3236152,-1.3906349,-10.4961,0.012586354,-0.003565905,-0.036980323,51.41828,156.9064,0.0047884034,1442826,-481,-122,745,5927
92827399,4000,0,-0.8707247,0.4818276,-10.052383,-0.0013013692,0.0120679615,-0.042232893,51.43767,156.9064,0.0047884034,1442826,-352,-1301,-181,5934
92927399,4000,0,-0.2837484,1.3346012,-9.554178,-0.0029944023,0.009663075,-0.05107237,51.409973,156.9064,0.0047884034,1442826,66,-1131,1204,5924
93027449,4050,0,0.12433677,1.6232088,-9.279912,-0.008399357,0.007752508,-0.049797248,51.39889,156.9064,0.0047884034,1442826,647,-649,1042,5920
93131399,3999,0,0.5450821,-0.57848513,-10.262574,-0.004398985,-0.004068362,-0.037131723,51.454292,156.9064,0.0047884034,1442826,201,413,1704,5940
93231399,4000,0,0.2715558,-1.4070331,-10.935337,0.0005555444,-0.0077797137,-0.049553264,51.451523,156.9064,0.0047884034,1442826,-593,186,1227,5939
93335399,4000,0,-0.33977413,-0.23177941,-9.599458,-0.002265494,0.0014108624,-0.033718336,51.470913,156.9064,0.0047884034,1442826,-824,447,4183,5946
93437004,4005,0,0.38196683,1.4202198,-8.725018,0.0025923084,-0.001694391,-0.030395104,51.451523,156.9064,0.0047884034,1442826,-1402,903,4071,5939
93540999,4000,0,0.5679369,1.3278941,-9.960269,0.014593864,-0.0030125245,-0.029120902,51.479225,156.9064,0.0047884034,1442826,1116,-341,1272,5949
93640999,4000,0,0.10003769,-0.03400342,-10.465628,-0.005561127,-0.0034034865,-0.06681757,51.490303,156.9064,0.0047884034,1442826,757,-855,1479,5953
93745000,4001,0,0.019786322,-0.7683725,-9.730928,-0.0046431166,-0.002788957,-0.035067387,51.490303,156.9064,0.0047884034,1442826,-610,286,4053,5953
93844999,4000,0,-0.03562564,-0.033935983,-9.190147,-0.0039618076,-0.0017056596,-0.024795543,51.509693,156.9064,0.0047884034,1442826,208,-53,2187,5960
93945000,3996,0,-0.2706784,1.2942524,-9.346018,0.0032247785,0.009431532,-0.04050335,51.498615,156.9064,0.0047884034,1442826,-233,-401,2891,5956
94048999,4000,0,-0.15174179,1.0229266,-9.973047,0.0041832216,-0.0022283867,-0.03407635,51.512466,156.9064,0.0047884034,1442826,554,-1957,2048,5961
94149006,4006,0,0.74627656,-0.4166625,-10.285999,-0.00498843,-0.003875796,-0.043695305,51.523544,156.9064,0.0047884034,1442826,1126,284,2360,5965
94252999,4000,0,-0.20841889,-0.8356545,-9.773229,0.0034779294,0.0075526834,-0.0297569,51.531857,156.9064,0.0047884034,1442826,-536,585,2789,5968
94356999,3976,0,0.19026141,0.98260415,-9.330928,-0.011397021,0.0020901645,-0.03208023,51.531857,156.9064,0.0047884034,1442826,-618,-306,740,5968
94457032,4032,0,0.44494012,2.0906749,-9.591645,0.008628363,0.013628495,-0.059703767,51.523544,156.9064,0.0047884034,1442826,737,-239,679,5965
94560999,4000,0,0.112988204,0.2748229,-10.283968,0.02397745,-0.01013179,-0.0352182,51.573406,156.9064,0.0047884034,1442826,118,-121,3971,5983
94660999,3971,0,0.23889753,-1.2522054,-10.326024,0.001160093,-0.01831273,-0.031038426,51.534626,156.9064,0.0047884034,1442826,-864,352,2959,5969
94761000,3990,0,-0.18206175,-1.2351847,-10.245655,-0.008688413,-0.0035223223,-0.041222315,51.573406,156.9064,0.0047884034,1442826,-922,-705,67,5983
94865008,4008,0,0.36903128,0.6496116,-9.169556,-0.002618028,0.0044218143,-0.026816238,51.556786,156.9064,0.0047884034,1442826,-1059,1257,3911,5977
94965033,4034,0,-0.12487483,1.8177935,-9.192421,0.011144616,0.009572893,-0.041486822,51.584488,156.9064,0.0047884034,1442826,-620,-240,2799,5987
95064999,3999,0,0.33679155,1.7095175,-9.261786,-0.015257878,0.0077161174,-0.05617395,51.573406,156.9064,0.0047884034,1442826,290,932,2609,5983
95168999,4000,0,0.71869034,-0.7351889,-9.896347,-0.0013722375,-0.0052016103,-0.030923266,51.595566,156.9064,0.0047884034,1442826,-557,548,3532,5991
95986599,4000,0,-0.15699339,1.9133766,-9.276141,-0.0082860235,0.0034646934,-0.05522788,51.645428,156.9064,0.0047884034,1442826,-380,-551,2662,6009
96086606,3978,0,0.6909967,1.1873521,-9.675361,-0.010242522,-0.005676822,-0.03231098,51.67036,156.9064,0.0047884034,1442826,-721,982,2963,6018
96190599,3959,0,0.61242425,-1.1474264,-10.616078,-0.0007569104,-0.007819524,-0.02317047,51.66759,156.9064,0.0047884034,1442826,-541,586,2091,6017
96294599,3976,0,-0.27103692,-0.10306934,-10.135449,0.0005145153,0.0077842986,-0.02316281,51.69529,156.9064,0.0047884034,1442826,925,-275,816,6027
96394601,3995,0,0.04917991,1.012718,-9.401108,0.0015104313,0.00040065264,-0.02475787,51.700832,156.9064,0.0047884034,1442826,-1090,122,2426,6029
96498605,3998,0,0.44108403,1.5619305,-9.477409,-0.0065439893,-0.01809143,-0.035421766,51.66205,156.9064,0.0047884034,1442826,277,195,3797,6015
96598599,3987,0,0.76093656,0.76427114,-9.63287,0.010437013,-0.0009315088,-0.018602703,51.68144,156.9064,0.0047884034,1442826,678,785,3968,6022
96702602,4002,0,0.16983725,-1.6705364,-9.962696,-0.006919625,-0.009229498,-0.034530286,51.720222,156.9064,0.0047884034,1442826,-1120,885,3621,6036
96802626,4023,0,0.17820665,-0.80432606,-9.766811,0.0064223898,0.0031841777,-0.042555083,51.70914,156.9064,0.0047884034,1442826,-473,398,2615,6032
96906601,4001,0,0.09854796,1.2211025,-9.539316,0.0037244358,0.0038208913,-0.04346374,51.70637,156.9064,0.0047884034,1442826,-392,287,672,6031
97006599,3999,0,0.425516,1.8198783,-9.136608,0.004408047,0.003708721,-0.036523826,51.74792,156.9064,0.0047884034,1442826,1241,-161,2305,6046
97106599,3999,0,0.6224589,0.868411,-10.006049,0.0094906315,-0.00029004444,-0.043713987,51.761772,156.9064,0.0047884034,1442826,320,-452,402,6051
97210641,4041,0,0.5407273,-1.3556927,-10.697386,0.005094729,-0.005545183,-0.031369522,51.74792,156.9064,0.0047884034,1442826,755,534,28,6046
97310599,4000,0,-0.014634796,-1.07676,-10.445747,0.013201767,0.0004758744,-0.029818952,51.739613,156.9064,0.0047884034,1442826,255,131,2036,6043
97410601,4002,0,-0.048371814,0.12553698,-9.311535,-0.0011343146,0.01177687,-0.03820576,51.778393,156.9064,0.0047884034,1442826,230,-307,1157,6057
97514600,3994,0,0.25249204,1.7218308,-8.949331,-0.0012862277,-0.0011394401,-0.035512574,51.756233,156.9064,0.0047884034,1442826,1749,373,3191,6049
97614599,4000,0,0.18774731,0.85180527,-9.6610985,0.006732943,-0.0036840865,-0.043646283,51.759003,156.9064,0.0047884034,1442826,-57,-188,2825,6050
97714639,4028,0,0.4706105,-0.49729824,-10.231716,0.0039191367,-0.009128176,-0.03529833,51.76454,156.9064,0.0047884034,1442826,819,98,2263,6052
97818628,4029,0,0.32490978,-1.4398953,-9.572683,-0.004478372,-0.0024369184,-0.02283125,51.811634,156.9064,0.0047884034,1442826,-606,1067,3605,6069
97918599,4000,0,0.1614126,0.09957219,-10.079138,-0.006289647,0.0014683399,-0.04541518,51.797783,156.9064,0.0047884034,1442826,-174,215,-1191,6064
98018600,3990,0,-0.41440296,1.4272449,-9.491003,-0.0074711046,0.0058469083,-0.049706448,51.800552,156.9064,0.0047884034,1442826,-354,-38,1987,6065
98122599,4000,0,0.20793171,1.1026409,-9.792385,0.011887737,0.006510037,-0.03910394,51.806095,156.9064,0.0047884034,1442826,1430,-558,861,6067
98222635,3995,0,0.073330104,-0.7795859,-9.924139,0.012230362,-0.008166781,-0.031248197,51.814404,156.9064,0.0047884034,1442826,229,-345,2691,6070
98322612,4013,0,-0.190895,-1.2370169,-10.195076,0.011205879,0.0017771004,-0.029012302,51.850414,156.9064,0.0047884034,1442826,652,-744,3202,6083
98424226,4002,0,-0.08282251,-0.38182163,-9.663036,0.0014830355,-0.0022721826,-0.023012184,51.855957,156.9064,0.0047884034,1442826,-386,116,3202,6085
98528236,4034,0,-0.048345704,1.4862533,-9.55469,0.0017429295,0.010640338,-0.052166395,51.853184,156.9064,0.0047884034,1442826,-341,-776,1432,6084
98628199,3998,0,-0.037067726,1.4423647,-9.459104,0.004088109,-0.005812195,-0.041944478,51.864265,156.9064,0.0047884034,1442826,201,-681,3349,6088
98732213,3985,0,0.52620345,-0.8052668,-10.220378,0.0057527525,-0.0030219262,-0.019366173,51.900276,156.9064,0.0047884034,1442826,1721,591,1020,6101
98832199,3953,0,0.53129584,-1.5932755,-10.56802,-0.0023955705,-0.008665217,-0.037955772,51.886425,156.9064,0.0047884034,1442826,77,1235,2113,6096
98932201,4002,0,0.0065154824,-1.0706539,-10.012242,-0.0016035405,0.007878408,-0.044915274,51.867035,156.9064,0.0047884034,1442826,-443,578,2325,6089
99036220,4020,0,-0.1649378,1.2372347,-9.468155,0.0024528522,0.007938114,-0.029578205,51.867035,156.9064,0.0047884034,1442826,-372,-532,1611,6089
99136200,3973,0,0.24509181,1.550703,-9.425826,-0.0006458267,0.0059853885,-0.041914217,51.889194,156.9064,0.0047884034,1442826,440,263,1758,6097
99240199,4000,0,0.9537351,-0.6697402,-9.779219,0.0036740252,-0.010278322,-0.02995167,51.889194,156.9064,0.0047884034,1442826,11,537,3466,6097
99340215,4015,0,0.019820342,-1.3047781,-10.813569,0.003339592,-0.005050263,-0.05186651,51.886425,156.9064,0.0047884034,1442826,-20,-218,260,6096
99440209,4009,0,0.25291678,-0.8333544,-10.465879,0.0013398379,0.0003645292,-0.027096082,51.939056,156.9064,0.0047884034,1442826,530,705,1574,6115
99544200,4000,0,-0.20220385,1.2583824,-8.809946,-0.0074650357,0.016243232,-0.03119478,51.90859,156.9064,0.0047884034,1442826,-379,643,4220,6104
99644206,4006,0,-0.03855515,1.6266532,-9.115016,-0.014383905,0.010249952,-0.053461187,51.950138,156.9064,0.0047884034,1442826,-297,281,3291,6119
99744199,4000,0,0.09885675,1.3211534,-9.933134,-0.003562797,-0.0008566539,-0.048004113,51.94183,156.9064,0.0047884034,1442826,100,-78,2864,6116
99848219,3994,0,0.31148914,-1.0378317,-9.908262,-0.010629358,-0.014563018,-0.045221604,51.96953,156.9064,0.0047884034,1442826,-400,-247,1439,6126
99948199,4000,0,-0.020267107,-0.9457498,-9.608317,-0.00693772,0.0009245537,-0.031334966,51.96953,156.9064,0.0047884034,1442826,-221,841,2920,6126
100048199,4000,0,0.25747547,0.26213104,-9.095408,-0.0035844725,0.0024802333,-0.018038671,51.98061,156.9064,0.0047884034,1442826,-1125,1273,4614,6130
