timestamp,integral_dt,error_count,x,y,z,x_integral,y_integral,z_integral,temperature,range_m_s2,scaling,device_id,x_raw,y_raw,z_raw,temperature_raw
39903253,5260,0,0.2090506,-0.57951385,-10.035616,0.0007826499,1.4870895e-05,-0.05431336,44.75,78.0,0.0023928226,1114658,217,707,-3384,-2
40004057,4169,0,-0.17232586,0.07195866,-9.796521,-0.0035351275,0.00450612,-0.037347764,44.75,78.0,0.0023928226,1114658,85,331,-3793,-2
40106942,4200,0,-0.09756416,0.57040644,-9.7975025,0.0016356012,0.001658335,-0.039275818,44.875,78.0,0.0023928226,1114658,192,427,-3315,8148
40207750,4207,0,0.011994762,0.61144406,-10.3463,-0.0011119385,0.0030597236,-0.047354538,44.75,78.0,0.0023928226,1114658,560,804,-3726,8933
40308566,4221,0,-0.31121042,-0.46124777,-9.9909115,0.006637575,0.007628169,-0.046692338,44.75,78.0,0.0023928226,1114658,-816,1083,-3802,2048
40410416,5268,0,-0.13865632,-0.85066235,-10.200105,0.0047915042,0.012059222,-0.05989633,44.875,78.0,0.0023928226,1114658,-1159,567,-3847,8932
40511228,4236,0,0.4881713,-0.77751523,-10.371533,0.006949955,0.009996833,-0.042513244,44.875,78.0,0.0023928226,1114658,-866,25,-2755,8937
40616200,4184,0,0.56405723,1.2321,-9.696756,-0.00015843443,0.006399677,-0.044625413,44.875,78.0,0.0023928226,1114658,164,-296,-4030,-2
40714892,4199,0,0.33051366,1.0091817,-9.762581,-0.014826052,-0.0043908996,-0.039815165,44.875,78.0,0.0023928226,1114658,1240,-899,-2576,8193
40815692,4200,0,-0.61199737,-0.6346605,-9.976305,0.0011568594,-0.0101918075,-0.043193836,44.875,78.0,0.0023928226,1114658,493,1172,-3576,-2
40917590,5298,0,-0.20789735,-0.9384066,-9.812259,0.0015846778,0.012847916,-0.045128062,44.875,78.0,0.0023928226,1114658,-1528,96,-3224,8946
41020443,4200,0,0.9431563,2.1544433,-9.407002,0.00066463527,0.006009032,-0.040659178,44.75,78.0,0.0023928226,1114658,315,-247,-4453,-3
41125505,4262,0,-0.8942199,-2.0008588,-10.101347,0.0004169891,-0.00071777427,-0.038841605,44.875,78.0,0.0023928226,1114658,-798,563,-3674,8158
41226273,4230,0,1.1370537,1.5377368,-9.814669,0.00626765,0.0019430511,-0.038342196,44.875,78.0,0.0023928226,1114658,-3,175,-2478,8158
41330192,4178,0,-0.61504906,-0.28355184,-10.080809,0.0115314135,-0.004618365,-0.04676271,44.75,78.0,0.0023928226,1114658,81,1709,-2103,2049
41430993,4168,0,0.5767759,1.7805027,-9.638318,-0.0065422067,-0.0034362741,-0.04496092,44.875,78.0,0.0023928226,1114658,1373,-467,-4971,2049
41532866,5226,0,0.115880094,0.5891785,-9.805078,0.02309087,0.012042822,-0.048911445,44.75,78.0,0.0023928226,1114658,241,2036,-4324,8953
41633643,4176,0,-1.829775,-1.369509,-9.98699,0.0049845767,0.012634133,-0.03404767,45.0,78.0,0.0023928226,1114658,-2354,2440,-4800,8957
41734442,4175,0,0.59700304,1.5889733,-9.834425,0.024667287,-0.00031203817,-0.031378545,44.875,78.0,0.0023928226,1114658,1693,1977,-2383,8965
41835242,4175,0,-0.9580339,-0.36235484,-9.466387,-0.0011046614,-0.024005609,-0.03392935,44.875,78.0,0.0023928226,1114658,2613,1377,-3832,8971
41937093,5249,0,-0.86532307,0.8102722,-9.860349,-0.03077573,-0.014836369,-0.07279101,44.875,78.0,0.0023928226,1114658,3322,-27,-3190,8974
42041057,4190,0,-0.7913188,-0.97985274,-10.462323,0.0069102747,-0.004451624,-0.04432583,44.875,78.0,0.0023928226,1114658,-1658,2847,-3110,-3
42138692,4199,0,-1.0921817,-1.1981332,-9.71797,0.027713392,-0.00902744,-0.033536695,44.75,78.0,0.0023928226,1114658,-358,4153,-5086,16947
42239493,4200,0,1.0200316,0.8580711,-10.625577,0.0156709,-0.0018494785,-0.03303837,44.875,78.0,0.0023928226,1114658,1227,197,-2098,8956
42342397,6304,0,0.26285926,-0.45145708,-8.715559,-0.0004794419,-0.011846067,-0.042850833,44.875,78.0,0.0023928226,1114658,-874,679,-5451,8969
42445293,4200,0,-3.6163816,-0.49133304,-8.854734,0.042436954,0.0011336628,-0.035899416,44.875,78.0,0.0023928226,1114658,-817,8504,-4405,0
42547150,5257,0,-0.057033237,-0.03106782,-9.787427,0.03860726,0.015327656,-0.07381341,44.875,78.0,0.0023928226,1114658,-46,3443,-4512,8975
42645849,4203,0,-2.9384525,0.26242107,-10.209712,0.07932509,-0.004682481,-0.019107886,44.875,78.0,0.0023928226,1114658,1836,7173,-2869,2048
42748786,4203,0,-2.1429482,-0.017237037,-8.868489,0.023010265,-0.0011789522,-0.05425855,44.875,78.0,0.0023928226,1114658,-1971,7264,-5298,8158
42849589,6302,0,2.7275374,0.2170219,-9.761592,-0.064676866,-0.00917904,-0.03265846,44.75,78.0,0.0023928226,1114658,555,-7171,-4234,8981
42952442,4199,0,-1.9810919,-0.08362027,-9.153893,-0.028896017,-8.978613e-05,-0.02555599,45.0,78.0,0.0023928226,1114658,-126,3575,-3209,-3
43054346,5303,0,-2.138245,0.9059514,-10.048121,-0.01400665,0.0070921495,-0.06270867,45.0,78.0,0.0023928226,1114658,1464,4047,-4343,8976
43159292,4152,0,-0.5601199,-0.4449457,-9.350131,-0.036453933,0.005796917,-0.02833312,44.75,78.0,0.0023928226,1114658,1056,1868,-6020,8975
43261157,4214,0,-1.4805064,-0.2826501,-8.422408,0.025794625,0.0064340117,-0.044858158,44.875,78.0,0.0023928226,1114658,-558,6796,-4989,-2
43361943,4186,0,1.4000329,0.30954182,-9.319853,0.022977794,-0.015190615,-0.052739218,44.75,78.0,0.0023928226,1114658,1387,-1905,-3552,8988
44387792,4195,0,1.4396155,-0.90106285,-11.288749,0.021273948,-0.020772934,-0.046171233,44.875,78.0,0.0023928226,1114658,1742,-2216,-3343,8192
44489643,4176,0,0.95655966,-0.77568954,-11.230435,-0.008915805,-0.0019957738,-0.046271075,44.875,78.0,0.0023928226,1114658,1866,-4302,-1587,9016
44591493,5206,0,0.30879757,0.50939745,-9.590581,-0.022302104,-0.006375909,-0.042583726,44.875,78.0,0.0023928226,1114658,71,-3577,-6168,-3
44692292,4198,0,0.47319078,0.2511969,-9.245939,0.0030049747,-0.013609227,-0.007810446,44.875,78.0,0.0023928226,1114658,582,942,-6396,-3
44793093,4201,0,-0.777147,-0.1878478,-10.253654,0.03533026,-0.0063299574,-0.029162133,44.875,78.0,0.0023928226,1114658,1245,3920,-3913,8165
44893892,4200,0,1.1846799,-0.33322883,-10.326911,0.022139749,-0.013957439,-0.036392823,44.875,78.0,0.0023928226,1114658,1243,-2377,-2873,9018
44999968,4225,0,-1.1498729,0.42664424,-8.3505745,0.0038490568,0.011065141,-0.054092474,45.0,78.0,0.0023928226,1114658,-917,4796,-8690,8152
45103914,5271,0,-0.82163215,-0.79111373,-10.730479,0.024882747,0.008690889,-0.09943575,44.875,78.0,0.0023928226,1114658,127,3144,-3120,8162
45204744,4251,0,-0.6352099,0.0059354412,-11.096625,0.013386959,-0.0022009902,-0.0506384,44.75,78.0,0.0023928226,1114658,1414,1163,2945,9009
45307593,4199,0,0.8176935,1.0690292,-9.880478,0.00022028162,-0.01605968,-0.01994755,44.75,78.0,0.0023928226,1114658,1363,-5281,190,-3
45406358,6365,0,-1.2940806,1.8606634,-9.469731,0.02618194,0.009906983,-0.08630467,44.75,78.0,0.0023928226,1114658,2436,4638,-4098,9017
45509192,4199,0,1.5334401,-0.6384617,-11.125698,-0.011907307,-0.01333044,-0.010238026,44.75,78.0,0.0023928226,1114658,14,-3913,399,9015
45611077,4234,0,-0.640568,-1.7342968,-9.186282,-0.01374313,0.0045190887,-0.04588748,44.875,78.0,0.0023928226,1114658,-435,2376,-7820,8161
45710802,4209,0,-0.14819942,-0.032647945,-10.20784,-0.02094509,0.007006469,-0.05631755,45.0,78.0,0.0023928226,1114658,-514,-1323,-2979,0
45811593,4200,0,-0.52416766,0.808341,-8.303947,-0.030609556,0.014805488,-0.009274267,44.875,78.0,0.0023928226,1114658,-1659,1104,-5751,9019
45914493,4179,0,0.37559238,-0.4589544,-10.409759,-0.0014661888,-0.011843705,-0.03820016,44.75,78.0,0.0023928226,1114658,438,-498,-5074,8169
46016372,4184,0,0.8716251,-0.6197069,-11.314752,-0.013645337,-0.0030611686,-0.038324118,44.875,78.0,0.0023928226,1114658,2127,-4775,-1445,-3
46117159,4216,0,-0.87327576,-0.25518003,-10.132831,0.03533015,0.009659684,-0.05126579,44.875,78.0,0.0023928226,1114658,168,3208,-4614,9039
46218992,5242,0,-1.3887472,1.2623191,-8.351956,-0.020021848,0.021700019,-0.054183934,44.75,78.0,0.0023928226,1114658,-1256,3461,-8828,16947
46319793,4186,0,0.7348385,0.7502719,-10.376704,-0.008625424,-0.0108309975,-0.041144654,44.875,78.0,0.0023928226,1114658,-341,-2974,-2630,8193
46419543,4151,0,1.1622161,-0.1860777,-10.893452,0.0060648117,0.00031007596,-0.08083941,45.0,78.0,0.0023928226,1114658,1648,-3489,-5226,8193
46521392,4200,0,-0.53864735,-0.5992018,-11.75745,0.021892382,-0.0062234406,-0.062703624,45.0,78.0,0.0023928226,1114658,2257,2753,-424,2049
46624293,4200,0,1.2050475,1.5364343,-9.421942,0.029634671,-0.0023267772,-0.029985718,45.0,78.0,0.0023928226,1114658,2556,-2566,-5111,9047
46728243,4200,0,-0.26481113,1.5359666,-10.694166,0.04029965,0.003341442,-0.0880457,45.0,78.0,0.0023928226,1114658,1505,3799,-3475,9040
46828017,5274,0,0.8666931,-0.3333112,-9.759081,0.0041716727,-0.004124129,-0.04489486,45.0,78.0,0.0023928226,1114658,1067,108,-6673,-3
46928830,4235,0,0.03895143,-1.6256118,-10.902055,-0.02090348,-0.0059264703,-0.04642238,45.0,78.0,0.0023928226,1114658,-289,-2902,-3774,-3
47029631,4233,0,0.5814236,-0.253479,-10.646336,0.014586777,0.0075540417,-0.060004827,45.0,78.0,0.0023928226,1114658,1609,-874,-2629,-3
47132526,4233,0,0.21969518,1.4800107,-8.8206415,-0.017205242,-0.003467817,0.005418093,44.875,78.0,0.0023928226,1114658,112,-2365,-3896,8165
47233352,4259,0,-0.5924638,0.41619995,-9.626948,0.004868525,-0.008383825,-0.057459157,44.875,78.0,0.0023928226,1114658,1032,2904,-6899,9051
47335190,5297,0,0.461046,-0.80758613,-10.403646,-0.03880364,-0.01326614,-0.03883116,44.875,78.0,0.0023928226,1114658,907,-2714,-2089,8160
47435958,4216,0,-0.39782608,-0.35147944,-10.190628,0.015511476,0.008242025,-0.058929585,44.75,78.0,0.0023928226,1114658,1886,2724,-5768,9064
47536746,4203,0,0.40302664,0.7601413,-10.951907,0.03120632,-0.004225315,-0.012289967,44.875,78.0,0.0023928226,1114658,69,-826,3555,9049
47637590,4226,0,0.49029526,1.128435,-9.267328,-0.047973562,0.006865925,-0.017670812,44.875,78.0,0.0023928226,1114658,-1485,-4706,-4113,9066
47739393,4173,0,-0.6437773,0.6234421,-10.504418,-0.0059051863,0.0046281186,-0.04896711,44.875,78.0,0.0023928226,1114658,1526,4469,-3761,9060
47842315,4223,0,1.001993,-1.3102767,-10.471032,0.035558563,-0.0077365963,-0.058256786,44.875,78.0,0.0023928226,1114658,1349,-754,-3905,8145
47942043,4195,0,0.29631928,-0.22824311,-11.257882,0.011214265,-0.0010894926,-0.04351625,45.0,78.0,0.0023928226,1114658,1446,-1783,2616,-3
48047071,4229,0,-0.010006653,1.309379,-9.039757,-0.046155177,0.0081595015,-0.042536665,44.875,78.0,0.0023928226,1114658,141,-2660,-4334,-3
48147929,4287,0,1.5630268,0.24544202,-10.387896,-0.019728841,-0.015829261,-0.041304342,44.75,78.0,0.0023928226,1114658,1519,-5599,-629,8137
48249693,4149,0,0.85557765,-1.4000379,-9.84186,0.035152704,-0.009250866,-0.035047557,44.75,78.0,0.0023928226,1114658,903,-965,-2555,8152
48348406,4213,0,-1.4612398,-1.0659153,-9.657761,-0.02263804,0.0029476346,-0.008719909,44.875,78.0,0.0023928226,1114658,639,2300,-2508,-3
48450307,5312,0,-0.37183604,0.5673304,-8.53329,-0.04442011,0.01937929,-0.053434726,45.0,78.0,0.0023928226,1114658,-1727,-2408,-4921,8160
48551086,4244,0,1.4698688,1.7015429,-9.956462,0.0042346125,-0.001754517,-0.054850545,44.875,78.0,0.0023928226,1114658,-130,-4059,-1122,-3
48654992,5219,0,1.1729534,-0.09008512,-10.173917,0.04003146,-0.023701852,-0.04452501,44.875,78.0,0.0023928226,1114658,3851,144,771,-3
48760022,4230,0,0.4054397,-0.97131425,-9.862946,0.012183558,-0.005479761,-0.051908623,45.0,78.0,0.0023928226,1114658,-864,-1834,-2425,8134
48859742,5249,0,-1.4742925,1.1979517,-9.161956,0.028742382,0.0249271,-0.09242606,45.0,78.0,0.0023928226,1114658,-352,5606,-7014,8192
48960543,4200,0,-1.2151908,2.0295436,-9.50342,-0.0029318715,0.0145995,-0.08036907,44.875,78.0,0.0023928226,1114658,830,5440,-2975,8193
49065589,4246,0,0.33703345,-0.3385933,-9.8871355,0.037709154,-0.017258657,-0.05102381,45.0,78.0,0.0023928226,1114658,1814,2358,-4664,9088
49162159,4216,0,0.10128975,-1.0908909,-10.119039,-0.049196344,-0.0007479588,-0.049895246,45.0,78.0,0.0023928226,1114658,159,-1940,-2369,9092
49268225,4217,0,-0.5257498,0.7112517,-9.114585,0.026520489,0.00084298966,-0.038221393,44.875,78.0,0.0023928226,1114658,359,855,-2367,-3
49369011,4169,0,-0.8527385,1.5133865,-9.344321,0.04677952,0.0029105288,-0.024320805,44.875,78.0,0.0023928226,1114658,1572,3459,-3865,-3
49470848,4206,0,0.940154,0.5572697,-10.134827,0.043316662,-0.023103701,-0.050422646,44.875,78.0,0.0023928226,1114658,2635,-919,-831,8192
49571668,4226,0,0.1176423,-0.6179579,-11.035218,0.03515204,-0.023233587,-0.030859541,44.875,78.0,0.0023928226,1114658,3612,721,-631,2048
49673538,5296,0,0.6304194,0.2750957,-10.503428,0.026420008,-0.0034295914,-0.035437964,44.875,78.0,0.0023928226,1114658,2757,-2509,1392,9104
49774316,4193,0,0.25061366,1.6131717,-10.391701,0.0055257957,-0.00031775422,-0.03931072,45.125,78.0,0.0023928226,1114658,1206,-1292,3387,8149
49877198,4205,0,-1.1682662,0.74885863,-9.473183,0.018231846,-0.011432673,-0.025446793,44.875,78.0,0.0023928226,1114658,2488,5479,-2219,9109
49975973,6366,0,-0.8482,-0.41889814,-8.964619,-0.021384677,0.008979545,-0.070241876,45.0,78.0,0.0023928226,1114658,859,5230,-8187,9099
50079843,4197,0,0.49323618,-0.2281986,-10.72727,0.020218544,0.003086177,-0.068465374,45.0,78.0,0.0023928226,1114658,1567,-2181,359,-3
50178542,4190,0,0.4945382,0.67001414,-9.712191,0.004501582,0.0027671184,-0.044281848,44.875,78.0,0.0023928226,1114658,-388,-1604,1229,16947
50282497,5255,0,-0.26737368,1.1173462,-8.363931,-0.024699483,-0.011082651,-0.0119551765,44.875,78.0,0.0023928226,1114658,34,-1146,-3669,9111
50383293,4155,0,-0.042050067,-0.015004329,-8.605004,-0.0152868675,-0.004632993,-0.021282531,44.875,78.0,0.0023928226,1114658,1953,594,-9986,8192
50484093,4120,0,-0.19719498,-0.68231887,-9.452755,-0.006221404,0.0064234575,-0.06127583,45.0,78.0,0.0023928226,1114658,1811,921,-5339,9116
50585976,4226,0,-0.66937023,-0.067161575,-8.616304,-0.010288158,0.011021468,-0.0827047,44.875,78.0,0.0023928226,1114658,-1221,4181,-6937,9121
50686755,4212,0,0.24049124,1.2687179,-9.090816,0.028703976,0.0128357075,-0.07840679,45.125,78.0,0.0023928226,1114658,1505,3606,-425,-3
50792799,4206,0,1.2612652,-1.4154571,-8.879541,-0.040477116,-0.00968688,-0.039648935,45.0,78.0,0.0023928226,1114658,-3066,-2717,-4560,9113
50893611,4219,0,0.4571054,-0.3603962,-9.724699,-0.008162948,-0.00278803,-0.020235892,45.0,78.0,0.0023928226,1114658,171,-3968,176,9135
50997569,4227,0,0.33912402,0.8182287,-8.1178875,-0.0135794375,0.005413149,-0.013654565,45.0,78.0,0.0023928226,1114658,695,-140,-3852,9133
51096243,4200,0,0.040131822,1.1696367,-8.701095,-0.04060603,0.023067862,-0.0473246,45.0,78.0,0.0023928226,1114658,-1866,-1530,-5837,9135
51198093,5250,0,-0.8021333,0.58980006,-9.218317,0.008187437,0.002952631,-0.06943745,44.875,78.0,0.0023928226,1114658,1461,6044,-6830,-3
51300992,4200,0,1.3571411,-1.09993,-10.196254,-0.020762458,-0.010011096,-0.030200932,45.0,78.0,0.0023928226,1114658,649,-4502,-4585,0
51397598,4206,0,0.26694295,-0.8812101,-11.487933,-0.009683589,-0.014806981,-0.03944941,44.875,78.0,0.0023928226,1114658,2078,-1432,1640,9130
51504804,4311,0,0.09827559,1.3816997,-10.470655,0.0070408173,-0.00039007244,-0.064930096,45.0,78.0,0.0023928226,1114658,-963,-2871,-7415,-3
51606543,4157,0,-1.072121,0.9372894,-10.262282,-0.03538067,0.002455204,-0.05326156,44.875,78.0,0.0023928226,1114658,-1884,446,-4022,2048
51705242,4198,0,-0.13669081,0.6340174,-10.352286,0.020217478,-0.002733361,-0.036177494,44.875,78.0,0.0023928226,1114658,553,3934,-6402,-3
51807146,5304,0,-0.16221082,0.28560317,-10.755633,-0.043975603,0.006211961,-0.020158125,45.0,78.0,0.0023928226,1114658,-576,342,-4723,9137
51909993,5222,0,-0.85371953,-0.25797185,-10.472965,-0.0077099144,0.019611446,-0.026155263,45.0,78.0,0.0023928226,1114658,-1462,2636,-6357,8192
52008766,4231,0,-0.19336306,0.70177877,-12.1757145,0.022072373,-0.01912275,-0.03957758,45.0,78.0,0.0023928226,1114658,-193,-2527,-3498,9144
52109565,4266,0,-0.6463405,0.50293034,-11.61315,-0.009015293,-0.008275601,-0.043747954,45.0,78.0,0.0023928226,1114658,1390,650,595,9145
52214500,4136,0,0.7313323,-2.103813,-8.901516,-0.026003024,-0.03459478,-0.017330712,44.875,78.0,0.0023928226,1114658,4738,-1284,-4333,2048
52316342,4184,0,-0.2200185,-0.3524891,-11.176753,-0.0075735594,-0.015779419,-0.0076203505,44.875,78.0,0.0023928226,1114658,-2946,-4479,2396,8192
52417148,4206,0,0.89744514,1.8534952,-10.515958,-0.028834758,0.01811046,0.03165728,44.875,78.0,0.0023928226,1114658,-3306,-2236,-3559,8152
52523207,4214,0,0.06668177,0.69663936,-10.143061,-0.01386757,0.004711746,-0.043432094,44.875,78.0,0.0023928226,1114658,-866,-460,-4672,9156
52623993,4200,0,-0.9914664,-0.24283649,-10.486931,0.01510468,-0.007595684,-0.06135811,45.0,78.0,0.0023928226,1114658,2580,5702,-3946,8150
52724801,4155,0,0.13701046,-0.5100004,-9.783148,0.003520441,0.012319362,-0.061225187,45.0,78.0,0.0023928226,1114658,160,221,-3350,9144
52826643,5251,0,-0.60542876,0.78852177,-8.743507,0.030017762,0.027904918,-0.07178692,45.0,78.0,0.0023928226,1114658,-2166,4315,-6731,2048
52927447,4188,0,-0.32209876,1.1251811,-9.040071,0.035340037,0.0032671185,-0.059257958,45.0,78.0,0.0023928226,1114658,1206,4662,-6231,8165
53030358,4200,0,1.2303933,-0.47524732,-11.256907,0.02625638,-0.0040529044,-0.066579744,45.0,78.0,0.0023928226,1114658,1110,-1559,1788,9167
53129043,4200,0,-0.756096,-0.77205336,-10.8687,0.037368264,0.00084651663,-0.075444475,44.875,78.0,0.0023928226,1114658,1354,3788,-4028,8193
53230903,5260,0,0.53520983,0.82204986,-10.322878,0.04661535,0.003013362,-0.032922544,45.125,78.0,0.0023928226,1114658,445,77,16,-3
53333792,5249,0,0.5633932,1.6215142,-10.237939,0.030694703,-0.011146005,-0.034134988,45.0,78.0,0.0023928226,1114658,914,-1882,-2088,9166
53436829,5386,0,0.6751081,0.5301654,-11.029825,0.055842042,-0.005376935,-0.07044248,45.0,78.0,0.0023928226,1114658,4251,3720,-710,9184
53537583,4290,0,-1.2361015,-1.4769392,-10.560331,-0.011281115,0.008754742,-0.09431801,45.0,78.0,0.0023928226,1114658,-939,4349,-3149,9179
53639343,4175,0,-0.78876066,0.27742112,-9.8528805,0.01727014,0.017823335,-0.06404392,45.0,78.0,0.0023928226,1114658,-1779,3343,-270,9188
53738043,4200,0,-0.5222648,0.8384816,-8.810929,0.033699013,0.020296765,-0.05794109,45.0,78.0,0.0023928226,1114658,-1450,4889,-6222,8193
53839977,5334,0,-0.5636476,2.0074854,-9.713851,0.037065618,0.00077353686,-0.06892583,44.875,78.0,0.0023928226,1114658,2634,4821,-2819,-3
53940871,4373,0,2.879902,1.0535184,-11.718512,0.030357499,-0.021609787,-0.03611754,45.125,78.0,0.0023928226,1114658,4467,-3411,-316,-3
54044699,5261,0,0.22738378,-1.9930834,-9.24032,-0.03760654,-0.007054079,-0.038599506,45.0,78.0,0.0023928226,1114658,-1825,-3209,-7907,8174
54145467,4225,0,-1.036893,-0.26324174,-8.849703,-0.03566695,0.004667373,-0.05092566,44.875,78.0,0.0023928226,1114658,-3138,899,-7166,8178
54250468,4225,0,0.23221058,1.3928738,-9.435674,0.002078616,0.009760806,-0.06469072,45.0,78.0,0.0023928226,1114658,1043,1574,-3351,8193
54352293,5203,0,0.89321935,0.03270051,-10.137946,0.023822857,-0.0006240034,-0.06150863,45.0,78.0,0.0023928226,1114658,1111,183,-4356,9191
54455213,4221,0,-0.50881743,-1.0351955,-11.122457,-0.036972743,0.010323423,-0.020322658,45.0,78.0,0.0023928226,1114658,14,-791,2821,9196
54557048,5255,0,-0.3937871,-0.09274166,-8.684918,-0.030692877,0.015731607,-0.026963992,45.125,78.0,0.0023928226,1114658,-1900,-904,-6445,-3
54657861,4208,0,-0.7731243,1.209096,-7.932141,-0.011500191,0.013597176,-0.031304292,45.0,78.0,0.0023928226,1114658,-2661,3659,-6936,-3
54758676,4225,0,-0.99178016,0.6827447,-9.851818,-0.027688444,0.0044265566,-0.0696547,45.0,78.0,0.0023928226,1114658,-137,3159,-4386,-3
54859443,4169,0,-0.34601888,-1.0450535,-9.361398,-0.010874851,-0.003977219,-0.03908701,45.125,78.0,0.0023928226,1114658,-872,2144,-5357,8169
54961301,5258,0,-1.6801274,-1.5338439,-9.110849,-0.017865442,0.012952128,-0.076557204,44.875,78.0,0.0023928226,1114658,-1158,4902,-7843,-3
55062092,4200,0,-1.0632738,0.8758863,-10.265131,0.00021085935,0.016136268,-0.07543268,45.0,78.0,0.0023928226,1114658,222,5149,-363,-3
55162892,4200,0,-0.74626976,1.7626036,-9.63252,0.039528444,0.008026192,-0.048462026,45.125,78.0,0.0023928226,1114658,231,5571,-3114,-3
55774015,4223,0,1.2824496,-0.8058658,-9.942815,-0.011103337,-0.018062642,-0.03769059,45.0,78.0,0.0023928226,1114658,83,-4996,-3636,8192
55874839,4197,0,1.0887691,-1.5797142,-9.722147,-0.036337096,-0.012061039,-0.013871314,45.125,78.0,0.0023928226,1114658,-1139,-2881,-3812,8192
55977719,4155,0,-1.6113583,-0.41989297,-9.502747,0.014242069,0.01799527,-0.044982836,45.0,78.0,0.0023928226,1114658,-1923,4389,-7043,8192
56075343,4174,0,-1.281771,0.11479048,-8.612183,-0.015520045,0.010874252,-0.019626282,45.0,78.0,0.0023928226,1114658,-1240,3221,-6873,9227
56180349,4185,0,1.6147738,1.7607248,-9.532154,-0.0060032126,-0.0032826357,-0.0510328,45.125,78.0,0.0023928226,1114658,1011,-4306,-3997,-3
56281166,4223,0,-0.33192122,-0.75779945,-9.930222,-0.04062941,-0.0041741384,-0.043255158,45.125,78.0,0.0023928226,1114658,-1832,-122,-5119,-3
56381943,4200,0,-0.23821013,-1.6105326,-9.533496,-0.014361075,0.009859902,-0.040619805,45.0,78.0,0.0023928226,1114658,-92,1955,-8147,-3
56482742,4198,0,-0.77536196,-0.86334664,-9.73935,0.04235205,0.0104632415,-0.056835715,45.125,78.0,0.0023928226,1114658,-56,5004,-4883,8192
56586693,4200,0,0.45953837,0.84152484,-8.981941,-0.044671055,0.0008740438,-0.05302206,45.0,78.0,0.0023928226,1114658,-3067,-1402,-3608,9238
56685393,4200,0,-1.2479256,1.3071715,-8.849917,-0.033955272,0.00053946825,-0.01612737,45.0,78.0,0.0023928226,1114658,-394,2137,-4356,8193
56790393,4201,0,0.31262764,-0.576193,-10.382526,0.021962307,-0.01288288,-0.040726647,45.0,78.0,0.0023928226,1114658,2603,-755,-2166,9243
56886993,4200,0,0.4176103,-0.80016106,-11.4419,0.039771367,-0.009077644,-0.05766334,45.0,78.0,0.0023928226,1114658,2552,2307,181,2049
56993097,4244,0,-0.84424865,0.7793609,-9.504878,0.019494317,0.01102343,-0.057730827,45.125,78.0,0.0023928226,1114658,-2826,5116,-3827,8193
57093855,4212,0,1.0975392,1.6755484,-10.029345,0.018176723,0.016049495,-0.0710955,45.125,78.0,0.0023928226,1114658,460,-4054,-2324,9255
57194659,4201,0,1.4969316,0.5789278,-9.9275875,0.0041095186,-0.020857655,-0.019305423,45.125,78.0,0.0023928226,1114658,1358,-4191,-1069,2049
57294403,4211,0,1.4964012,-0.5717286,-11.509473,0.014115446,-0.005417455,-0.040110108,45.125,78.0,0.0023928226,1114658,1728,-3622,1854,8184
57395203,4210,0,0.82289165,-0.6215814,-10.051199,-0.040692154,0.0040594037,-0.037145935,45.0,78.0,0.0023928226,1114658,-106,-3794,-5887,8192
57496022,4227,0,-0.882271,-0.062466867,-9.10062,-0.02359366,0.0048591997,-0.015445945,45.125,78.0,0.0023928226,1114658,1304,1800,-3115,9255
57602043,4200,0,0.5138774,0.9777314,-10.670885,-0.0109870965,0.0056827297,-0.05589661,44.875,78.0,0.0023928226,1114658,590,-3184,-1070,8193
57702842,4199,0,0.46465153,-0.09715572,-9.786937,-0.0250849,0.007488504,-0.0496811,45.125,78.0,0.0023928226,1114658,277,1598,-4379,2049
57801562,4220,0,-0.97310644,-2.106165,-9.631853,-0.01722184,-0.0075441236,-0.048756547,44.875,78.0,0.0023928226,1114658,-340,4158,-6238,9268
57903393,4192,0,-0.42552522,-1.3862704,-9.85753,0.02255251,0.0043985797,-0.03840956,45.0,78.0,0.0023928226,1114658,-213,2201,-1753,-2
58004192,4199,0,0.949618,1.1349671,-9.4759445,0.003592446,-0.0071476162,-0.027498506,45.0,78.0,0.0023928226,1114658,1118,-5149,-1147,8192
58111308,6316,0,0.28586677,1.029036,-9.44709,0.04475417,-0.006364073,-0.08391484,45.0,78.0,0.0023928226,1114658,2534,-1040,-2715,8192
58213157,5218,0,1.258778,-1.0608289,-10.943116,-0.038319815,-0.0142932385,-0.03498041,45.125,78.0,0.0023928226,1114658,208,-3991,861,-2
58313943,4200,0,-0.7937801,-0.9017547,-9.720076,-0.02273939,0.010920357,-0.042915173,45.125,78.0,0.0023928226,1114658,143,3185,-4685,-2
58414743,4200,0,-1.6705639,0.48765427,-9.926812,0.009758967,0.025778003,-0.06155957,45.0,78.0,0.0023928226,1114658,-901,4893,-4703,-2
58515548,4205,0,-0.35639113,1.8508953,-8.750784,0.03303205,0.011391369,-0.061950475,45.0,78.0,0.0023928226,1114658,976,-144,-6461,8193
58619493,4200,0,0.6613489,0.17021018,-10.253777,-0.031588584,-0.0033753368,-0.036458034,45.125,78.0,0.0023928226,1114658,802,-787,-1753,8195
58720293,4200,0,-0.60971856,-1.2556512,-10.804182,-0.020410523,-0.00041136084,-0.057642933,45.0,78.0,0.0023928226,1114658,239,3671,-2362,9275
58822159,5266,0,-0.7180274,-0.38312113,-10.33294,0.014652229,0.013809422,-0.0817185,45.125,78.0,0.0023928226,1114658,-10,3394,-3312,-3
58922971,4228,0,0.49138367,1.6699358,-10.036959,0.037539884,0.018762786,-0.06022049,45.0,78.0,0.0023928226,1114658,1011,2059,-2347,-3
59021649,4162,0,-0.04766298,1.8653876,-8.350556,0.026488986,0.013933136,-0.06139136,44.875,78.0,0.0023928226,1114658,287,4362,-8878,-3
59124559,4217,0,1.6955088,1.3666465,-11.012394,0.018729711,-0.009780282,-0.07261066,45.0,78.0,0.0023928226,1114658,3130,-2554,-3371,2049
59226416,5259,0,-0.40972856,-0.86598223,-10.043038,-0.024722464,-0.0010945238,-0.032975785,45.125,78.0,0.0023928226,1114658,-1181,-306,-6830,9290
59329292,4200,0,0.121994056,-0.25230947,-11.434538,0.028718108,0.0049199504,-0.06471609,45.125,78.0,0.0023928226,1114658,930,2394,-2522,8193
59431142,5250,0,-0.4767252,1.7318174,-10.931443,0.023130137,0.005743562,-0.0471848,45.125,78.0,0.0023928226,1114658,717,1946,1286,9292
59531995,4220,0,0.2393235,1.2738932,-9.98158,-0.02516405,-0.0059764613,-0.03162516,45.0,78.0,0.0023928226,1114658,-193,-1138,-1640,9295
59632742,4201,0,0.69046056,-0.21263179,-9.7583885,-0.03618849,-0.005588584,-0.023446118,45.125,78.0,0.0023928226,1114658,185,-3250,-3462,2049
59736717,4225,0,-0.8454254,-1.4126735,-10.55472,-0.0036047709,0.0053676986,-0.06504776,45.125,78.0,0.0023928226,1114658,1291,5118,-4022,8178
59839593,4196,0,0.37246242,1.2884756,-8.594,0.041674644,0.008942388,-0.034792643,45.0,78.0,0.0023928226,1114658,766,1241,-6099,-3
59936192,4199,0,-0.76969886,0.79883796,-8.735379,-0.029406678,0.013482219,-0.011080117,45.125,78.0,0.0023928226,1114658,-2508,1913,-4237,8192
60041203,4211,0,-1.3134904,1.7164229,-10.01525,0.022204801,0.00992185,-0.060060497,45.125,78.0,0.0023928226,1114658,1730,6412,-2831,-3
60143067,5275,0,-1.0249019,-0.7926309,-9.957987,0.0035511677,0.00058901485,-0.041099165,45.125,78.0,0.0023928226,1114658,412,5552,-4405,8183
60241743,4176,0,1.5192038,-1.1250571,-10.452354,-0.029214507,-0.014409291,0.003563198,45.0,78.0,0.0023928226,1114658,203,-3738,-5294,9310
60344668,4226,0,0.43196708,0.43097275,-10.329011,-0.011649105,0.0065154955,-0.017519353,45.0,78.0,0.0023928226,1114658,709,-3124,613,8181
60446501,4120,0,0.8787081,2.152441,-9.470535,0.016541095,-0.007544393,-0.027924225,45.0,78.0,0.0023928226,1114658,2269,-2156,-938,-3
60547317,4172,0,-1.2670658,1.8713346,-10.172113,0.022756986,0.001462489,-0.06950521,45.0,78.0,0.0023928226,1114658,1242,5637,-4504,-3
60650192,4167,0,-1.3472768,-1.0314406,-9.55741,0.002287121,-0.0027728127,-0.035633013,45.125,78.0,0.0023928226,1114658,-34,4758,-7041,8192
60752043,5203,0,-1.2674148,-1.0866414,-10.443346,-0.05504725,0.008974728,-0.059289206,45.125,78.0,0.0023928226,1114658,379,396,-780,9315
60850754,4211,0,-0.4332033,0.1417595,-10.462936,0.02328231,0.006149658,-0.024823911,44.875,78.0,0.0023928226,1114658,2260,-2065,494,8192
60951543,4197,0,-1.0021627,1.463414,-8.433518,0.019660896,0.010720852,-0.061493542,45.0,78.0,0.0023928226,1114658,-1455,3306,-7331,2048
61053392,5232,0,0.88680774,1.5659546,-10.522227,-0.03526771,-0.0034136055,-0.041667655,45.125,78.0,0.0023928226,1114658,1692,-1674,2254,2049
61154192,4199,0,0.011644034,-0.32848707,-10.874366,0.035801884,-0.0014656181,-0.072608374,45.125,78.0,0.0023928226,1114658,2252,4952,-4059,-3
61257094,4201,0,0.37972492,-1.5132735,-10.274543,-0.054478087,0.003716543,-0.05226251,45.125,78.0,0.0023928226,1114658,-150,-5655,-3834,9325
61357901,4208,0,-2.2537744,0.2935856,-9.001818,-0.0015481148,0.036393568,-0.046582997,45.125,78.0,0.0023928226,1114658,-1377,5790,-8246,9323
61458692,4195,0,-0.681301,2.0709822,-9.287496,0.046141904,0.013961033,-0.03019346,44.875,78.0,0.0023928226,1114658,432,2110,-3568,16947
61562668,4195,0,1.1982268,0.06022529,-9.691142,-0.038293764,0.0024304267,-0.044973664,45.125,78.0,0.0023928226,1114658,-1714,-3870,-6575,-3
61663471,4228,0,-1.8466554,-1.7352937,-9.724225,-0.038494874,0.0007772583,-0.056790184,45.125,78.0,0.0023928226,1114658,-782,4232,-4010,9325
61765292,5249,0,-1.2107974,-0.49882898,-10.5412445,0.043856446,0.011059404,-0.046447024,45.125,78.0,0.0023928226,1114658,-1250,4554,-2721,-3
61866093,4200,0,0.16364041,0.92801005,-9.998046,-0.018173112,-0.0087706335,-0.010017157,45.125,78.0,0.0023928226,1114658,1349,-3788,379,-3
61964793,4150,0,0.70828,1.3603293,-9.497056,-0.03974413,0.0026711246,-0.04035564,45.0,78.0,0.0023928226,1114658,727,-3166,-2122,9338
62070843,4200,0,1.7064521,-0.7196191,-11.535929,0.00033512188,-0.010544836,-0.056219395,45.125,78.0,0.0023928226,1114658,2634,-2926,96,0
62171643,4189,0,-1.3428801,-1.5252068,-10.593404,-0.04576351,0.0018031921,-0.058685787,45.125,78.0,0.0023928226,1114658,-1432,2019,-4733,-3
62271392,5206,0,0.80398154,-0.50962275,-9.040903,0.045900572,0.0011041913,-0.026726827,45.0,78.0,0.0023928226,1114658,1786,2668,-1144,8207
62376393,4200,0,0.84280324,2.3138964,-9.944214,0.01502283,-0.010807866,-0.0124225635,45.125,78.0,0.0023928226,1114658,1829,-2416,279,9331
62482443,5248,0,0.5483639,0.08559273,-10.503259,-0.04405507,-0.0123704625,-0.033943318,45.0,78.0,0.0023928226,1114658,1790,-3545,-1274,2049
62579044,4202,0,-0.020229181,-0.4573561,-11.682875,0.037156,-0.009118698,-0.0726495,45.125,78.0,0.0023928226,1114658,1111,3230,299,8193
62684043,4156,0,0.22621517,-0.8227708,-9.310843,-0.04380674,0.0009299087,-0.013690272,45.125,78.0,0.0023928226,1114658,-2021,-4191,-3990,9361
62785911,4220,0,0.029794097,0.72573566,-8.809746,-0.03269713,0.02189068,-0.034035575,45.0,78.0,0.0023928226,1114658,-1863,-1720,-10480,2049
62889842,4192,0,-0.77512884,1.4811448,-10.663407,0.030631566,0.0014325547,-0.05443771,45.375,78.0,0.0023928226,1114658,2692,4858,-371,-3
62994843,4201,0,0.6175148,-1.5271981,-9.707048,-0.030334737,-0.016468164,-0.019918572,45.125,78.0,0.0023928226,1114658,1197,-3150,-5883,9342
63096738,5296,0,-0.32937312,-1.1143341,-8.315323,-0.029776655,0.010741593,-0.0684837,45.125,78.0,0.0023928226,1114658,-1747,-2180,-13200,9345
63201693,4155,0,0.06290799,1.7911277,-10.4745455,0.03364579,0.0012735018,-0.0376976,45.125,78.0,0.0023928226,1114658,807,747,1791,8214
63302493,4139,0,0.5548847,1.0754937,-10.372929,-0.010638142,-0.02393317,-0.051959813,45.125,78.0,0.0023928226,1114658,2701,-1788,-2106,9357
63404343,4154,0,0.91775805,-0.68920463,-10.569922,-0.009820424,-0.019048564,-0.02463411,45.25,78.0,0.0023928226,1114658,931,-1646,-812,8192
63505162,4207,0,-0.57207584,-1.3412069,-9.557451,-0.039016817,-0.0008448601,-0.03073481,45.125,78.0,0.0023928226,1114658,-467,580,-3306,8219
63609093,5206,0,-0.6369623,1.5548726,-9.629634,0.028243002,0.023951571,-0.09181497,45.125,78.0,0.0023928226,1114658,-621,3095,-5752,-3
63709892,4191,0,0.6314936,2.0008683,-10.858423,0.028697332,-0.0070032617,-0.04517445,45.125,78.0,0.0023928226,1114658,2086,83,2293,8193
63813850,5257,0,-0.4091906,-0.5458202,-10.165818,-0.029542774,-0.013886804,-0.025221534,45.125,78.0,0.0023928226,1114658,36,-2960,-1935,2049
63916752,5259,0,-0.24281532,-1.243569,-9.908465,-0.031082425,0.0062847324,-0.057267725,45.125,78.0,0.0023928226,1114658,439,-1848,-5925,9365
64018593,5251,0,-1.2309008,0.076328844,-8.798896,0.00021216951,0.01865384,-0.035424292,45.125,78.0,0.0023928226,1114658,-2555,2421,-6104,16948
64121538,5296,0,-0.022725675,1.1647357,-9.05514,0.011487386,0.012100016,-0.08228845,45.125,78.0,0.0023928226,1114658,-96,387,-8524,9360
64224392,4191,0,1.71748,0.1718041,-11.208939,-0.018613508,-0.02843003,-0.017499942,45.25,78.0,0.0023928226,1114658,3963,-4745,180,2049
64330464,4195,0,-3.0881271,-0.6187057,-10.044127,-0.0009222415,0.011645241,-0.07442426,45.125,78.0,0.0023928226,1114658,137,6624,-3248,-3
65549570,4277,0,-0.2514498,1.3400947,-8.97546,-0.0079153245,0.0050654947,-0.044923935,45.125,78.0,0.0023928226,1114658,-1342,1949,-5782,9396
65651343,4174,0,-0.73060983,-0.8955513,-9.734162,-0.01271187,-0.017096518,-0.01012971,45.25,78.0,0.0023928226,1114658,1433,2864,-3722,9391
65752163,4191,0,0.14291553,-1.3743757,-10.185452,-0.050061993,-0.0017181615,-0.051334575,45.25,78.0,0.0023928226,1114658,447,-3508,-5312,2049
65852943,4177,0,-0.09588518,-0.5255558,-10.921334,-0.022974785,-0.0012351889,-0.013515736,45.125,78.0,0.0023928226,1114658,-177,-3023,2246,8192
65953743,4181,0,0.7611695,1.4223499,-9.141249,0.02340242,0.004117054,-0.03364572,45.25,78.0,0.0023928226,1114658,945,-1703,-3749,9400
66057700,5258,0,1.3411697,1.2134926,-11.0608225,0.026033655,-0.013046717,-0.06565983,45.125,78.0,0.0023928226,1114658,2811,-852,2767,9388
66162693,4200,0,0.7459036,-1.472016,-10.43889,-0.033813253,-0.006627383,-0.03620614,45.125,78.0,0.0023928226,1114658,-286,-902,-1970,2048
66263530,4237,0,0.77296215,-1.707697,-10.417814,-0.03463212,-0.0010663738,-0.00045307443,45.375,78.0,0.0023928226,1114658,-1699,-4531,-408,2049
66366393,4201,0,0.6042046,0.6655214,-9.228339,-0.013394481,0.004636645,-0.037130874,45.0,78.0,0.0023928226,1114658,-1301,-4071,-4869,8210
66462992,4199,0,-0.27156103,1.4038202,-8.741314,-0.0064245434,0.0004892747,-0.03187513,45.125,78.0,0.0023928226,1114658,-99,2194,-7387,-2
66564855,5263,0,-0.77781683,1.3995022,-9.107545,-0.021570606,-0.004184826,-0.06342586,45.125,78.0,0.0023928226,1114658,2202,2107,-7095,-2
66669862,4219,0,0.7590091,-1.5776554,-9.669672,0.038857587,-0.009419827,-0.047065794,45.125,78.0,0.0023928226,1114658,662,2248,-5558,-2
66770682,4201,0,-0.12797613,-1.0786358,-9.986769,0.039229978,0.009348178,-0.07582878,45.0,78.0,0.0023928226,1114658,-728,2599,-6255,-2
66873561,4215,0,0.92994374,0.8671101,-10.467217,0.008201285,-0.010999126,-0.013089132,45.125,78.0,0.0023928226,1114658,482,-3460,2135,9418
66979593,4200,0,-0.9486376,0.8389661,-10.144493,0.011925598,0.009315502,-0.06652798,45.125,78.0,0.0023928226,1114658,1117,6768,-4248,-2
67076192,4158,0,0.3910115,-0.51155406,-9.376746,-0.03366176,-0.010873041,-0.046047535,45.125,78.0,0.0023928226,1114658,-568,-1918,-7634,8192
67181196,6303,0,0.06803748,-1.4208642,-11.744808,0.01076286,0.0079851085,-0.083479255,45.125,78.0,0.0023928226,1114658,2059,3651,-3918,8192
67285159,4216,0,0.7071438,0.45679733,-9.486849,0.0010779422,-0.0008693752,-0.0044911355,45.125,78.0,0.0023928226,1114658,-706,-3457,-2064,-2
67385949,4206,0,0.81566435,1.7845094,-8.966756,-0.03905189,-0.00015717123,-0.015931133,45.125,78.0,0.0023928226,1114658,-1284,-4688,-1470,8193
67488845,4178,0,-0.8452588,1.0621588,-8.75682,0.007984743,-0.00017440868,-0.05065021,45.125,78.0,0.0023928226,1114658,2189,3986,-10302,2049
67590695,5252,0,-0.32421082,-1.1322397,-9.80079,0.026979018,-0.009931647,-0.095659494,45.125,78.0,0.0023928226,1114658,743,3069,-9939,0
67790192,4177,0,0.20992644,-1.1505649,-10.035727,0.012371907,0.00024353246,-0.04732711,45.25,78.0,0.0023928226,1114658,227,-1343,-2713,8192
67895194,4202,0,-1.8918295,1.8754877,-9.40354,-0.0024792983,0.027373897,-0.05999025,45.125,78.0,0.0023928226,1114658,608,5544,-4549,9431
67996016,4223,0,-0.51994723,1.5888067,-9.971291,0.02950341,0.0002929204,-0.081326224,45.125,78.0,0.0023928226,1114658,2502,3896,-6974,9440
68097842,5250,0,1.3045353,-0.76487666,-11.279958,0.031650163,-0.013760912,-0.04863193,45.25,78.0,0.0023928226,1114658,1991,-1428,2198,9426
68202867,4224,0,-1.0698793,-0.13734046,-8.802439,-0.011699448,0.0064663193,-0.020628309,45.25,78.0,0.0023928226,1114658,-159,3198,-5421,9445
68303675,4232,0,-1.1141301,0.72355723,-8.679602,-0.018582426,0.002903146,-0.03649744,45.125,78.0,0.0023928226,1114658,102,1622,-6120,9446
68405542,5281,0,-0.9468337,1.7683609,-9.15591,-0.021437915,-0.00040059787,-0.078760184,45.125,78.0,0.0023928226,1114658,107,2188,-7103,-3
68506358,4266,0,-0.6681862,0.033657666,-10.415453,0.021650696,-0.008937632,-0.057818893,45.125,78.0,0.0023928226,1114658,448,5527,-3722,9438
68607154,4261,0,-0.6019363,-1.8612076,-10.470049,0.027050773,-0.015951365,-0.032714587,45.125,78.0,0.0023928226,1114658,223,3096,-4046,9432
68707939,4247,0,-0.32691675,-1.658727,-10.077171,0.029856801,-0.00831636,-0.030437682,45.125,78.0,0.0023928226,1114658,571,3078,-4696,9447
68809743,5250,0,0.50310713,0.26245832,-8.753502,0.026398998,0.0028642728,-0.07015353,45.0,78.0,0.0023928226,1114658,-648,881,-6150,9461
68910553,4181,0,1.3915915,2.384879,-9.507811,0.033422925,0.0037475484,-0.07148351,45.25,78.0,0.0023928226,1114658,2130,-1105,-5472,8193
69013468,4212,0,1.3401432,0.0999709,-10.536109,-0.013875124,-0.023247253,-0.021321911,45.0,78.0,0.0023928226,1114658,1018,-4892,-1204,8193
69115293,4127,0,0.5593735,-1.1713318,-10.068815,-0.031815615,-0.004898783,-0.04265151,45.125,78.0,0.0023928226,1114658,-912,-2411,-5055,8192
69216093,4179,0,0.39174393,-1.3799301,-10.998651,-0.03609079,0.009481622,-0.04491715,45.125,78.0,0.0023928226,1114658,-1052,-3479,-27,8194
69316893,5250,0,0.9442376,0.09164646,-10.208293,-0.01621637,0.0013327764,-0.041037176,45.125,78.0,0.0023928226,1114658,-1541,-4994,-300,9459
69417725,4169,0,0.88284856,2.0028727,-8.792422,0.00896599,-0.005652663,-0.03514202,45.125,78.0,0.0023928226,1114658,797,-4146,-5646,9464
69522699,4163,0,-0.60924524,0.18239059,-10.340245,-0.03463744,-0.019977352,-0.03471807,45.125,78.0,0.0023928226,1114658,1844,1043,-1254,9453
69622443,4200,0,1.1124104,-1.3690833,-9.52051,-0.029895516,-0.012749742,-0.0131427245,45.125,78.0,0.0023928226,1114658,1880,-3681,-4784,9464
69723243,4152,0,1.3471742,-1.4757702,-10.144046,-0.008395969,0.0058838273,-0.052551236,45.125,78.0,0.0023928226,1114658,-1478,-4201,-2783,9464
69829293,5250,0,-0.4701237,1.232089,-8.638248,-0.014429793,0.008370063,-0.019628884,45.125,78.0,0.0023928226,1114658,-454,2063,-3194,-3
69930092,4199,0,-1.3425039,1.4756844,-9.854892,-0.037462365,0.0003936928,-0.044673204,45.125,78.0,0.0023928226,1114658,1690,3696,-1102,-3
70028797,4204,0,1.1314064,0.10748573,-10.847389,-0.032850023,-0.02351068,-0.027691456,45.125,78.0,0.0023928226,1114658,889,-4868,935,9474
70131693,4200,0,0.6087893,-1.9394424,-9.989492,-0.05099087,-0.009486413,-0.06472589,45.125,78.0,0.0023928226,1114658,-1442,-2512,-6289,9472
70233581,5288,0,-0.7532649,-0.9474293,-9.65531,-0.05424404,-0.0019344916,-0.032493487,45.25,78.0,0.0023928226,1114658,-1425,-725,-3083,8181
70336443,4200,0,-0.7215443,0.9186042,-8.091227,-0.021436108,0.018619517,-0.07884325,45.125,78.0,0.0023928226,1114658,-3044,1453,-8517,-3
70440393,4200,0,-0.73766655,0.90447867,-9.8323555,0.02095145,-0.0076409364,-0.04184037,45.25,78.0,0.0023928226,1114658,1380,6558,-4723,8193
70539172,4280,0,-0.25001973,-0.16702051,-9.423767,-0.03881955,-0.01380422,-0.015383328,45.125,78.0,0.0023928226,1114658,2029,231,-3140,9473
70639959,4266,0,1.5541872,-1.1520474,-10.15429,-0.017197171,-0.002202083,-0.03798352,45.125,78.0,0.0023928226,1114658,-314,-4156,-1813,9477
70741744,4180,0,-0.090469316,-0.7713583,-10.369166,-0.017763577,0.016494406,-0.06719226,45.25,78.0,0.0023928226,1114658,-2292,-1854,-2520,9494
70842543,4172,0,0.9868163,1.2067287,-9.736769,-0.0023624538,-0.003145705,-0.049846437,45.25,78.0,0.0023928226,1114658,873,-2941,-2179,8193
70944395,5188,0,0.9898115,2.380486,-8.940721,0.012103756,-0.0066307024,-0.05251461,45.25,78.0,0.0023928226,1114658,1881,-4111,-4061,-3
71045193,4200,0,1.4685956,0.12084352,-10.920073,-0.0063948887,-0.009059616,-0.054924455,45.25,78.0,0.0023928226,1114658,2263,-3806,-1835,-3
71150192,4200,0,-0.3203395,-1.5228512,-9.345225,-0.026074564,-0.007990678,-0.04405839,45.25,78.0,0.0023928226,1114658,736,986,-7785,-3
71253092,4199,0,-0.76408213,0.6138009,-9.310066,-0.003928415,-0.0038156735,-0.03515504,45.125,78.0,0.0023928226,1114658,681,2598,-3391,9486
71357043,4200,0,-0.4801848,1.037625,-8.231002,0.004800212,-0.0012469795,-0.059141394,45.25,78.0,0.0023928226,1114658,-1112,3278,-9744,8193
71455742,4200,0,0.1771104,0.60363114,-9.061539,-0.010063606,-0.012590883,-0.027371043,45.25,78.0,0.0023928226,1114658,1027,641,-4085,-3
71559693,5250,0,0.4451671,-1.2781761,-9.441619,-0.00878032,-0.019445531,-0.031219523,45.125,78.0,0.0023928226,1114658,999,976,-414,9496
71658416,4195,0,0.43548536,-1.4566904,-10.7701435,-0.030529087,-0.011352113,-0.017918816,45.125,78.0,0.0023928226,1114658,286,-2415,-699,-3
71759232,4240,0,-0.56580734,-0.38040313,-9.141507,-0.044626754,0.013164239,-0.04340819,45.125,78.0,0.0023928226,1114658,-535,-3004,-5411,9493
71862093,4191,0,-0.8940366,1.4180672,-9.2693205,-0.014147747,0.01433392,-0.052613396,45.125,78.0,0.0023928226,1114658,-125,3781,-1402,-3
71963953,5237,0,-1.343024,1.1957536,-9.285575,-0.006671239,-0.0035990512,-0.039396763,45.125,78.0,0.0023928226,1114658,670,3929,-5021,9507
72064759,4217,0,-0.21464512,-0.6609126,-9.188076,0.00024381027,-0.0036969339,-0.035206582,45.25,78.0,0.0023928226,1114658,913,3352,-7472,9497
72169742,4174,0,-0.5696527,-0.48569462,-10.414634,0.040180717,0.0087248385,-0.03769473,45.25,78.0,0.0023928226,1114658,1026,4116,-269,-3
72267393,4200,0,-1.745199,-0.097768314,-10.29577,-0.0036807617,0.027381586,-0.05457283,45.25,78.0,0.0023928226,1114658,-382,6320,-2204,9486
72368193,4168,0,-1.2483102,1.3677546,-9.657677,0.027513772,0.018563028,-0.040195584,45.25,78.0,0.0023928226,1114658,-1520,6135,-3861,8192
72473193,4200,0,1.906344,1.2222756,-10.898207,0.005972376,-0.008822275,-0.047292646,45.125,78.0,0.0023928226,1114658,2642,-2840,-65,-3
72573993,4189,0,1.511858,-0.08359961,-11.201404,0.022299146,-0.017489245,-0.04154905,45.125,78.0,0.0023928226,1114658,3910,-1670,1382,-3
72675882,4240,0,1.0271211,-1.3065741,-10.155799,0.012740174,-0.011652738,-0.021497995,45.125,78.0,0.0023928226,1114658,2272,-2545,-3051,-3
72780856,4124,0,-0.97495735,0.6660641,-9.293041,-0.0435386,0.017531171,-0.057145167,45.375,78.0,0.0023928226,1114658,-2211,129,-4074,9509
72884842,4199,0,-0.73782045,1.0908916,-9.621326,0.0154757975,-0.001399163,-0.042137202,45.125,78.0,0.0023928226,1114658,2072,5161,-5422,9517
72985635,4242,0,-1.267504,-1.1686504,-9.454588,0.0016136916,-0.0034773666,-0.032809865,45.25,78.0,0.0023928226,1114658,-469,5898,-4391,9506
73089546,4203,0,-0.16669466,-0.190018,-10.692133,0.032295424,0.01683809,-0.06281206,45.125,78.0,0.0023928226,1114658,424,2414,-678,9503
73190365,4203,0,-0.30912367,1.7107611,-10.36267,0.032287613,0.016307967,-0.063811086,45.25,78.0,0.0023928226,1114658,1214,3308,-1489,9518
73291185,4225,0,-0.19769575,2.6052248,-9.756258,0.028330442,-2.8868562e-05,-0.035659485,45.25,78.0,0.0023928226,1114658,1237,2410,-1491,9506
73393010,5257,0,0.95115894,1.607869,-9.235863,0.042167976,-0.015443122,-0.03921157,45.25,78.0,0.0023928226,1114658,2469,1986,-4051,-3
73493822,4210,0,1.62571,-0.6940714,-10.286149,0.03306027,-0.0074723037,-0.056321483,45.25,78.0,0.0023928226,1114658,930,-1116,-3437,-3
73594599,4194,0,0.18807086,-1.2867467,-9.940749,0.023538155,0.0050544874,-0.07386487,45.125,78.0,0.0023928226,1114658,-770,791,-4685,9522
73698543,4154,0,1.7654195,0.7923047,-10.738755,-0.016345471,0.001716244,-0.037660684,45.125,78.0,0.0023928226,1114658,-646,-4929,-79,16948
73797242,4195,0,1.0219728,2.2500079,-10.200722,0.0192612,0.002522143,-0.03827736,45.375,78.0,0.0023928226,1114658,1955,-1115,1295,8192
73899146,5303,0,1.2623712,1.5137289,-10.293077,-0.0062705316,-0.024957001,-0.035237182,45.125,78.0,0.0023928226,1114658,1820,-3887,-1445,9527
73999938,4246,0,1.4471073,-1.0100596,-9.492561,-0.012076263,-0.017683122,-0.027167048,45.375,78.0,0.0023928226,1114658,522,-4533,-6896,9524
74100738,4246,0,0.5715245,-1.6017462,-9.447381,-0.027486084,-0.006855393,-0.017366912,45.25,78.0,0.0023928226,1114658,-968,-3585,-6730,0
74206743,5183,0,-0.6510982,1.6100528,-10.351719,0.045456517,0.02211648,-0.055915076,45.125,78.0,0.0023928226,1114658,630,4382,-41,-3
74307544,4201,0,0.6132581,1.925776,-10.017305,0.032102276,0.0050034975,-0.04301377,45.25,78.0,0.0023928226,1114658,1163,606,-209,-3
74408357,4195,0,-0.0124128405,0.85373056,-9.973932,0.04572148,-0.013144896,-0.046278395,45.25,78.0,0.0023928226,1114658,914,4838,-1510,-3
74514393,5230,0,1.1339031,-1.9599446,-10.053326,-0.0018185556,-0.00829523,-0.019423675,45.25,78.0,0.0023928226,1114658,-767,-4041,-12,9535
74615193,4200,0,0.719555,0.05986753,-9.317842,0.009058649,2.9657414e-05,-0.028167645,45.25,78.0,0.0023928226,1114658,-932,-3992,-2418,8227
74712843,5250,0,-2.0151448,1.1315099,-9.8670845,0.018286739,0.020442218,-0.06426066,45.25,78.0,0.0023928226,1114658,345,7056,-1436,9530
74817843,4150,0,1.0779253,1.548679,-8.923324,-0.021699421,-0.017941393,-0.03186856,45.25,78.0,0.0023928226,1114658,-322,-4102,-4322,9529
74918643,4200,0,0.5814064,0.06400051,-9.3382635,-0.01814586,-0.019719873,-0.027632082,45.125,78.0,0.0023928226,1114658,1453,-2718,-5850,2048
75020492,5249,0,1.393231,-1.1564744,-9.216571,-0.03844516,-0.011247435,-0.04871089,45.25,78.0,0.0023928226,1114658,443,-4868,-8243,2049
75121292,4200,0,-0.5781596,-0.6647495,-8.945411,-0.023797918,0.008557739,-0.031453412,45.125,78.0,0.0023928226,1114658,-1848,251,-6624,9536
75222092,4200,0,0.11813955,0.42332983,-8.39938,-0.008710043,0.016651273,-0.022727935,45.125,78.0,0.0023928226,1114658,-1564,-1040,-6603,8192
75324997,4143,0,-1.2188784,0.9241134,-9.463111,-0.0057172575,0.0034721226,-0.044387657,45.25,78.0,0.0023928226,1114658,-92,4163,-4241,-3
75425807,4215,0,-0.1189941,-0.38719276,-9.749922,-0.018722303,-0.009287483,-0.026457166,45.125,78.0,0.0023928226,1114658,865,167,-5225,-3
75527650,4207,0,-0.33130497,-1.4376141,-9.271285,0.024469519,0.013175287,-0.043965377,45.125,78.0,0.0023928226,1114658,-1653,2945,-6986,9540
75628475,4232,0,0.06006816,-0.2633448,-10.584613,0.020535242,0.012291603,-0.07003193,45.125,78.0,0.0023928226,1114658,1267,1039,-1858,16948
75734507,4135,0,-0.7178227,1.6681012,-8.772141,-0.036663275,0.0053893435,-0.030093817,45.125,78.0,0.0023928226,1114658,27,545,-4234,9553
75835293,4155,0,-0.1474408,1.0802625,-9.469601,-0.03068992,-0.0026016943,-0.065207206,45.125,78.0,0.0023928226,1114658,728,-380,-7562,9544
75938192,4199,0,0.60419613,-0.6811808,-9.557357,-0.010012067,-0.0013656261,-0.04523588,45.25,78.0,0.0023928226,1114658,1710,1243,-8338,9551
76040085,5292,0,0.27342898,-0.21963947,-11.103124,0.016521072,0.030750152,-0.08775288,45.125,78.0,0.0023928226,1114658,-1050,4893,-4166,9561
76138742,4200,0,-0.3359444,0.6086293,-9.375167,-0.023612551,0.016870119,-0.054636035,45.25,78.0,0.0023928226,1114658,-2632,1952,-2832,-3
76239554,4211,0,0.4948308,1.3942751,-8.110563,-0.004067716,0.0046577496,-0.031956635,45.25,78.0,0.0023928226,1114658,-246,441,-6638,-3
76341392,5233,0,-0.88797516,1.0763539,-9.880124,0.019171543,-0.005661032,-0.0666028,45.25,78.0,0.0023928226,1114658,-175,5509,-1624,-3
76442193,4201,0,-0.7317757,-0.7826287,-9.41791,0.029462917,-0.018894821,-0.04247171,45.25,78.0,0.0023928226,1114658,1077,3102,-6685,8193
76547193,4201,0,-0.4248536,-0.4500432,-11.421383,0.006365129,-0.0007904492,-0.0075218175,45.25,78.0,0.0023928226,1114658,515,518,3603,8225
76643802,4209,0,-1.0972159,0.03711695,-9.75223,0.024648327,0.02419772,-0.035738375,45.25,78.0,0.0023928226,1114658,-1375,4911,-1357,2048
76749843,4188,0,0.1769114,1.9497122,-10.561694,-0.024278682,-0.008949413,-0.04936821,45.25,78.0,0.0023928226,1114658,2396,-2795,-1109,9562
76850662,4202,0,0.19879682,0.27537104,-9.984032,-0.027288228,-0.019815825,-0.011485334,45.25,78.0,0.0023928226,1114658,270,-3938,-4433,0
76951443,4168,0,1.6416959,-1.2526793,-10.152253,-0.0330197,-0.0071417536,-0.03529879,45.25,78.0,0.0023928226,1114658,-57,-4405,-4148,9565
77053292,5249,0,-0.06227257,-1.0838394,-9.98014,-0.034555756,-0.00064309075,-0.024773307,45.25,78.0,0.0023928226,1114658,449,-1683,-1857,8192
77154093,4200,0,-0.5893366,0.5762613,-8.40033,-0.007497709,0.008601614,-0.010177592,45.25,78.0,0.0023928226,1114658,-1799,2095,-5534,8193
77252827,4234,0,0.18962601,1.0168967,-8.852611,-0.020758655,0.0057609878,-0.032406315,45.25,78.0,0.0023928226,1114658,-734,-1540,-3783,9571
77358842,4161,0,0.36313674,-0.08823608,-10.307755,0.04124166,-0.0066753444,-0.039679587,45.25,78.0,0.0023928226,1114658,3344,2610,-5096,16949
77463874,4231,0,0.3191592,-1.8012216,-10.4254465,-0.03760385,0.013194473,-0.035327833,45.125,78.0,0.0023928226,1114658,-1502,-2619,-3203,8217
77565693,5251,0,-1.2662272,0.31349877,-8.367026,-0.018211665,0.020156145,-0.02674731,45.375,78.0,0.0023928226,1114658,-986,2996,-5421,9567
77666493,4147,0,-0.27094835,1.5823845,-9.238521,-0.006941805,0.01677611,-0.071629,45.125,78.0,0.0023928226,1114658,-238,2210,-7003,9575
77765193,4201,0,-1.2741642,0.6199837,-8.492912,0.0042034388,0.0020481674,-0.06894627,45.25,78.0,0.0023928226,1114658,-696,4295,-9487,9575
77869159,4216,0,1.2616864,-1.0260245,-10.943557,0.00063998473,-0.0045664404,-0.045755155,45.375,78.0,0.0023928226,1114658,-202,-2322,298,8193
77969942,4199,0,1.1206229,-1.8458232,-10.065733,-0.014227659,-0.004664789,-0.028800007,45.25,78.0,0.0023928226,1114658,217,-3954,-3258,-3
78071792,5249,0,-0.4116943,-0.45991868,-9.357936,-0.01394352,0.011258422,-0.052507676,45.25,78.0,0.0023928226,1114658,-2114,723,-4995,9583
78172593,4200,0,-0.42988402,1.2192479,-9.01571,-0.017943265,-0.002351663,-0.027579425,45.125,78.0,0.0023928226,1114658,-483,1501,-6894,2048
78276543,5250,0,-0.46062273,-0.44962817,-10.232598,-0.00056896487,0.0032922353,-0.1186906,45.125,78.0,0.0023928226,1114658,-865,3468,-6417,2048
78377352,4193,0,-0.05488707,-1.3765669,-10.98165,0.01854009,-0.0008430877,-0.059045438,45.25,78.0,0.0023928226,1114658,-683,2939,341,-3
78476066,4178,0,0.7296291,-0.96553737,-10.075932,0.015014363,-0.0042426065,-0.034994964,45.25,78.0,0.0023928226,1114658,1269,-387,-3818,-3
78577893,5225,0,0.77060527,0.08831817,-9.435057,0.0035679843,0.005184157,-0.03433665,45.25,78.0,0.0023928226,1114658,-1363,-2683,-1186,9583
78680838,5296,0,-1.9590191,1.3098717,-9.173514,-0.026210364,0.0086300615,-0.06403393,45.25,78.0,0.0023928226,1114658,1446,4416,-5634,9578
78785793,4189,0,0.9651083,-1.2076025,-10.448151,0.0013410727,-0.0208378,-0.012519913,45.25,78.0,0.0023928226,1114658,974,-3596,-3067,8234
78885567,5271,0,0.9019437,-1.4571226,-9.916645,-0.008066217,-0.011977691,-0.009489406,45.25,78.0,0.0023928226,1114658,-306,-3327,-2465,8226
78988476,4233,0,-1.3844683,0.12561505,-8.741242,-0.004729225,0.020465143,-0.0704985,45.25,78.0,0.0023928226,1114658,-766,3261,-10328,16949
79091343,4167,0,0.96456885,1.428444,-10.574179,0.0135060605,-0.0063535897,-0.07777262,45.25,78.0,0.0023928226,1114658,1103,-1955,-133,9594
79191173,4280,0,0.714473,0.83837485,-11.603062,-0.021017361,-0.007429174,-0.032713436,45.375,78.0,0.0023928226,1114658,1261,-1461,959,9596
79295044,5251,0,0.7097455,-0.5824559,-10.314562,-0.0025845943,-0.005253123,-0.06497603,45.375,78.0,0.0023928226,1114658,3373,-2129,-6327,8193
79392729,6334,0,0.31715962,-1.4611217,-10.075514,-0.017166615,0.007058794,-0.10189389,45.25,78.0,0.0023928226,1114658,655,-8,-784,8228
79496667,4224,0,-0.14599231,0.86662996,-8.474438,0.016052898,0.003574781,-0.0025467738,45.25,78.0,0.0023928226,1114658,-683,3287,-5013,8236
79597469,4226,0,1.679326,1.0077523,-8.955276,-0.006401434,-0.00522252,-0.04153187,45.25,78.0,0.0023928226,1114658,646,-5664,-5560,8241
79701394,4183,0,0.008534485,0.5661368,-10.263288,0.048313424,-0.007369134,-0.08384337,45.125,78.0,0.0023928226,1114658,734,1983,-1744,0
79802193,4178,0,-0.054371994,-1.6142969,-9.564807,-0.036061935,0.0072099124,-0.051690914,45.375,78.0,0.0023928226,1114658,-501,-2009,-8671,8192
79904043,5212,0,-0.83328533,-0.6981885,-10.768927,0.0071162605,0.004700488,-0.06689947,45.25,78.0,0.0023928226,1114658,447,2617,-2537,8193
80004843,4109,0,-0.55688286,0.8273039,-8.6116705,0.034302257,0.003621709,-0.05007634,45.125,78.0,0.0023928226,1114658,-1921,4706,-6979,9604
80105643,4176,0,0.8367833,0.91983145,-9.061395,-0.025852697,0.00061518484,-0.031951252,45.25,78.0,0.0023928226,1114658,27,-6105,-6432,2048
80205393,5230,0,-0.8970095,0.40673867,-8.823688,-0.027696619,-0.013372727,-0.039398674,45.375,78.0,0.0023928226,1114658,242,2406,-7673,8192
80306203,4210,0,0.9902535,-1.3965412,-10.878454,0.0070790728,-0.019204918,-0.02314164,45.375,78.0,0.0023928226,1114658,-24,-3162,421,2049
80411193,4183,0,-0.46752384,-0.49868006,-10.464507,0.011009846,-0.002989508,-0.07549635,45.25,78.0,0.0023928226,1114658,-557,582,-967,9610
80513043,4183,0,-1.1041828,1.1355766,-8.588044,0.0022950596,0.010196702,-0.051867712,45.25,78.0,0.0023928226,1114658,952,1915,-9580,-2
80616004,6361,0,0.7128598,1.8407142,-10.743938,0.008550836,-0.008514098,-0.06915116,45.25,78.0,0.0023928226,1114658,3279,-1399,1182,-2
80717792,5249,0,-0.19471546,-1.1126566,-10.583129,0.026356462,-0.01122019,-0.05124335,45.375,78.0,0.0023928226,1114658,2524,3413,-3762,-3
80820812,4317,0,-1.2545755,-0.80257773,-8.969132,-0.011483881,0.00908072,-0.029335413,45.25,78.0,0.0023928226,1114658,1035,3174,-5906,9626
80922585,5292,0,0.26988572,1.2568748,-9.546549,0.019819567,0.0049177925,-0.062490452,45.25,78.0,0.0023928226,1114658,126,-2170,-3581,8193
81021243,4192,0,-0.1678698,1.3074933,-8.692506,-0.037935562,0.0156046655,-0.031725746,45.25,78.0,0.0023928226,1114658,-994,-1298,-9006,9611
81122042,4188,0,-0.23499078,1.2244936,-10.401246,0.032186147,-0.00078741694,-0.09176337,45.25,78.0,0.0023928226,1114658,284,4914,-4676,8193
81223966,5323,0,0.41432595,-1.1454945,-10.80723,-0.027819827,0.0018114506,-0.039981756,45.125,78.0,0.0023928226,1114658,-1065,-2735,-1291,9621
81324766,4273,0,-0.50225085,-0.54059774,-11.059113,0.012376837,0.006678014,-0.08557603,45.25,78.0,0.0023928226,1114658,1288,3515,-3179,9619
81429693,4135,0,-0.5295453,0.4816587,-8.9563875,-0.0072397594,0.008208397,-0.01207955,45.25,78.0,0.0023928226,1114658,209,2307,-5406,9630
81531543,5196,0,1.0055425,0.9085497,-10.708798,0.022406844,-0.016600333,-0.054064784,45.25,78.0,0.0023928226,1114658,1131,-943,616,8193
81632342,4164,0,-0.4655059,-0.7642628,-9.751696,-0.020254176,-0.009776404,-0.024059128,45.25,78.0,0.0023928226,1114658,-1326,4785,-2502,8192
81734201,4200,0,0.6071307,-1.549947,-11.493223,0.008434335,-0.010699505,-0.04997325,45.25,78.0,0.0023928226,1114658,1407,-2757,629,-3
81835020,4224,0,0.07602631,-1.1837821,-10.362139,-0.017142143,0.0064314213,0.0027847022,45.25,78.0,0.0023928226,1114658,-2019,-2493,1075,-3
81937893,4148,0,-0.18206517,1.8416266,-9.375783,0.028052924,-0.0038242517,-0.043721564,45.125,78.0,0.0023928226,1114658,526,3066,-2838,9621
82038693,4196,0,1.3048332,1.3294685,-9.971981,0.017652426,-0.0071682376,0.013209386,45.25,78.0,0.0023928226,1114658,2113,-2305,-804,16949
82140543,4201,0,-0.41667375,0.0834219,-9.386386,-0.020936467,-0.0135913165,-0.04026922,45.25,78.0,0.0023928226,1114658,1297,3062,-3231,8193
82245591,4237,0,0.33497646,-1.4994878,-9.758341,-0.02090913,-0.0065002833,0.00089010946,45.25,78.0,0.0023928226,1114658,-3416,-1649,-1799,9620
82343193,4198,0,-0.7936975,-0.03711396,-9.768905,-0.011874449,0.007599292,-0.027562115,45.375,78.0,0.0023928226,1114658,-957,3341,527,9634
82446093,4200,0,1.165495,1.6616546,-10.185602,0.014609684,-0.004276932,-0.05475856,45.375,78.0,0.0023928226,1114658,2086,-3846,909,2048
82546893,4200,0,0.16270551,0.3717726,-9.938331,-0.032084815,0.00044742276,-0.02790341,45.25,78.0,0.0023928226,1114658,976,-2055,-4039,8193
82650879,4236,0,1.916352,-0.064146474,-12.642413,0.038281996,-0.0061222566,-0.05276811,45.25,78.0,0.0023928226,1114658,2534,-1155,2603,-3
82751642,4199,0,0.22545367,-1.1742452,-10.40663,-0.030978488,6.964122e-05,-0.044166595,45.375,78.0,0.0023928226,1114658,-2097,-3441,1646,-3
82852457,4215,0,-1.8030137,0.7224247,-9.373186,1.8415605e-05,0.026878953,-0.069127776,45.25,78.0,0.0023928226,1114658,-1017,5247,-5554,-3
82952192,4199,0,-0.22208364,1.6784866,-9.434857,0.035956163,0.008209575,-0.07883631,45.375,78.0,0.0023928226,1114658,65,4129,-5315,9620
83057192,4200,0,-0.779045,-0.56353515,-10.072134,-0.022717573,0.00039852364,-0.030857794,45.375,78.0,0.0023928226,1114658,1727,715,-4366,-3
83156943,4161,0,-1.5782424,-0.962454,-9.8843355,0.005250481,0.011421757,-0.06261361,45.375,78.0,0.0023928226,1114658,82,5443,-4587,9631
83259926,4283,0,0.5918812,-0.31858343,-11.163093,0.01586603,-0.000119859375,-0.02972615,45.25,78.0,0.0023928226,1114658,1243,-1621,4205,8246
83361692,4119,0,0.0914363,1.1371715,-8.547976,-0.016227206,0.004612989,-0.0023607905,45.25,78.0,0.0023928226,1114658,-738,-157,-4002,9643
83460393,4201,0,-0.15050441,1.7505158,-9.646373,-0.046834555,0.0066827717,-0.032750446,45.25,78.0,0.0023928226,1114658,1154,-3054,-3360,9642
83563293,4179,0,-1.4583462,0.958206,-10.423738,0.04332802,-0.010647366,-0.04669763,45.375,78.0,0.0023928226,1114658,2374,5860,-1462,-3
83665164,5226,0,0.9049157,-1.8079971,-10.639203,-0.019117568,-0.016340032,-0.016348163,45.25,78.0,0.0023928226,1114658,-1127,-3882,-2041,2049
83768043,4161,0,-0.45009318,0.15651283,-9.605472,0.022314161,0.012790839,-0.07984821,45.375,78.0,0.0023928226,1114658,389,2787,-6510,9650
83869905,5238,0,0.43674406,1.5732458,-10.066872,-0.014863384,0.01512262,-0.05583643,45.125,78.0,0.0023928226,1114658,-1611,-3112,-3044,-3
83974893,4149,0,0.7578915,0.1184783,-10.859449,0.03676988,-0.02523404,-0.04478945,45.25,78.0,0.0023928226,1114658,1386,-305,-1544,8193
84074643,5219,0,-0.41266078,-0.7788033,-9.082549,-0.025706979,-0.020099632,-0.022084441,45.125,78.0,0.0023928226,1114658,1178,-4901,-1857,2048
84175443,4200,0,-1.0900054,-1.1288285,-9.656192,-0.01864229,0.0027731494,-0.023774799,45.25,78.0,0.0023928226,1114658,-502,4480,-4856,-3
84274157,4215,0,-1.6121149,0.18493986,-9.762666,0.010870139,0.0060889265,-0.04499133,45.375,78.0,0.0023928226,1114658,436,5390,-2642,2048
84377043,4200,0,0.6641777,1.8412246,-10.363909,0.010347689,-0.0041655605,-0.048746753,45.5,78.0,0.0023928226,1114658,1502,-2193,1499,8193
84478893,4200,0,-0.0183061,0.8409866,-10.018785,-0.03646831,-0.0016305569,-0.026957618,45.25,78.0,0.0023928226,1114658,-122,-685,-418,8193
84580785,5292,0,-1.0664219,-0.94244045,-10.429007,-0.0042250887,-0.0029649253,-0.058100227,45.375,78.0,0.0023928226,1114658,471,6226,-1811,8267
84683643,5219,0,0.9628831,-1.0708692,-10.684706,0.002641437,0.0002403605,-0.033749916,45.25,78.0,0.0023928226,1114658,1236,-4836,-778,-3
84784442,4199,0,-0.79699284,0.48429295,-9.557253,-0.036988504,0.014357303,-0.007841925,45.25,78.0,0.0023928226,1114658,-594,-746,-3123,-3
84886368,4276,0,-0.77321714,1.6743884,-9.109222,0.010972317,0.0014968045,-0.03358578,45.25,78.0,0.0023928226,1114658,2229,3377,-5348,9664
84987172,4280,0,-0.43283096,0.81611496,-11.124533,0.04638848,-0.0005574201,-0.05444022,45.25,78.0,0.0023928226,1114658,3198,3733,-419,9659
85089992,4199,0,1.0483545,-1.407818,-10.31878,-0.026609521,-0.020671265,-0.012764949,45.25,78.0,0.0023928226,1114658,-296,-2785,-1748,2049
85190792,4199,0,-0.8033861,-0.641583,-9.734936,-0.029955236,0.008306999,-0.0076852893,45.375,78.0,0.0023928226,1114658,-149,1672,-4599,8192
85292708,4257,0,-0.27513853,1.8990558,-9.490068,0.026405528,-0.0028219845,-0.04378336,45.125,78.0,0.0023928226,1114658,438,2467,-2950,8261
85395543,4200,0,1.1247149,1.2206684,-8.873427,-0.03502668,-4.6306108e-05,-0.02560507,45.25,78.0,0.0023928226,1114658,16,-4587,-5684,8193
85495293,4135,0,-1.1736827,-0.23096062,-9.203137,-0.024185488,-0.004951303,-0.031939276,45.125,78.0,0.0023928226,1114658,2123,3349,-6487,-3
85596093,4149,0,-0.76902914,-1.1028898,-8.958836,0.0019775238,0.0029903785,-0.05187889,45.375,78.0,0.0023928226,1114658,2088,4898,-9765,-3
85696892,4138,0,-1.004843,-1.253045,-9.953344,0.04364554,0.0072134626,-0.06958282,45.25,78.0,0.0023928226,1114658,1018,4721,-6677,-3
85798742,4199,0,1.1027312,0.54964983,-10.14054,-0.012041562,0.0022886698,-0.05076378,45.25,78.0,0.0023928226,1114658,-698,-3767,-2116,16949
85899543,4200,0,0.2443918,1.4662681,-9.503322,-0.03391,0.004681766,-0.029478036,45.375,78.0,0.0023928226,1114658,1150,-3718,-4224,2048
86001414,4222,0,-1.2660583,0.9416608,-9.91844,0.0017481282,-0.0034864342,-0.046982724,45.25,78.0,0.0023928226,1114658,1864,5642,-4788,8192
86102192,4200,0,0.2467402,-0.2515485,-10.574794,0.0334744,-0.014077694,-0.059668582,45.25,78.0,0.0023928226,1114658,3245,2167,-4543,8192
86202997,4205,0,0.2705882,-1.0761001,-11.2674,0.04233794,-0.010252968,-0.038755313,45.25,78.0,0.0023928226,1114658,2308,1346,1642,-3
86309043,4200,0,-1.3336084,1.3398241,-8.643502,-0.015465647,0.017987972,-0.04814382,45.375,78.0,0.0023928226,1114658,-1330,4845,-6605,8193
86407742,6271,0,0.9396635,1.3681251,-8.5293255,-0.028217835,0.0007646856,-0.027590634,45.375,78.0,0.0023928226,1114658,-521,-2366,-7267,0
