timestamp,integral_dt,error_count,x,y,z,x_integral,y_integral,z_integral,temperature,range_m_s2,scaling,device_id,x_raw,y_raw,z_raw,temperature_raw
38141078,4000,0,-0.12956132,0.19972926,-9.964802,0.0009002183,-0.004561902,-0.03766962,58.213295,156.9064,0.0047884034,1442850,62,233,-1993,8380
38245078,4001,0,-0.40244123,-0.0052616163,-9.914174,-0.0024537183,0.0032303375,-0.037707597,58.249306,156.9064,0.0047884034,1442850,347,79,-2246,8393
38345084,4006,0,-0.09203698,0.433025,-9.894517,0.003103714,0.0059275106,-0.040026303,58.193905,156.9064,0.0047884034,1442850,-306,-384,-1784,8373
38445077,3964,0,-0.58328915,0.10364025,-10.2357025,0.00038923707,-0.0034411491,-0.041325066,58.25485,156.9064,0.0047884034,1442850,-91,-208,-1898,8395
38549109,4025,0,-0.7220209,-0.34911236,-10.131315,-0.0008729655,0.0012347715,-0.04645814,58.232685,156.9064,0.0047884034,1442850,-67,-638,-2460,8387
38649870,4017,0,-0.78131074,-0.32293844,-9.593484,0.0011392066,0.002701216,-0.043110885,58.243767,156.9064,0.0047884034,1442850,-86,-425,-3273,8391
38749901,4024,0,-0.29268605,-0.6339917,-9.882462,-0.0013158118,0.0045879185,-0.046951488,58.238228,156.9064,0.0047884034,1442850,456,-338,-2460,8389
38853877,4000,0,-0.029720066,1.2934188,-10.150835,0.007661565,0.010813993,-0.038760833,58.224377,156.9064,0.0047884034,1442850,-465,-304,-1847,8384
38957901,4024,0,-0.058054518,1.408957,-9.922504,-0.006879154,-0.014110428,-0.036850423,58.232685,156.9064,0.0047884034,1442850,302,1016,-1446,8387
39057877,3994,0,-0.46893874,-0.6685177,-9.991757,0.0050518056,-0.020601878,-0.038228564,58.240997,156.9064,0.0047884034,1442850,-123,911,-1833,8390
39161887,4010,0,-0.41937855,-1.2439587,-9.750314,0.0020674008,0.019749695,-0.03963452,58.221607,156.9064,0.0047884034,1442850,1,-1083,-2107,8383
39261881,3997,0,0.31744367,1.1082246,-9.534899,0.0026516258,0.018028714,-0.04283542,58.27424,156.9064,0.0047884034,1442850,-294,-706,-2675,8402
39365878,4000,0,-0.5586996,-0.039543677,-9.946505,-0.0026757387,-0.014715764,-0.037487894,58.27424,156.9064,0.0047884034,1442850,345,573,-1754,8402
39465884,3987,0,-1.2504092,0.4564709,-9.904868,0.028064482,0.009063636,-0.03952366,58.257618,156.9064,0.0047884034,1442850,-1426,85,-1509,8396
39565911,4033,0,-0.9850881,-1.1381098,-9.67635,0.003203447,0.0063149836,-0.031443905,58.224377,156.9064,0.0047884034,1442850,257,-1387,-2190,8384
39669877,3983,0,0.19565263,1.9610049,-10.326462,0.0027515762,-0.0034049717,-0.039717413,58.227146,156.9064,0.0047884034,1442850,-50,594,-1752,8385
39773887,3999,0,-0.6084837,-0.4572193,-9.510713,0.015282413,0.01135663,-0.03714138,58.238228,156.9064,0.0047884034,1442850,-1084,-621,-1798,8389
39873926,4049,0,-0.53887135,-0.41423744,-9.806068,-0.0052820398,-0.0201444,-0.045282863,58.246536,156.9064,0.0047884034,1442850,254,155,-1507,8392
39977878,4001,0,0.3181512,-0.25916374,-10.177662,-0.010737763,0.013279855,-0.049482852,58.246536,156.9064,0.0047884034,1442850,379,-1327,-1821,8392
40077877,4000,0,-1.5556254,0.53700006,-10.442997,-0.024439402,-0.0041718646,-0.05705581,58.257618,156.9064,0.0047884034,1442850,-133,176,-1947,8396
40178654,4765,0,0.77729565,-0.35431746,-10.015828,0.034675404,0.008944554,-0.06738563,58.252075,156.9064,0.0047884034,1442850,-110,-849,-1941,8394
40282662,4002,0,-2.2380805,0.69719195,-10.712381,0.012761365,-0.0031065603,-0.03983302,58.27424,156.9064,0.0047884034,1442850,-1811,230,-1612,8402
40382684,3973,0,2.8210156,0.7372597,-10.698493,0.005558247,0.010516748,-0.023579258,58.246536,156.9064,0.0047884034,1442850,2163,-398,-1258,8392
40482695,4017,0,0.9675113,-0.3573208,-10.509393,-0.005816741,0.012208378,-0.07271974,58.229916,156.9064,0.0047884034,1442850,1007,-554,-1302,8386
40586683,4000,0,-0.25216892,-0.2878398,-8.536787,-0.0715131,-0.0044532013,-0.026869375,58.257618,156.9064,0.0047884034,1442850,2294,-403,-3255,8396
40686677,4000,0,2.10776,1.1564859,-10.920864,0.0044909166,0.00326666,-0.037088487,58.265926,156.9064,0.0047884034,1442850,1752,702,-1000,8399
40786678,3953,0,-2.5190158,0.15648569,-10.947424,0.027309638,0.008966165,-0.070463695,58.28809,156.9064,0.0047884034,1442850,-3921,-149,-1059,8407
40890710,4025,0,1.3817366,0.23072825,-9.085128,0.023917802,-0.004734196,-0.040916882,58.25485,156.9064,0.0047884034,1442850,1178,200,-3299,8395
40990692,4007,0,0.35882694,1.1283623,-10.158311,-0.03167627,-0.0022719665,0.005487204,58.235455,156.9064,0.0047884034,1442850,1467,937,-2117,8388
41094711,4020,0,1.7492979,-0.17248394,-9.259488,-0.0095787095,-0.004190143,-0.029157091,58.27147,156.9064,0.0047884034,1442850,2974,28,-1225,8401
41194689,3998,0,-2.0543325,0.38764268,-11.148815,0.03051641,0.009390902,-0.034677994,58.249306,156.9064,0.0047884034,1442850,-3335,-134,-137,8393
41294689,3998,0,0.04621754,-0.1985301,-9.442504,-0.014892531,0.00306764,-0.03994334,58.240997,156.9064,0.0047884034,1442850,115,-633,-3222,8390
41398700,3989,0,0.237098,-0.0397529,-10.266785,-0.025131911,-0.005217014,-0.04905911,58.263157,156.9064,0.0047884034,1442850,1206,455,-1291,8398
41498691,3980,0,-0.97638774,-1.2790115,-9.0358305,0.031042913,0.00070776,-0.049251296,58.249306,156.9064,0.0047884034,1442850,-2518,-359,-2529,8393
41598717,4023,0,1.1509359,0.5528508,-10.59411,0.018238889,-0.0043566558,-0.012390386,58.232685,156.9064,0.0047884034,1442850,1285,450,-1021,8387
41702685,3991,0,-0.6804067,0.7571373,-8.838133,0.017704684,-0.0065587834,-0.040121578,58.265926,156.9064,0.0047884034,1442850,-2024,540,-3518,8399
41802685,3983,0,1.2264508,-0.48355225,-11.64935,0.0077662966,-0.00096315565,-0.054846354,58.260387,156.9064,0.0047884034,1442850,1697,452,-2035,8397
41906729,4044,0,0.6384676,-0.91323346,-10.533672,0.02444092,-0.0011197354,-0.05302637,58.263157,156.9064,0.0047884034,1442850,1062,-47,-3031,8398
42007462,4002,0,-0.4284336,2.0160944,-10.72784,0.03347202,0.0050349976,-0.06144926,58.263157,156.9064,0.0047884034,1442850,-756,508,-1742,8398
42107477,4000,0,0.47466508,1.246948,-11.155218,0.02503919,0.016640335,-0.06084868,58.243767,156.9064,0.0047884034,1442850,-366,48,-1605,8391
42207477,3952,0,-0.70910454,-0.79340917,-10.247345,0.02516333,-0.0064330054,-0.040533133,58.277008,156.9064,0.0047884034,1442850,-1670,-548,-2942,8403
42311493,4016,0,0.55697584,-0.7914871,-11.432238,-0.013018742,0.003501989,-0.035484817,58.29363,156.9064,0.0047884034,1442850,2519,-480,-765,8409
42411520,4042,0,0.7732981,0.17577523,-10.03598,-0.024797492,0.0005853849,-0.0156075135,58.301937,156.9064,0.0047884034,1442850,2247,-629,-2815,8412
42515478,4001,0,-1.3618784,1.7796888,-10.811552,0.018044256,-0.009462417,-0.051709205,58.29363,156.9064,0.0047884034,1442850,-2476,392,-2051,8409
42615484,4006,0,0.9948645,0.14151841,-10.311836,-0.0064091925,-0.008450655,-0.06794536,58.2964,156.9064,0.0047884034,1442850,1571,267,-2856,8410
42715477,4000,0,0.57294965,-1.1303933,-10.850049,-0.03634301,-0.0029794571,-0.037519924,58.260387,156.9064,0.0047884034,1442850,1981,407,-1886,8397
42819477,3995,0,-0.24649179,0.66680044,-10.249202,0.03129208,0.010474847,-0.065848485,58.27147,156.9064,0.0047884034,1442850,-165,-536,-2809,8401
42919477,3967,0,0.5867338,1.947518,-10.854953,-0.003965223,-0.005290247,-0.022497706,58.301937,156.9064,0.0047884034,1442850,2075,398,-150,8412
43019477,3994,0,0.65326595,0.28532997,-10.326855,-0.029308008,-0.010693106,-0.0062559075,58.260387,156.9064,0.0047884034,1442850,2393,-50,-1439,8397
43123496,4008,0,-0.48791313,-0.59059346,-11.835296,0.021157539,-0.008221487,-0.0358767,58.2964,156.9064,0.0047884034,1442850,-941,612,51,8410
43223483,4006,0,0.8624338,-0.69449705,-10.016922,-0.010368795,0.011638415,-0.023904826,58.285316,156.9064,0.0047884034,1442850,2201,-917,-2051,8406
43327477,3993,0,-1.1951739,1.7507744,-10.582667,0.030998554,0.0026102103,-0.052816898,58.28809,156.9064,0.0047884034,1442850,-2730,627,-1370,8407
43431490,4013,0,0.27894005,-0.5855203,-9.529231,-0.027489418,0.00021174015,-0.026682403,58.257618,156.9064,0.0047884034,1442850,1460,-422,-3530,8396
43531477,3975,0,-1.4157776,-1.6417844,-10.216133,-0.0035352306,0.012022403,-0.08475079,58.277008,156.9064,0.0047884034,1442850,-1476,-650,-3915,8403
43635477,3979,0,0.40283027,0.7586654,-9.037745,-0.023770232,0.009068441,-0.007856686,58.260387,156.9064,0.0047884034,1442850,2202,-402,-3514,8397
43735453,3999,0,-1.67216,1.282519,-8.957097,0.0051766457,0.011520508,-0.06005638,58.25485,156.9064,0.0047884034,1442850,-2228,-244,-5038,8395
43835453,3992,0,0.31089795,0.48431072,-10.36001,0.03442062,-0.012299115,-0.06463012,58.268696,156.9064,0.0047884034,1442850,-153,582,-2630,8400
43940277,3994,0,-1.5184995,-1.0464865,-10.004286,0.019152217,0.009075706,-0.03836497,58.249306,156.9064,0.0047884034,1442850,-2603,-138,-1880,8393
44040277,3994,0,0.30335438,0.121089585,-10.143813,-0.0023784575,0.008117592,-0.035680402,58.227146,156.9064,0.0047884034,1442850,1474,-1096,-1843,8385
44140326,4048,0,-0.070242554,0.9615098,-9.132456,0.0037060624,0.01117691,-0.02987456,58.260387,156.9064,0.0047884034,1442850,311,-483,-2262,8397
45464253,4000,0,0.80022377,-0.888883,-9.82212,-0.037529796,0.002106755,-0.052218206,58.282547,156.9064,0.0047884034,1442850,2110,-747,-2466,8405
45565077,3985,0,1.4847728,-1.4645793,-9.344733,-0.023073643,-0.0010931245,-0.03263008,58.260387,156.9064,0.0047884034,1442850,3024,-131,-3326,8397
45669077,3993,0,0.3911531,1.0528164,-9.272254,-0.025691066,-0.002874646,-0.0034443662,58.268696,156.9064,0.0047884034,1442850,2127,-24,-1639,8400
45769097,3987,0,0.9218495,1.7345084,-8.868931,0.020948412,-0.011022527,-0.018303055,58.27424,156.9064,0.0047884034,1442850,1472,1026,-3429,8402
45869085,4000,0,-0.20517266,0.63697076,-9.1486025,0.032581054,-0.009351157,-0.031493213,58.28809,156.9064,0.0047884034,1442850,-1795,951,-3552,8407
45973085,4000,0,-0.51702076,-1.412356,-10.391553,0.031923294,-0.0014945577,-0.063206844,58.301937,156.9064,0.0047884034,1442850,-889,66,164,8412
46073085,4000,0,-2.081343,-0.083305545,-9.849069,0.010166246,0.015131136,-0.03749197,58.28809,156.9064,0.0047884034,1442850,-2607,-453,-1375,8407
46173117,4032,0,-0.21638478,1.460316,-9.539782,-0.04490918,0.009074187,-0.033395987,58.285316,156.9064,0.0047884034,1442850,1646,240,-762,8406
46277085,4000,0,-1.4643037,0.4985869,-8.6268635,0.004535203,-0.0011136897,-0.0308466,58.260387,156.9064,0.0047884034,1442850,-2340,17,-3151,8397
46377085,3994,0,0.65933204,-1.679578,-9.423088,-0.030581253,-0.0062999087,-0.055306405,58.29086,156.9064,0.0047884034,1442850,1782,-1230,-1884,8408
46481091,4006,0,-0.6094414,-0.52533025,-9.715506,-0.042871658,0.0057948744,-0.061055478,58.29363,156.9064,0.0047884034,1442850,1210,-573,-1325,8409
46581085,3980,0,0.9029752,1.2198328,-9.861806,0.009650519,-0.00027623842,-0.036418933,58.299168,156.9064,0.0047884034,1442850,1370,174,-429,8411
46681091,4006,0,-0.12066564,1.8947902,-9.519908,0.031164326,-0.000865195,-0.04713038,58.2964,156.9064,0.0047884034,1442850,-1657,381,-948,8410
46785106,4015,0,0.04508972,-1.2507914,-8.85904,0.034674108,-0.0061139446,-0.046158403,58.30748,156.9064,0.0047884034,1442850,-900,-87,-3519,8414
46885085,4000,0,-1.4749818,-1.6089869,-9.429762,0.013059376,0.0047234246,-0.05934874,58.29363,156.9064,0.0047884034,1442850,-1730,-776,-3432,8409
46985054,3940,0,-0.58513445,0.24613807,-9.504865,-0.03197556,0.014907066,-0.039677724,58.27424,156.9064,0.0047884034,1442850,619,-524,-428,8402
47089082,4029,0,-1.0753266,1.1825004,-9.470651,-0.021442432,0.0059719114,-0.008761702,58.321327,156.9064,0.0047884034,1442850,-1092,188,-143,8419
47189066,4012,0,1.3119913,0.85729545,-9.540807,-0.028113956,-0.015924424,-0.024335898,58.301937,156.9064,0.0047884034,1442850,2703,465,-2537,8412
47293054,4000,0,0.3443732,-1.3276176,-9.597895,-0.026096776,0.012231876,-0.04700598,58.35457,156.9064,0.0047884034,1442850,2055,-766,-1697,8431
47393077,4000,0,1.0922737,-0.5530259,-10.107514,0.0028762734,0.0064408476,-0.05609623,58.28809,156.9064,0.0047884034,1442850,1987,-476,-946,8407
47597077,3967,0,0.6410171,0.8839195,-9.647909,0.0237804,-0.014954503,-0.026775826,58.31579,156.9064,0.0047884034,1442850,-187,1038,-1649,8417
47697877,3964,0,1.0093898,-1.2086245,-11.022312,0.020932078,-0.007837593,-0.07089572,58.260387,156.9064,0.0047884034,1442850,370,404,-1281,8397
47797898,4020,0,-0.43308508,-1.8038055,-9.811528,0.016327357,-0.0065932507,-0.02340613,58.279778,156.9064,0.0047884034,1442850,558,273,-2124,8404
47901877,3993,0,-0.3529857,0.9258272,-9.420734,-0.03761476,0.004853651,-0.024839716,58.31025,156.9064,0.0047884034,1442850,1088,-548,-2755,8415
48001877,4000,0,0.61607,1.8234974,-8.337088,-0.034755286,0.0083112465,-0.054100446,58.285316,156.9064,0.0047884034,1442850,2271,-336,-5587,8406
48101878,3981,0,-0.4896046,0.44819757,-10.432626,-0.034359895,-0.0074988906,-0.015930858,58.263157,156.9064,0.0047884034,1442850,1369,-30,-909,8398
48205877,4000,0,-1.0997863,-0.910734,-10.795567,0.0081627,0.003473656,-0.037327632,58.29086,156.9064,0.0047884034,1442850,-2100,366,-954,8408
48305926,4024,0,-1.4410026,0.09053379,-9.733096,-0.0054591433,0.015764147,-0.008863367,58.263157,156.9064,0.0047884034,1442850,-1007,-762,-2101,8398
48409878,3980,0,-0.29893538,1.9726657,-9.185226,0.02473282,0.0020549074,-0.02522456,58.301937,156.9064,0.0047884034,1442850,-1058,750,-2224,8412
48513877,4000,0,1.3704686,-0.95044655,-10.984336,-0.007996594,-0.023556968,-0.0103761405,58.260387,156.9064,0.0047884034,1442850,2383,1373,-1547,8397
48613859,4006,0,1.2718835,-1.4846362,-10.7266035,-0.007939247,0.0017400994,-0.03987289,58.260387,156.9064,0.0047884034,1442850,2408,-304,-1120,8397
48717854,3994,0,-0.7596497,0.7421937,-8.576967,-0.032410845,0.01763107,-0.07062359,58.252075,156.9064,0.0047884034,1442850,436,-1497,-5400,8394
48817871,4018,0,-1.1160675,1.3339909,-9.390239,-0.03263577,0.00082201255,-0.027517743,58.265926,156.9064,0.0047884034,1442850,363,-584,-2491,8399
48917854,4000,0,0.5137895,0.61564416,-10.087871,-0.0047762324,-0.004014893,-0.0563827,58.285316,156.9064,0.0047884034,1442850,1582,88,-2205,8406
49021853,3976,0,0.43009326,-1.3756452,-9.701587,-0.03233115,-0.0069681667,-0.024486113,58.232685,156.9064,0.0047884034,1442850,1104,392,-4220,8387
49121901,4018,0,-1.740113,-0.24202783,-10.210785,-0.009188967,0.009864327,-0.053067822,58.25485,156.9064,0.0047884034,1442850,-1482,-762,-1901,8395
49221883,3993,0,-2.1084976,0.7409777,-9.051088,0.00020174682,0.020602081,-0.050122038,58.265926,156.9064,0.0047884034,1442850,-2207,-1174,-3348,8399
49325883,3967,0,0.48110178,1.2919735,-9.825366,0.030642875,-0.0033736967,-0.046736192,58.221607,156.9064,0.0047884034,1442850,-570,393,-2283,8383
49426685,4001,0,1.3319397,-1.227449,-11.429595,0.019985005,-0.020048793,-0.040974796,58.235455,156.9064,0.0047884034,1442850,1075,641,399,8388
49526684,4006,0,0.18666917,-1.3554553,-10.522584,0.021462012,-0.0050914963,-0.034549043,58.229916,156.9064,0.0047884034,1442850,424,-250,-1854,8386
49630677,3986,0,0.75205725,0.5897074,-8.393934,-0.026241452,0.0029435377,-0.015012771,58.227146,156.9064,0.0047884034,1442850,2337,-882,-3703,8385
49730678,3969,0,0.98578316,1.9893733,-9.95529,-0.01023914,-0.004700266,-0.0534834,58.238228,156.9064,0.0047884034,1442850,2440,146,-2233,8389
49830699,3983,0,1.3168852,0.2135797,-10.738035,0.007255818,-0.009735991,-0.030360388,58.232685,156.9064,0.0047884034,1442850,1300,518,-1069,8387
49934679,4002,0,-0.24803075,-1.1029637,-11.247558,-0.025099041,0.005962995,-0.02928529,58.182823,156.9064,0.0047884034,1442850,367,429,823,8369
50034677,3993,0,-1.0571872,0.15043259,-10.29093,-0.029167095,0.0109861065,-0.018288234,58.218838,156.9064,0.0047884034,1442850,155,-637,-21,8382
50138677,3994,0,-1.7760758,1.586528,-9.4497595,0.012743962,0.005583467,-0.032283172,58.229916,156.9064,0.0047884034,1442850,-2820,257,-1644,8386
50238660,4006,0,-0.8449628,-0.0811456,-7.6226864,-0.026915656,0.002240341,-0.041252077,58.232685,156.9064,0.0047884034,1442850,-246,161,-3274,8387
50338703,4040,0,-0.03033033,-1.1407905,-6.903281,0.048802167,0.0102103865,-0.045680985,58.221607,156.9064,0.0047884034,1442850,-2074,-1982,-3485,8383
50442654,3992,0,-0.29590833,1.0930235,-9.120885,0.037047133,0.012078165,-0.027321612,58.224377,156.9064,0.0047884034,1442850,32,366,804,8384
50542653,3986,0,-2.8527737,1.2591867,-8.865199,0.018948948,-0.0066510974,-0.023172542,58.218838,156.9064,0.0047884034,1442850,-2874,169,-87,8382
50642677,4000,0,0.38735235,-0.26978093,-7.9221005,0.026919775,-0.013454577,-0.04661423,58.235455,156.9064,0.0047884034,1442850,-869,-101,-4923,8388
50746686,3992,0,-0.7968486,-0.09500823,-9.680091,0.020606179,0.0011767056,-0.0317877,58.221607,156.9064,0.0047884034,1442850,-1112,780,-2767,8383
50846677,4000,0,-0.58350605,1.2150396,-9.197019,-0.013543258,-0.00026242502,-0.0026781484,58.238228,156.9064,0.0047884034,1442850,-526,-223,1009,8389
50950689,4012,0,-0.90524423,1.6825567,-8.93966,-0.020766722,-0.00050099846,-0.06436366,58.25485,156.9064,0.0047884034,1442850,-325,-316,-4349,8395
51051517,4032,0,0.22330672,0.5070326,-11.118247,-0.026521182,0.0030336906,-0.022592617,58.263157,156.9064,0.0047884034,1442850,1419,1555,-791,8398
51155485,4000,0,-0.76271945,-1.3623755,-9.905277,-0.02879376,0.0025122957,-0.05046889,58.252075,156.9064,0.0047884034,1442850,492,-725,-4541,8394
51255505,4020,0,-0.3820121,0.21125649,-11.1925745,-0.031015383,0.014391065,-0.036486343,58.252075,156.9064,0.0047884034,1442850,1154,-79,710,8394
51359516,4031,0,-1.5971291,1.7525213,-9.957755,0.0025262423,0.012052914,-0.06345171,58.243767,156.9064,0.0047884034,1442850,-2333,-129,-2070,8391
51459491,3993,0,-0.0003939935,0.7092141,-10.747731,-0.031957123,-0.0030441608,-0.021268427,58.257618,156.9064,0.0047884034,1442850,539,-536,871,8396
51559485,4000,0,1.8723652,-0.6824764,-10.562983,-0.007872727,-0.007795575,-0.04246849,58.27147,156.9064,0.0047884034,1442850,2515,226,-1682,8401
51663492,4007,0,0.8759623,-1.1300843,-9.864984,-0.0068645207,0.0018515314,-0.019415664,58.265926,156.9064,0.0047884034,1442850,1768,-518,-2194,8399
51763453,3955,0,-0.97149026,1.7453265,-10.769758,0.027966954,0.006188641,-0.01371707,58.279778,156.9064,0.0047884034,1442850,-756,343,975,8404
51867454,3980,0,0.45812064,1.8746365,-10.539152,0.027062364,-0.014008002,-0.014512153,58.252075,156.9064,0.0047884034,1442850,-341,848,1399,8394
51967456,3996,0,-1.0402054,-0.12451839,-10.878119,0.036491867,0.0016076212,-0.07178947,58.257618,156.9064,0.0047884034,1442850,-3004,-111,-3225,8396
52067496,4036,0,-0.6127968,-2.0918353,-9.43352,-0.027528731,-0.0021079439,-0.05483476,58.2964,156.9064,0.0047884034,1442850,452,-1037,-4892,8410
52171483,4006,0,-0.5901652,0.28863832,-8.637002,-0.034356974,0.014096599,-0.061461277,58.279778,156.9064,0.0047884034,1442850,1150,-1316,-6071,8404
52271484,4001,0,1.4671999,1.5124158,-10.065729,0.008551792,0.001141584,-0.016343253,58.299168,156.9064,0.0047884034,1442850,1835,-755,591,8411
52371477,3991,0,0.5023054,2.085644,-11.071007,0.0057594744,0.00010778126,-0.044267744,58.28809,156.9064,0.0047884034,1442850,335,693,936,8407
52475507,4002,0,1.3341695,-1.4285681,-10.422238,-0.029573957,-0.015939761,-0.019043656,58.257618,156.9064,0.0047884034,1442850,2613,-92,-2978,8396
52575477,3993,0,-1.1975635,-1.96903,-11.053854,0.028254867,0.004033532,-0.07035127,58.299168,156.9064,0.0047884034,1442850,-1957,-103,-3099,8411
52676278,4001,0,-1.1789713,-0.17798413,-8.662539,-0.011316425,0.0054607075,-0.013070765,58.32687,156.9064,0.0047884034,1442850,-289,-972,-4855,8421
52780278,3994,0,-1.0626445,1.462426,-8.36171,0.017622702,-0.0012398094,-0.020876134,58.31302,156.9064,0.0047884034,1442850,-2235,-37,-2305,8416
52880278,3983,0,-1.7955077,0.7651251,-9.801415,-0.0130401775,-0.008233152,-0.01977964,58.318558,156.9064,0.0047884034,1442850,-1633,1224,-1865,8418
52984290,4012,0,-1.567624,-1.9392989,-10.05702,-0.0052892985,0.0033929828,-0.035427924,58.33518,156.9064,0.0047884034,1442850,-1528,-172,-1518,8424
53084287,4009,0,0.13080898,-0.3409699,-10.149776,-0.018525798,0.01007833,-0.0137477685,58.31025,156.9064,0.0047884034,1442850,1544,-562,-44,8415
53184277,4000,0,-0.70573413,1.5164272,-9.283601,0.040854443,0.009176783,-0.041398257,58.337948,156.9064,0.0047884034,1442850,-1196,-629,-2465,8425
53288298,4021,0,0.79775375,1.4281448,-9.930253,0.027085517,-0.009170768,-0.03274043,58.301937,156.9064,0.0047884034,1442850,203,342,-2947,8412
53388253,4000,0,-0.34272447,-0.7686866,-9.833008,0.028728258,-0.011987566,-0.041178018,58.321327,156.9064,0.0047884034,1442850,-443,654,-4443,8419
53488267,4014,0,-1.3302102,-1.1240814,-9.409228,0.008878181,0.000463597,-0.04192342,58.3518,156.9064,0.0047884034,1442850,-1956,-223,-4743,8430
53592253,3993,0,-2.5125813,0.8416409,-9.805422,0.026156627,0.008685946,-0.01382941,58.36565,156.9064,0.0047884034,1442850,-3131,-53,-1767,8435
53692253,3993,0,-0.3311143,1.1591386,-8.282431,-0.031329203,0.00018167356,-0.037510227,58.34626,156.9064,0.0047884034,1442850,1428,-1177,-4347,8428
53796277,3973,0,0.84260327,-0.7344669,-9.473899,-0.04080596,-0.011572411,-0.021368738,58.3241,156.9064,0.0047884034,1442850,2215,-773,-1757,8420
53900284,3987,0,-0.31048056,-1.591238,-10.189771,-0.04055084,-0.0025985604,-0.028758723,58.337948,156.9064,0.0047884034,1442850,1202,-1464,-346,8425
54000277,3994,0,0.10484186,0.31802723,-9.375189,0.004838,0.00894319,-0.030712666,58.32687,156.9064,0.0047884034,1442850,1679,-366,-3546,8421
54104283,3999,0,0.7459136,1.3175342,-9.342955,-0.0012791492,0.0005460533,-0.04615999,58.3518,156.9064,0.0047884034,1442850,1503,-598,-2741,8430
54204290,4013,0,-0.69122124,0.3117438,-10.193412,0.026865467,-0.008069272,-0.08152188,58.34349,156.9064,0.0047884034,1442850,-2203,344,-1841,8427
54304277,3999,0,0.13723637,-1.4437947,-10.353235,-0.029831389,-0.013768254,-0.009596606,58.3518,156.9064,0.0047884034,1442850,415,180,17,8430
54408277,4000,0,0.7547851,-1.2847844,-10.932099,-0.038119666,0.010440418,-0.03267466,58.35734,156.9064,0.0047884034,1442850,2279,-117,503,8432
54508277,3983,0,-0.1908426,1.3312086,-9.16926,0.025495572,0.005444103,-0.03394628,58.39058,156.9064,0.0047884034,1442850,133,-87,-3667,8444
54609084,4006,0,0.4833231,2.0615714,-9.810053,0.031592306,0.0041132187,-0.05569835,58.36288,156.9064,0.0047884034,1442850,-734,375,-1159,8434
54713083,4005,0,1.4329484,-0.756543,-10.763789,0.009321794,-0.008533051,-0.027086481,58.337948,156.9064,0.0047884034,1442850,2187,660,-913,8425
54813104,4027,0,-0.19333796,-1.8076379,-10.296448,0.03165732,-0.0022045192,-0.014801408,58.36842,156.9064,0.0047884034,1442850,-464,322,-190,8436
54913053,4000,0,-0.9032945,-0.5117741,-8.503318,0.019628791,0.007920271,-0.038068682,58.36842,156.9064,0.0047884034,1442850,-942,-247,-5824,8436
55017072,4019,0,-0.6224143,2.4463503,-8.287411,0.026382037,0.008254323,-0.00955756,58.33241,156.9064,0.0047884034,1442850,-1531,194,-1692,8423
55117054,4000,0,-1.455351,1.599227,-9.319678,0.023538886,0.009916305,-0.05170448,58.36842,156.9064,0.0047884034,1442850,-1760,214,-5756,8436
55217070,4017,0,-0.73980385,0.16440205,-10.826232,-0.018497529,0.0049716113,-0.06592579,58.38227,156.9064,0.0047884034,1442850,-901,-244,58,8441
55321104,4021,0,-1.3815149,-1.3655074,-10.106503,0.0060085813,-0.0010109774,-0.03224088,58.36011,156.9064,0.0047884034,1442850,-1887,-33,-2192,8433
55421077,4000,0,-1.789294,-0.101148725,-9.042688,-0.0063256444,0.008016362,-0.037483513,58.37119,156.9064,0.0047884034,1442850,-2212,-733,-2706,8437
55525077,3994,0,-0.72172135,1.9697967,-10.255846,0.028183343,0.0015715561,-0.046857037,58.393353,156.9064,0.0047884034,1442850,-1404,556,-1561,8445
55625077,3990,0,-1.1294996,1.0165201,-9.81521,0.040783785,-0.007860439,-0.024683269,58.37673,156.9064,0.0047884034,1442850,-2795,786,-1508,8439
55725085,4000,0,-1.5724559,-0.3147138,-9.889443,0.031034555,-0.003345733,-0.044594295,58.396122,156.9064,0.0047884034,1442850,-2825,478,-3125,8446
55829090,3981,0,0.58889467,-0.7444152,-10.985274,0.0008469224,-0.0036718973,-0.031072045,58.39889,156.9064,0.0047884034,1442850,2051,464,1621,8447
55929111,4026,0,0.66227734,0.49703828,-10.253971,0.008328671,-0.0076629436,-0.003902032,58.4072,156.9064,0.0047884034,1442850,1300,551,281,8450
56029085,3964,0,0.7979925,1.874408,-9.098287,0.00051740557,-0.0035929894,-0.015286474,58.3795,156.9064,0.0047884034,1442850,2173,334,-1301,8440
56133104,4019,0,-1.3666235,-0.04258583,-10.080089,0.0033941166,-0.0015129338,-0.03363381,58.415512,156.9064,0.0047884034,1442850,-2332,-180,61,8453
56233127,4042,0,-0.69099116,-1.0223056,-10.18406,-0.00041895546,0.0007928989,-0.054874837,58.393353,156.9064,0.0047884034,1442850,-1491,92,-1503,8445
56337085,3994,0,0.5019111,0.6542765,-10.494141,0.0041771336,0.0036597226,0.0063435365,58.42105,156.9064,0.0047884034,1442850,1662,515,844,8455
56437878,4000,0,-0.37872395,1.5928438,-8.376517,-0.017233606,0.0025836946,-0.037877113,58.39889,156.9064,0.0047884034,1442850,-132,-290,-3588,8447
56537854,3991,0,-0.70934355,1.1582915,-10.038006,0.037877608,-0.0023555555,-0.060840033,58.396122,156.9064,0.0047884034,1442850,-2672,14,-1816,8446
56641854,3981,0,0.4841208,-1.9137893,-9.540876,-0.01598912,-0.020486223,-0.0051784995,58.396122,156.9064,0.0047884034,1442850,1960,484,-1695,8446
56741854,3967,0,0.31313026,-0.48741734,-8.3373995,-0.014714956,0.012194724,-0.032083042,58.36288,156.9064,0.0047884034,1442850,1988,-99,-6529,8434
56841883,4006,0,-0.058679517,1.0919201,-9.638198,-0.013782231,0.0071968613,-0.03801267,58.38227,156.9064,0.0047884034,1442850,885,-365,-2347,8441
56945877,3994,0,0.17476422,0.49246755,-9.74688,-0.032302428,0.010439443,-0.059205864,58.426594,156.9064,0.0047884034,1442850,1786,69,-2262,8457
57045877,4000,0,-0.11735252,-0.6777066,-9.909275,-0.027369611,0.0015893637,-0.04774678,58.43767,156.9064,0.0047884034,1442850,941,803,-3937,8461
57145884,3983,0,-0.7139621,-1.166401,-9.964595,-0.0074504563,0.006494199,-0.041792534,58.4072,156.9064,0.0047884034,1442850,-563,-199,-2950,8450
57249892,4003,0,0.22856733,0.6798566,-10.409749,0.02256408,0.0075723957,-0.039705563,58.443214,156.9064,0.0047884034,1442850,290,-657,-1160,8463
57349878,4001,0,1.1204088,1.5029113,-10.666812,0.011734324,-0.010705436,-0.05281996,58.432133,156.9064,0.0047884034,1442850,1071,-112,485,8459
57453884,4007,0,0.46142036,-1.0999167,-8.811613,-0.03335468,-0.0047513703,-0.052928012,58.415512,156.9064,0.0047884034,1442850,2027,-382,-6009,8453
57553877,4000,0,0.55282927,-1.8807247,-10.056427,-0.037197627,0.0077616647,-0.03632947,58.448753,156.9064,0.0047884034,1442850,2944,-235,-2518,8465
57653877,3999,0,-0.14493068,-0.8292617,-10.390036,-0.025267603,0.011088591,-0.004039919,58.44044,156.9064,0.0047884034,1442850,1758,-1060,-1024,8462
57757878,3958,0,-1.0887994,1.276946,-9.387206,0.00896683,0.01986114,-0.062236678,58.415512,156.9064,0.0047884034,1442850,-2252,-450,-2971,8453
57857897,4020,0,-0.6063564,0.7345963,-10.035308,-0.02839134,0.007488616,-0.06901889,58.41828,156.9064,0.0047884034,1442850,-224,-531,-1654,8454
57957884,4000,0,-1.0309843,-0.82529974,-10.230409,-0.023601731,-0.013769457,-0.03722265,58.42105,156.9064,0.0047884034,1442850,-714,164,-1417,8455
58061884,4000,0,-0.082676075,-0.8214435,-11.1034565,0.03723537,0.0029541233,-0.05465186,58.40166,156.9064,0.0047884034,1442850,-1455,280,-378,8448
58161877,3982,0,-0.10881862,0.6549145,-10.250659,0.028184157,0.005026191,-0.027659599,58.40443,156.9064,0.0047884034,1442850,-496,-419,-842,8449
58265893,4015,0,0.59574723,1.7328625,-8.937809,-0.028700905,-0.0023392441,-0.04645349,58.42105,156.9064,0.0047884034,1442850,2508,-440,-3719,8455
58366697,4039,0,1.1223936,0.63078916,-10.552614,-0.03774545,-0.00435801,-0.022727663,58.434902,156.9064,0.0047884034,1442850,2815,792,-1416,8460
58466684,3985,0,0.89975667,-1.1556622,-10.602985,-0.013465306,0.0005055425,0.014304411,58.443214,156.9064,0.0047884034,1442850,2756,287,49,8463
58566686,4002,0,1.3983362,-1.4192668,-10.45376,-0.005273134,-0.0033063402,-0.0036111262,58.443214,156.9064,0.0047884034,1442850,2838,-349,-666,8463
58670677,4000,0,-0.80441856,1.2227491,-9.607646,-0.038421303,0.012235764,-0.06385441,58.41828,156.9064,0.0047884034,1442850,593,-1170,-2140,8454
58770707,4030,0,-0.6639765,1.8520418,-9.910751,-0.032180272,0.0011491128,-0.022532877,58.43767,156.9064,0.0047884034,1442850,195,-109,246,8461
58874677,3994,0,-0.99888104,-0.5227933,-10.01324,0.034334578,-0.004783759,-0.06883541,58.468143,156.9064,0.0047884034,1442850,-2185,790,-4246,8472
58974677,4000,0,-1.2163764,-1.6972523,-10.137611,0.023234218,0.010234944,-0.0627454,58.42105,156.9064,0.0047884034,1442850,-1800,163,-4067,8455
59074677,3973,0,-1.8014944,-0.5935055,-10.704865,0.009166827,0.015297866,-0.035495866,58.451523,156.9064,0.0047884034,1442850,-2343,-296,-165,8466
59178677,3985,0,0.9885881,1.5922815,-9.343913,0.0015833452,-0.002223598,-0.04006335,58.454292,156.9064,0.0047884034,1442850,1635,-196,-1412,8467
59278677,3974,0,1.6648802,0.77463955,-9.667165,0.009947656,-0.013832134,-0.042006835,58.409973,156.9064,0.0047884034,1442850,1822,258,-1983,8451
59378677,4000,0,2.1507664,-1.0521582,-10.326785,0.010841059,-0.010557268,-0.057426937,58.45983,156.9064,0.0047884034,1442850,1815,246,-1674,8469
59482688,4004,0,-0.21960852,-1.2987224,-9.380806,-0.037561253,0.008884033,-0.015501436,58.45706,156.9064,0.0047884034,1442850,975,-526,-1772,8468
59582678,3995,0,-1.0493212,-0.30032086,-9.268602,-0.03138366,0.018137021,-0.021454472,58.473682,156.9064,0.0047884034,1442850,724,-1720,-1256,8474
59686677,3994,0,-0.30114153,1.7012113,-9.807735,0.012221374,0.011934885,-0.07067801,58.451523,156.9064,0.0047884034,1442850,-1431,296,-2723,8466
59786723,4039,0,-1.430083,0.9145908,-10.592118,0.003708803,-0.00022602757,-0.053034216,58.468143,156.9064,0.0047884034,1442850,-2629,782,-2230,8472
59886677,4000,0,-1.2128215,-0.6120506,-10.304642,0.02382528,-0.0070241666,-0.02948248,58.454292,156.9064,0.0047884034,1442850,-1992,1290,-2285,8467
59990672,4019,0,0.18181606,-1.2705796,-9.472094,0.017019324,-0.008153177,-0.035421327,58.473682,156.9064,0.0047884034,1442850,856,-392,-2637,8474
60091477,4000,0,0.6917619,0.85105056,-8.941193,-0.014577737,0.0020261772,-0.059442043,58.468143,156.9064,0.0047884034,1442850,2625,-962,-2867,8472
60191478,3988,0,0.011497803,1.3293096,-8.9200115,-0.021776032,-0.0035849325,-0.054049425,58.470913,156.9064,0.0047884034,1442850,2041,-743,-4260,8473
60295484,3971,0,-1.5127002,-0.2071518,-10.864052,0.020376127,-0.001733908,-0.0378769,58.445984,156.9064,0.0047884034,1442850,-2647,794,-1308,8464
60399478,3994,0,0.70704144,-0.89318067,-9.440879,0.016439993,-0.0020124475,-0.024874624,58.454292,156.9064,0.0047884034,1442850,1336,408,-2236,8467
60499516,4018,0,0.67267823,0.43505955,-9.422371,-0.0019267751,0.002680803,-0.008495365,58.481995,156.9064,0.0047884034,1442850,1973,-260,-1891,8477
60603484,3997,0,-0.06333194,1.8991781,-9.034512,-0.035914183,0.010823867,-0.05513691,58.468143,156.9064,0.0047884034,1442850,537,153,-3798,8472
60707477,3993,0,-0.13298962,-0.6116682,-11.159603,0.034085587,-0.011170831,-0.025397724,58.451523,156.9064,0.0047884034,1442850,-1223,252,435,8466
60807484,4007,0,0.699309,-1.2845067,-10.770965,0.017024932,-0.0053201537,-0.027759915,58.443214,156.9064,0.0047884034,1442850,1213,488,-10,8463
60911484,4007,0,-0.6598699,0.6039502,-8.6018715,-0.0209032,0.013681211,-0.028707234,58.481995,156.9064,0.0047884034,1442850,-54,-1703,-1055,8477
61015477,3966,0,-0.69052905,1.7226721,-10.17457,0.031435903,0.0037428928,-0.06890281,58.470913,156.9064,0.0047884034,1442850,-2227,2,-2059,8473
61115477,3999,0,-0.23024057,0.3150942,-10.572178,0.03180088,-0.012220012,-0.07547046,58.484764,156.9064,0.0047884034,1442850,-1291,1228,-3939,8478
61219522,4045,0,0.6717624,-0.54659766,-10.156117,-0.018662099,-0.005015959,-0.001448943,58.470913,156.9064,0.0047884034,1442850,2078,506,-109,8473
61319477,4000,0,-0.28734004,0.74812716,-9.9275675,-0.024077784,0.004125626,0.003862434,58.47645,156.9064,0.0047884034,1442850,490,-612,1408,8475
61419499,4016,0,-1.5107719,1.5925416,-9.76776,-0.0014671087,0.006073931,-0.009487107,58.495846,156.9064,0.0047884034,1442850,-1114,189,-1502,8482
61523474,4021,0,1.225031,-0.072254024,-10.326255,0.019269407,-0.020031426,-0.026273157,58.47645,156.9064,0.0047884034,1442850,506,342,0,8475
61623482,4029,0,1.0708575,-1.2775943,-10.121933,8.069165e-05,-0.015836017,-0.014250468,58.45983,156.9064,0.0047884034,1442850,1312,444,-1238,8469
61723460,4007,0,0.40238765,-1.8341721,-9.0441065,-0.02259192,0.0029164965,-0.015973505,58.487534,156.9064,0.0047884034,1442850,2479,-788,-3481,8479
61827502,4042,0,-1.0367498,1.2677252,-10.557748,0.0046817344,0.019266073,-0.06056697,58.470913,156.9064,0.0047884034,1442850,-1951,99,-455,8473
61927477,3980,0,-0.8405921,1.5006291,-10.526483,0.021654788,0.0036186813,-0.058920484,58.498615,156.9064,0.0047884034,1442850,-2291,-364,564,8483
62031483,3953,0,0.31634614,-0.87848514,-10.865471,-0.021406054,-0.006253392,-0.007681259,58.473682,156.9064,0.0047884034,1442850,1385,-662,532,8474
62135491,4014,0,-0.85497886,-0.5595726,-8.905211,0.030584782,0.0071172486,-0.03947386,58.473682,156.9064,0.0047884034,1442850,-1739,-565,-2665,8474
62235477,3992,0,-0.5451099,0.8177025,-9.741443,0.019751873,0.008191216,-0.05297053,58.504154,156.9064,0.0047884034,1442850,-674,-1025,-795,8485
62336285,3994,0,0.39310607,1.0018452,-9.444751,-0.014710826,0.0025263713,-0.027580338,58.495846,156.9064,0.0047884034,1442850,1875,-481,-1899,8482
62440291,4006,0,-0.87299484,0.08535846,-11.5741,0.0042419843,-0.00066849345,-0.07138658,58.501385,156.9064,0.0047884034,1442850,-2082,607,-28,8484
62540285,3994,0,-1.4154841,-1.0781583,-11.665923,0.023043491,0.005213127,-0.053770583,58.498615,156.9064,0.0047884034,1442850,-1941,994,-1094,8483
62644285,3987,0,0.6909887,0.85051113,-8.913602,-0.011214105,-0.006925666,0.0043285238,58.526314,156.9064,0.0047884034,1442850,2178,817,-2441,8493
62744291,3991,0,0.42594787,1.8883928,-8.79188,-0.031521983,-0.008318646,-0.0076016528,58.479225,156.9064,0.0047884034,1442850,1998,338,-3025,8476
62844291,4006,0,-0.38753986,0.8340889,-9.487968,0.017222162,-0.014831646,-0.012797164,58.501385,156.9064,0.0047884034,1442850,-934,1773,-3300,8484
62948301,4048,0,-0.12926646,-2.1362286,-9.209592,-0.034945417,0.0011986399,-0.04492391,58.495846,156.9064,0.0047884034,1442850,1037,-903,-2631,8482
63048253,4000,0,-1.9201572,-0.76798946,-9.161333,-0.0058766548,0.02013902,-0.049243465,58.484764,156.9064,0.0047884034,1442850,-2107,-985,-2793,8478
63148253,3978,0,-0.61332387,1.415303,-9.780596,0.038901,0.0022034284,-0.032254122,58.515236,156.9064,0.0047884034,1442850,-1627,68,-1776,8489
63252269,4016,0,0.18682899,1.0178279,-8.637978,-0.022876786,0.0001693333,-0.08184234,58.470913,156.9064,0.0047884034,1442850,1058,61,-6080,8473
63352277,3994,0,0.022564204,-0.8536952,-9.504832,-0.013482982,-0.0054237796,-0.08016454,58.473682,156.9064,0.0047884034,1442850,231,-589,-3058,8474
63456277,3980,0,-1.5560428,-0.3661612,-9.933831,0.013888096,0.015081819,-0.042867564,58.481995,156.9064,0.0047884034,1442850,-2172,-1258,-1635,8477
63560277,3982,0,0.31601176,1.9932156,-10.137096,-0.005644642,-0.0015704769,-0.009403663,58.481995,156.9064,0.0047884034,1442850,1788,357,-1538,8477
63660277,3958,0,0.022942109,1.2468743,-10.206885,-0.031780828,-0.0025838357,-0.02116118,58.526314,156.9064,0.0047884034,1442850,1672,129,-1975,8493
63760277,3993,0,-0.8784564,-0.46256012,-10.248793,0.007057027,0.010830898,-0.045083404,58.518005,156.9064,0.0047884034,1442850,-1343,-279,-1193,8490
63864309,4032,0,0.28133172,-0.395524,-10.358191,-0.009698181,-0.0009318086,0.0064219953,58.512466,156.9064,0.0047884034,1442850,1218,123,939,8488
63964284,4007,0,0.13684922,0.7502885,-9.345645,-0.01833403,-0.0021564872,0.007848284,58.523544,156.9064,0.0047884034,1442850,1474,445,-1445,8492
64064283,3965,0,-0.039887525,1.6906457,-9.130471,-0.006910242,0.0024899936,-0.0059345383,58.515236,156.9064,0.0047884034,1442850,929,68,-3161,8489
64169077,3999,0,-0.5554311,-0.71753126,-9.916627,0.013830657,-0.010145586,-0.04157528,58.512466,156.9064,0.0047884034,1442850,-1024,640,-2999,8488
64269078,4000,0,-0.53042364,-1.4112849,-10.109597,-0.0003773213,0.0060294587,-0.030634664,58.493073,156.9064,0.0047884034,1442850,-40,-1242,-439,8481
64373077,3959,0,-1.5197914,1.5221103,-9.856753,0.027873402,0.016721737,-0.05319231,58.495846,156.9064,0.0047884034,1442850,-2442,10,-2791,8482
64473053,3993,0,0.011004048,2.3460593,-10.175584,0.041656844,0.010198112,-0.05469066,58.509693,156.9064,0.0047884034,1442850,-1713,495,-1745,8487
64573053,3999,0,0.019801054,1.4670931,-11.240429,0.03181269,-0.007847578,-0.046773586,58.540165,156.9064,0.0047884034,1442850,-1288,846,320,8498
64677060,4007,0,0.8681374,-1.6944277,-8.923116,-0.034969985,-0.0019802316,-0.028099377,58.504154,156.9064,0.0047884034,1442850,2900,261,-3909,8485
64777053,3996,0,-0.040969357,-0.9151587,-9.590264,-0.0331505,0.018019158,-0.03590002,58.523544,156.9064,0.0047884034,1442850,1567,-1703,-1398,8492
64877077,3991,0,-0.24108438,-0.1597909,-8.890569,-0.024851725,0.012757051,-0.044538878,58.520775,156.9064,0.0047884034,1442850,1396,-1664,-3175,8491
64981102,4025,0,-1.0443914,1.797872,-10.349053,0.028447777,0.007436999,-0.04565268,58.531857,156.9064,0.0047884034,1442850,-2931,666,-1430,8495
65081077,4000,0,-1.0923752,0.25724745,-10.705201,0.03666554,-0.0009011071,-0.04873132,58.509693,156.9064,0.0047884034,1442850,-2917,-5,-541,8487
65185077,4000,0,0.22030284,-1.8442427,-9.895578,-0.00068012625,-0.001750772,-0.014168292,58.523544,156.9064,0.0047884034,1442850,1703,-20,-2280,8492
65289085,3994,0,-1.0617559,1.0755155,-9.398605,-0.032845914,0.018847937,-0.06238719,58.526314,156.9064,0.0047884034,1442850,281,-1481,-1968,8493
65389085,3957,0,-1.3888255,1.4938781,-9.741984,-0.023704324,0.018310118,-0.061727703,58.515236,156.9064,0.0047884034,1442850,-1131,-1302,-1098,8489
65493148,4057,0,-0.74094117,-0.024702717,-10.3374815,0.041650936,-0.012288188,-0.037275072,58.523544,156.9064,0.0047884034,1442850,-2000,614,-2463,8492
65593085,3973,0,-0.55683994,-1.5572512,-9.135265,0.026576491,-0.014335834,-0.044568613,58.495846,156.9064,0.0047884034,1442850,-902,287,-3322,8482
65693085,4000,0,-1.2476388,-1.2554995,-8.9244795,0.022171661,0.0065394575,-0.04434304,58.551247,156.9064,0.0047884034,1442850,-2253,-389,-4115,8502
65797091,4006,0,0.020641515,2.1883838,-9.871489,0.012253758,0.0041127456,-0.039401375,58.529087,156.9064,0.0047884034,1442850,353,411,-1663,8494
65897878,4000,0,0.17583133,1.3809892,-8.809725,0.029645834,-0.0024883582,-0.019779604,58.529087,156.9064,0.0047884034,1442850,-452,414,-3466,8494
65997915,4062,0,-0.7671283,0.018212259,-9.891377,0.037147634,-0.0063686357,-0.029838001,58.562325,156.9064,0.0047884034,1442850,-2046,235,-1295,8506
66101854,4000,0,0.69912994,-1.4099628,-10.654391,0.0031236233,0.00727747,-0.040035907,58.573406,156.9064,0.0047884034,1442850,2133,-34,-2348,8510
66201853,3999,0,0.76955134,0.7656004,-10.147415,0.015710749,-0.00024936465,-0.031135004,58.504154,156.9064,0.0047884034,1442850,1187,321,-513,8485
66301860,4006,0,-0.685767,2.4751954,-9.414728,0.029532239,0.008657499,-0.018232439,58.537395,156.9064,0.0047884034,1442850,-1089,-547,518,8497
66405877,3982,0,1.3664507,1.2130997,-10.884494,-0.00041547045,-0.01105989,-0.03917651,58.545704,156.9064,0.0047884034,1442850,1811,779,-484,8500
66505883,4006,0,-0.48584554,-0.6137776,-10.613917,0.035899088,-0.007059536,-0.020137679,58.559555,156.9064,0.0047884034,1442850,-1779,850,-1086,8505
66609909,4032,0,-0.17117141,-1.1603445,-10.462007,0.025894584,0.011476873,-0.04220709,58.493073,156.9064,0.0047884034,1442850,-29,-120,-1582,8481
66709877,4000,0,-1.7210947,0.8970772,-9.519373,0.010767393,-0.0014945199,-0.020822097,58.542934,156.9064,0.0047884034,1442850,-1768,-323,-1014,8499
66809883,3993,0,-0.47484618,2.041478,-8.740828,-0.024893973,0.012997266,-0.03621767,58.554016,156.9064,0.0047884034,1442850,562,330,-4226,8503
66913877,4000,0,-1.233932,-0.10782965,-9.899904,-0.010480102,-0.0054278756,-0.024258347,58.542934,156.9064,0.0047884034,1442850,-1428,88,-2154,8499
67017877,3964,0,-1.4865413,-1.294058,-10.487628,-0.003996348,-0.0072237724,-0.044994704,58.548477,156.9064,0.0047884034,1442850,-1868,-607,-745,8501
67117902,4024,0,-0.38342178,0.20853308,-9.245708,-0.032740787,0.015340138,-0.019429427,58.523544,156.9064,0.0047884034,1442850,751,-172,-1663,8492
67221878,4001,0,-0.41676444,1.8674853,-9.876398,-0.030994467,-0.0044124606,-0.011453548,58.542934,156.9064,0.0047884034,1442850,394,579,-1287,8499
67321877,3999,0,1.5075955,0.6058759,-9.646166,-0.017795134,-0.002561613,-0.061225004,58.537395,156.9064,0.0047884034,1442850,2620,-655,-3168,8497
67421884,4007,0,1.3453454,-0.7460367,-10.981301,0.02165544,-0.012199974,-0.034737315,58.509693,156.9064,0.0047884034,1442850,1219,1192,-697,8487
67525898,4014,0,0.04328197,-1.6597874,-8.978189,0.0077288607,0.010302223,-0.062251255,58.551247,156.9064,0.0047884034,1442850,1550,-1320,-4548,8502
67625903,4005,0,-0.16196464,0.65312016,-10.290013,0.031678393,0.004188455,-0.041084886,58.529087,156.9064,0.0047884034,1442850,-1056,713,-660,8494
67729884,3999,0,0.3976678,1.8563486,-9.0100565,0.016682956,-0.0040102345,-0.039334692,58.573406,156.9064,0.0047884034,1442850,425,588,-4689,8510
67833853,4000,0,1.6269647,-0.37550864,-10.957412,-0.003928162,-0.009338458,-0.032446705,58.542934,156.9064,0.0047884034,1442850,2386,588,-1220,8499
67933853,4000,0,-1.2632189,-1.7595887,-9.479369,0.014015171,-0.0038710518,-0.023182858,58.542934,156.9064,0.0047884034,1442850,-1488,-279,-1915,8499
68034683,3999,0,-1.3956081,-0.36768034,-8.691649,0.016704485,0.0011881312,-0.03032623,58.509693,156.9064,0.0047884034,1442850,-1779,-1142,-3771,8487
68138684,4000,0,-0.79163826,2.4800723,-9.869459,0.027239647,0.0039213453,-0.045785487,58.531857,156.9064,0.0047884034,1442850,-1171,188,-689,8495
68238686,4008,0,-1.4060746,1.1726953,-9.5537615,0.026206328,-0.008091448,-0.026646394,58.562325,156.9064,0.0047884034,1442850,-2371,469,-3236,8506
68338688,4004,0,-1.6003844,-0.50361884,-9.863555,0.0074495524,0.009641828,-0.068051375,58.559555,156.9064,0.0047884034,1442850,-2389,-179,-3231,8505
68442684,4007,0,-2.1586263,-0.92610556,-10.405071,0.011131566,0.016907394,-0.027048454,58.573406,156.9064,0.0047884034,1442850,-2028,338,-1475,8510
68542697,4010,0,-0.61817926,0.044905774,-7.9338045,-0.03059118,0.015963156,-0.073561236,58.58172,156.9064,0.0047884034,1442850,645,-1957,-6341,8513
68646698,3986,0,-0.95801747,1.51377,-9.509352,-0.013774227,0.0063282214,-0.03991566,58.540165,156.9064,0.0047884034,1442850,-1447,-125,-1747,8498
68746677,4000,0,0.44394332,0.17819011,-9.384741,-0.026287163,-0.012264744,-0.042886898,58.576176,156.9064,0.0047884034,1442850,2362,-370,-3723,8511
68846684,4007,0,1.4859812,-0.95075077,-10.8261385,0.012013212,-0.009232778,-0.05029958,58.559555,156.9064,0.0047884034,1442850,1263,568,-405,8505
68950678,4001,0,0.98040575,-1.9547392,-9.285163,-0.004242176,0.0005396949,-0.030787338,58.537395,156.9064,0.0047884034,1442850,2273,-772,-3501,8497
69050677,3971,0,0.20993263,0.9030924,-10.106868,0.029546563,0.010335248,-0.059917443,58.570637,156.9064,0.0047884034,1442850,-440,402,-851,8509
69150702,4019,0,-1.8083587,2.2017293,-9.728448,0.019471074,0.018115312,-0.034627583,58.556786,156.9064,0.0047884034,1442850,-2586,-237,-1394,8504
69254707,4021,0,-0.4585372,0.33715856,-9.996318,0.039522205,0.0006365023,-0.07227671,58.567867,156.9064,0.0047884034,1442850,-2301,-246,-3378,8508
69966677,3998,0,0.5207094,0.29499832,-9.075507,-0.017513324,0.016785176,-0.0248508,58.548477,156.9064,0.0047884034,1442850,2235,-757,-897,8501
70067485,4000,0,1.0723407,2.2206693,-9.915008,0.03462048,0.00378667,-0.050377693,58.559555,156.9064,0.0047884034,1442850,109,421,-2363,8505
70171512,4027,0,0.0672842,0.11308003,-9.022692,0.03024398,-0.006995928,-0.04403603,58.562325,156.9064,0.0047884034,1442850,-383,-406,-4193,8506
70271485,4000,0,-0.9495474,-1.2676866,-10.497838,0.0021201484,-0.0070403214,-0.04594685,58.548477,156.9064,0.0047884034,1442850,-1633,-11,-475,8501
70375485,3956,0,-2.0827916,-0.26155058,-8.61557,-0.007860317,0.008451311,-0.03460802,58.556786,156.9064,0.0047884034,1442850,-1699,-499,-4817,8504
70475485,4000,0,0.2989252,1.2238555,-9.593828,-0.009953134,0.008046099,-0.05104877,58.548477,156.9064,0.0047884034,1442850,1712,-735,-3129,8501
70575505,4020,0,-1.3106498,2.092536,-9.550474,0.018237373,0.0033920207,-0.023183784,58.595566,156.9064,0.0047884034,1442850,-2138,-440,-157,8518
70679506,4021,0,-1.074572,0.42955035,-10.835254,0.027085284,-0.0036238218,-0.033096932,58.531857,156.9064,0.0047884034,1442850,-2562,690,-273,8495
70779453,3953,0,-0.27991349,-1.3428247,-9.999962,-0.03819377,-0.010830694,-0.030964218,58.570637,156.9064,0.0047884034,1442850,697,149,-252,8509
70883486,4026,0,-1.0802708,-0.1910565,-10.368733,-0.03973432,0.014450982,-0.011434263,58.562325,156.9064,0.0047884034,1442850,834,-492,1163,8506
70987453,4000,0,0.28756723,1.6874477,-9.768763,-0.041116044,0.009379552,-0.05282111,58.554016,156.9064,0.0047884034,1442850,1963,-742,-1637,8503
71087460,4007,0,-0.1699602,1.3276815,-10.156315,0.035420403,-0.007972078,-0.013691533,58.595566,156.9064,0.0047884034,1442850,-1502,1039,828,8518
71187460,3962,0,-0.30364925,-1.1719959,-9.650489,-0.039967123,-0.006718616,-0.06636661,58.542934,156.9064,0.0047884034,1442850,640,445,-3718,8499
71291504,4010,0,-0.49332428,-1.4830375,-9.246145,-0.04098613,0.008659844,-0.056834474,58.556786,156.9064,0.0047884034,1442850,1272,-1396,-2386,8504
71391477,4000,0,0.46534404,-0.03293128,-10.476662,0.014297754,0.0030674823,-0.02974411,58.59834,156.9064,0.0047884034,1442850,397,-428,1672,8519
71495498,4021,0,-0.83595854,2.1959221,-10.084437,0.0342654,0.0055482886,-0.06298953,58.590027,156.9064,0.0047884034,1442850,-2381,-63,-1287,8516
71595477,4000,0,0.7413811,0.4760177,-9.567699,-0.023580331,-0.022653207,0.008699,58.595566,156.9064,0.0047884034,1442850,2529,1941,-939,8518
71695477,4000,0,-0.4147099,-1.7139289,-7.878212,-0.022394745,-0.006444633,-0.06741715,58.565098,156.9064,0.0047884034,1442850,647,-743,-7222,8507
71800277,4800,0,0.12057337,0.6059161,-9.43386,-0.02180821,0.014485439,-0.04188493,58.537395,156.9064,0.0047884034,1442850,2228,-480,-1422,8497
71900301,4024,0,-0.42050576,1.7156993,-8.397521,0.030585459,0.0059825364,-0.011531985,58.590027,156.9064,0.0047884034,1442850,-958,295,-3831,8516
72000289,4011,0,1.4125339,0.8212209,-8.8800335,-0.037626337,0.0049516307,-0.06841051,58.587257,156.9064,0.0047884034,1442850,2804,-480,-3242,8515
72104302,4025,0,1.8622773,-1.1746193,-9.985499,-0.028694049,-0.008390372,-0.036449037,58.606647,156.9064,0.0047884034,1442850,3072,-240,-3709,8522
72204277,4000,0,-0.9843505,-1.1495817,-10.250767,0.03109168,-0.00071418093,-0.04571938,58.58172,156.9064,0.0047884034,1442850,-1459,-421,-3701,8513
72304253,4000,0,-1.3712022,-0.72332567,-9.957174,-0.026257183,0.012352747,-0.0271748,58.587257,156.9064,0.0047884034,1442850,327,-1236,-1323,8515
72408254,3982,0,0.5830336,1.4703026,-9.007529,-0.03213109,-0.013535855,-0.01163975,58.578945,156.9064,0.0047884034,1442850,2369,722,-3301,8512
72508253,3993,0,0.6088936,1.2203392,-10.776338,0.027810007,-0.0019461827,-0.06479874,58.6205,156.9064,0.0047884034,1442850,-280,1123,-3232,8527
72612253,3952,0,-0.66236,-1.593939,-11.278737,-0.0003818788,0.005354592,-0.058160137,58.578945,156.9064,0.0047884034,1442850,-719,-47,517,8512
72712297,4020,0,-0.20739052,-0.30464405,-10.173808,-0.037480928,0.012346753,-0.053056054,58.592796,156.9064,0.0047884034,1442850,2277,-917,-2200,8517
72812289,3996,0,-0.20671928,0.6221306,-9.054522,0.019418964,0.013648996,-0.046597667,58.603878,156.9064,0.0047884034,1442850,466,-1599,-2939,8521
72916277,4000,0,0.036592122,2.092537,-9.381439,0.02823175,0.0034329277,-0.05119244,58.570637,156.9064,0.0047884034,1442850,-218,655,-3308,8509
73016326,4042,0,-0.7544552,-0.10734359,-9.58635,0.007183942,-0.012279649,-0.008039481,58.567867,156.9064,0.0047884034,1442850,-1758,761,-2927,8508
73116285,3980,0,1.7817792,-1.3362578,-10.848391,-0.0012670588,-0.007860947,-0.040474724,58.6205,156.9064,0.0047884034,1442850,2131,424,-552,8527
73220285,3986,0,-0.6707742,-0.09848041,-10.559612,0.034998484,0.011567775,-0.046593383,58.592796,156.9064,0.0047884034,1442850,-1244,77,947,8517
73320285,4000,0,-0.24622168,0.866222,-8.993423,-0.033734716,0.010492468,-0.032438897,58.590027,156.9064,0.0047884034,1442850,210,-777,-1009,8516
73424285,3985,0,1.2736112,0.74409115,-9.710462,-0.03023018,-0.007375395,-0.014629238,58.60111,156.9064,0.0047884034,1442850,2566,-651,-1600,8520
73524285,3994,0,-1.186485,-0.119418465,-10.393653,0.035807062,-0.004658976,-0.058639802,58.6205,156.9064,0.0047884034,1442850,-2359,534,-2664,8527
73624291,4006,0,1.2177854,-1.9386437,-9.829355,-0.03516527,-0.014273497,-0.042185366,58.595566,156.9064,0.0047884034,1442850,2124,-1045,-2537,8518
73728285,3994,0,0.5612004,0.067463614,-8.958648,0.014560802,0.004081851,-0.007830626,58.592796,156.9064,0.0047884034,1442850,1010,-975,-2060,8517
73828285,4000,0,-1.2955256,1.7659622,-9.652031,0.013113963,0.006157713,-0.03951831,58.573406,156.9064,0.0047884034,1442850,-2106,337,-2577,8510
73928285,4000,0,1.3124324,1.4415885,-9.104824,-0.0117945075,-0.0053040646,-0.04295414,58.587257,156.9064,0.0047884034,1442850,2315,-149,-3705,8515
74033099,4045,0,0.9625348,-0.5890405,-10.3862705,-0.00959847,-0.011797097,-0.04103685,58.628807,156.9064,0.0047884034,1442850,2577,1873,-3075,8530
74133077,3994,0,-1.8735534,-1.5028586,-9.343646,0.0059478134,0.0018933292,-0.054895878,58.6205,156.9064,0.0047884034,1442850,-2762,-603,-4503,8527
74233077,3993,0,-0.12271018,-0.35916823,-9.902422,-0.02881467,0.003971935,-0.014941635,58.631577,156.9064,0.0047884034,1442850,3144,-130,-2897,8531
74337077,4000,0,0.9443643,1.81901,-9.558167,0.0014775982,-0.010902059,-0.001154657,58.592796,156.9064,0.0047884034,1442850,1920,714,-2137,8517
74437084,4006,0,-1.3879559,1.3889128,-10.210678,-0.024908468,0.004062713,-0.07155698,58.606647,156.9064,0.0047884034,1442850,-1586,228,-276,8522
74541078,3956,0,0.2900156,-1.5063176,-11.006364,-0.03364724,-0.0063867834,-0.033618946,58.603878,156.9064,0.0047884034,1442850,1523,316,1291,8521
74645131,4038,0,0.3294753,-0.0057130563,-10.976741,-0.019476257,0.012852604,-0.057259604,58.60111,156.9064,0.0047884034,1442850,2494,-642,397,8520
74749077,3973,0,0.013585902,1.9386725,-10.859236,0.01712022,0.0024156624,-0.044031143,58.584488,156.9064,0.0047884034,1442850,-101,562,2200,8514
74849084,4007,0,-0.80950963,0.6443228,-9.714965,-0.023802983,-0.0019657996,-0.044073716,58.63435,156.9064,0.0047884034,1442850,-584,-284,-483,8532
74953084,4007,0,1.6764114,-2.0707695,-9.196145,0.018129215,-0.00015537394,-0.06079009,58.61773,156.9064,0.0047884034,1442850,1501,-1421,-4237,8526
75053077,3978,0,-2.2396772,-0.79420656,-9.953946,-0.009980127,0.0145577025,-0.0151930805,58.631577,156.9064,0.0047884034,1442850,-1852,-750,134,8531
75153077,4000,0,0.786181,0.83384585,-9.572599,0.03891211,0.0116699245,-0.055905677,58.609417,156.9064,0.0047884034,1442850,151,-209,-1559,8523
75257103,4026,0,0.045344483,1.6025277,-9.130717,0.032247044,-0.007792578,-0.08253622,58.59834,156.9064,0.0047884034,1442850,-701,594,-6262,8519
75357077,4000,0,0.3956879,-0.6932877,-9.5993,-0.038731076,-0.023011096,-0.015497696,58.61773,156.9064,0.0047884034,1442850,1983,-68,-2620,8526
75461078,3994,0,0.44965374,-1.4035915,-10.17641,0.01864813,-0.00201038,-0.018792216,58.65097,156.9064,0.0047884034,1442850,742,-148,-427,8538
75565074,4020,0,-0.90241176,1.1105317,-8.623103,0.02581235,0.0014097686,-0.062503204,58.63435,156.9064,0.0047884034,1442850,-1115,-476,-4006,8532
75665053,3988,0,1.2342961,1.3245621,-9.658022,-0.025621809,-0.020984896,-0.013435211,58.65097,156.9064,0.0047884034,1442850,2197,497,-1264,8538
75769098,4038,0,-0.3912166,-0.5951648,-10.243754,0.042047404,-0.0042931363,-0.021912863,58.628807,156.9064,0.0047884034,1442850,-1999,532,-2573,8530
75869077,3993,0,1.8059781,-1.2555878,-11.62638,0.0063628247,-0.002284703,-0.008674223,58.614956,156.9064,0.0047884034,1442850,2522,906,2005,8525
75969077,4000,0,-0.42731145,-1.0172923,-9.707204,-0.053839833,0.011017313,-0.0695885,58.612186,156.9064,0.0047884034,1442850,2226,-995,-3025,8524
76073077,3993,0,0.989041,1.978878,-10.270731,0.017243154,-0.0055022417,-0.004615664,58.631577,156.9064,0.0047884034,1442850,1102,993,333,8531
76173078,3995,0,-0.7214135,1.2095653,-9.79,-0.042895786,-0.006525052,-0.043225415,58.603878,156.9064,0.0047884034,1442850,1311,-120,-1276,8521
76273886,4002,0,-0.86695266,-0.034691278,-10.666717,0.03132558,-0.015157959,-0.06024158,58.63712,156.9064,0.0047884034,1442850,-2715,741,-3005,8533
76377877,4000,0,0.5098023,-1.6488395,-9.890094,-0.041453503,-0.007330172,0.004081579,58.628807,156.9064,0.0047884034,1442850,3013,-495,-2561,8530
76477884,4007,0,-2.0740597,0.43540105,-9.333344,-0.02690426,0.01643584,-0.030572735,58.628807,156.9064,0.0047884034,1442850,-60,-371,-2237,8530
76577884,4006,0,-1.2956944,1.817503,-9.685604,0.02113116,0.018006302,-0.030238658,58.648197,156.9064,0.0047884034,1442850,-1839,40,261,8537
76681877,3995,0,0.96126294,0.55318093,-9.994987,-0.021980926,-0.01523315,-0.018943684,58.63989,156.9064,0.0047884034,1442850,1663,315,-804,8534
76781877,3953,0,-0.9343597,-1.3658599,-9.854291,-0.036987826,-0.016382892,-0.0145800095,58.648197,156.9064,0.0047884034,1442850,540,645,-2541,8537
76885905,4028,0,0.7021669,-1.096666,-8.870229,0.02072688,0.015857194,-0.028216068,58.66759,156.9064,0.0047884034,1442850,1669,-1448,-3980,8544
76985854,4001,0,0.08332971,0.9735372,-8.832518,-0.037789084,0.016188238,-0.050719135,58.64266,156.9064,0.0047884034,1442850,2007,-1469,-2108,8535
77085870,3985,0,-2.074803,1.7948153,-8.899712,0.0026520686,0.00821479,-0.011142889,58.64266,156.9064,0.0047884034,1442850,-1878,-497,-3190,8535
77189853,4000,0,1.3642732,-0.119760856,-9.506147,0.019903837,-0.0031533656,-0.07486449,58.63712,156.9064,0.0047884034,1442850,1296,351,-5462,8533
77289936,4052,0,1.7722605,-1.2674048,-9.778365,-0.04277076,0.0028389615,-0.03806737,58.63989,156.9064,0.0047884034,1442850,3854,-842,-2065,8534
77389897,4012,0,-1.9002048,-1.3182406,-8.95198,-0.04418736,0.004982087,-0.02668638,58.631577,156.9064,0.0047884034,1442850,-608,-361,-3307,8531
77493885,3994,0,0.009448104,1.5642825,-9.394008,0.035476804,0.008058972,-0.043750744,58.648197,156.9064,0.0047884034,1442850,-658,150,-391,8537
77593884,4000,0,1.3153358,1.1997484,-8.796383,0.008299824,-0.009723306,-0.05590239,58.65928,156.9064,0.0047884034,1442850,1941,-317,-5337,8541
77697892,3992,0,-0.9720072,-1.0929637,-10.394153,0.018424869,0.004477222,-0.052983522,58.63989,156.9064,0.0047884034,1442850,-2403,-249,-2127,8534
77797885,4000,0,-0.32942814,-1.8096143,-10.225565,0.021074113,0.0040291823,-0.067047015,58.63712,156.9064,0.0047884034,1442850,-614,-748,-1733,8533
77897885,4000,0,0.41842797,-0.10064169,-9.552247,-0.00047951099,-0.00182438,-0.017346296,58.65928,156.9064,0.0047884034,1442850,1076,101,-1949,8541
77998684,4000,0,-0.83692706,0.47395986,-8.857173,-0.02931892,0.0091086775,-0.019940313,58.63712,156.9064,0.0047884034,1442850,98,-1764,-897,8533
78102678,4000,0,1.0852592,1.0909783,-9.687288,0.038795177,-0.002752758,-0.05942336,58.66759,156.9064,0.0047884034,1442850,383,946,-4112,8544
78202704,4019,0,1.2777779,-1.2248485,-9.994126,-0.026412055,-0.024303462,0.014802851,58.63989,156.9064,0.0047884034,1442850,2600,1114,-1832,8534
78306677,3984,0,-1.5938245,-0.36438033,-9.429683,0.01947289,0.020037608,-0.061140224,58.63712,156.9064,0.0047884034,1442850,-1374,-798,-2977,8533
78406677,4024,0,0.66668814,1.2244991,-8.777634,-0.012957394,0.0053170286,-0.031277396,58.64266,156.9064,0.0047884034,1442850,2082,-259,-2815,8535
78506653,3999,0,0.044831518,1.4956957,-9.748598,-0.03520295,0.0012671137,-0.024094721,58.66205,156.9064,0.0047884034,1442850,253,-364,684,8542
79522677,4000,0,-1.0073942,0.42353845,-9.979709,-0.0120309265,-0.012315509,-0.02717623,58.69252,156.9064,0.0047884034,1442850,-1517,-272,-213,8553
79622684,4002,0,1.0442293,-0.41406265,-10.8888,0.015050791,-0.004274302,-0.023043565,58.64266,156.9064,0.0047884034,1442850,518,1339,-1519,8535
79726677,4000,0,-2.280557,-0.63977504,-9.734289,0.03938711,0.016221654,-0.03270417,58.68975,156.9064,0.0047884034,1442850,-3232,-902,-1333,8552
79826678,4000,0,0.8277613,1.0920204,-8.779884,-0.023119109,0.00051154324,0.0072552646,58.6759,156.9064,0.0047884034,1442850,2973,-287,-2760,8547
79930678,3988,0,-0.2516195,1.6674334,-9.572291,0.05127301,-0.0022844956,-0.0562734,58.70083,156.9064,0.0047884034,1442850,-1238,592,-4044,8556
80030677,3993,0,1.5375423,-0.6543629,-9.198368,-0.023334783,-0.01918779,-0.0024354937,58.720222,156.9064,0.0047884034,1442850,2561,1316,-2367,8563
80131454,4000,0,0.1790677,-1.8689039,-9.366223,0.035381988,-0.0011773258,-0.037094608,58.70083,156.9064,0.0047884034,1442850,-1136,-1037,-3052,8556
80231477,4000,0,0.10811104,-0.8498521,-10.019113,-0.029259183,0.0032107555,0.0001995326,58.70914,156.9064,0.0047884034,1442850,2414,-1193,-1802,8559
80335477,3951,0,1.0824199,2.4022698,-9.409401,0.025059758,0.0028543286,-0.045807812,58.67036,156.9064,0.0047884034,1442850,1370,187,-2356,8545
80435477,4000,0,-0.58428353,0.8169662,-8.220701,-0.025884796,-0.014393296,-0.035743386,58.722992,156.9064,0.0047884034,1442850,-175,-260,-5096,8564
80539477,3999,0,1.093391,-1.1388378,-11.035334,-0.025628965,-0.0038313908,-0.04677602,58.66205,156.9064,0.0047884034,1442850,1172,198,-924,8542
80643477,4000,0,-0.09019027,-0.24909247,-10.780555,0.030268019,0.005566034,-0.043758553,58.68975,156.9064,0.0047884034,1442850,-1096,7,1801,8552
80743477,3974,0,0.9036362,0.81202656,-9.033998,-0.029799681,0.015358972,-0.03322665,58.67036,156.9064,0.0047884034,1442850,3077,-1060,-2851,8545
80847477,3973,0,0.795749,1.4427211,-10.409568,0.01727608,-0.00010252558,-0.061377514,58.69529,156.9064,0.0047884034,1442850,417,865,-2570,8554
80947483,3980,0,-0.78993106,-0.50701046,-8.914357,-0.028864868,-0.01196952,-0.045962192,58.69529,156.9064,0.0047884034,1442850,92,824,-6304,8554
81047488,4011,0,-0.002921713,-1.4929794,-10.658042,0.031311143,-0.010420019,-0.04673041,58.68975,156.9064,0.0047884034,1442850,-337,-6,-1042,8552
81151477,3993,0,-1.8202797,0.38481978,-8.825243,0.0021661343,0.019696113,-0.03263669,58.67867,156.9064,0.0047884034,1442850,-2402,-1171,-1449,8548
81251477,4000,0,-0.3162026,2.0094838,-10.366628,-0.0062367218,-0.008101858,-0.0123479385,58.722992,156.9064,0.0047884034,1442850,943,1124,-938,8564
81351477,3936,0,-0.93994075,1.0650547,-9.278093,0.01868541,-0.0056957835,-0.07390852,58.722992,156.9064,0.0047884034,1442850,-2000,170,-3321,8564
81455518,4041,0,-0.49426055,-1.8561416,-10.174586,-0.030635621,-0.00095716683,-0.08538881,58.7036,156.9064,0.0047884034,1442850,113,-94,-2304,8557
81555477,3999,0,-0.44538105,-1.208385,-10.344378,-0.018085238,0.0035530974,-0.05743647,58.69252,156.9064,0.0047884034,1442850,1508,-15,-3533,8553
81655453,3993,0,-2.133484,0.40031537,-9.534432,0.029748604,0.021081379,-0.056451477,58.71745,156.9064,0.0047884034,1442850,-2242,-661,-3300,8562
81859463,4009,0,-0.5254461,0.8534762,-10.682296,-0.03128662,-0.011299679,-0.056395706,58.71468,156.9064,0.0047884034,1442850,378,636,-2024,8561
81963477,3994,0,0.7677931,-2.2956295,-10.711766,-0.04063696,-0.019117631,-0.023186216,58.71468,156.9064,0.0047884034,1442850,2559,-446,-1176,8561
82063483,4006,0,-1.5085485,-1.1329354,-11.09751,0.029805949,0.004670523,-0.04611494,58.71745,156.9064,0.0047884034,1442850,-1941,346,-2218,8562
82163477,4000,0,0.5023851,0.6381629,-10.15142,-0.01425755,0.0038590007,-0.020105857,58.70083,156.9064,0.0047884034,1442850,988,-114,1258,8556
82267477,4000,0,0.15147077,1.5121535,-10.30832,-0.0327918,-0.002170377,-0.021308675,58.72853,156.9064,0.0047884034,1442850,1350,54,344,8566
82368291,4000,0,-0.6156008,0.4473132,-10.816782,0.032253087,-0.0062003247,-0.01824506,58.70083,156.9064,0.0047884034,1442850,-2188,951,-2252,8556
82468285,3951,0,-0.09923242,-1.2967902,-11.036074,-0.013352691,-0.012494439,-0.00016491301,58.69529,156.9064,0.0047884034,1442850,-213,837,2212,8554
82572304,4019,0,0.9123396,-0.48428592,-9.600519,-0.026699696,0.012384243,-0.036811277,58.71468,156.9064,0.0047884034,1442850,2900,-1355,-686,8561
82672291,4006,0,-1.9088757,1.2695266,-9.888653,0.018917661,0.0044515706,-0.04118669,58.68698,156.9064,0.0047884034,1442850,-2339,-47,-2313,8551
