timestamp,integral_dt,error_count,x,y,z,x_integral,y_integral,z_integral,temperature,range_m_s2,scaling,device_id,x_raw,y_raw,z_raw,temperature_raw
39901492,3985,0,0.28053728,-0.3215628,-9.985599,0.0013659899,-0.0009108784,-0.040155813,59.736843,156.9064,0.0047884034,1442826,122,-30,1983,8930
40005505,4013,0,-0.13887905,0.21401598,-9.961314,-0.0021810385,0.004080437,-0.04165426,59.759003,156.9064,0.0047884034,1442826,-109,96,1924,8938
40109492,3973,0,0.10455824,0.53759557,-9.757141,0.0025124117,0.00014532235,-0.039629776,59.72853,156.9064,0.0047884034,1442826,202,32,2022,8927
40207079,3960,0,0.12006624,0.47905746,-10.208664,0.001096811,0.0009862364,-0.04028866,59.74515,156.9064,0.0047884034,1442826,-119,18,1989,8933
40311119,4000,0,0.11942658,0.49145237,-10.22866,0.0009146038,0.0070429165,-0.039245933,59.73407,156.9064,0.0047884034,1442826,-310,39,2229,8929
40411119,4000,0,0.09943458,-0.4637469,-10.323223,0.002823529,0.006256643,-0.04112928,59.756233,156.9064,0.0047884034,1442826,-569,-72,2022,8937
40511119,4013,0,0.2889849,-0.63099617,-10.327082,0.0050503444,0.006321369,-0.037825704,59.756233,156.9064,0.0047884034,1442826,-364,-137,1711,8937
40615122,4042,0,0.4966279,0.96687883,-9.648926,0.0006026613,0.005824155,-0.038977668,59.736843,156.9064,0.0047884034,1442826,-58,219,2096,8930
40715120,4023,0,0.14826638,0.824859,-9.609771,-0.0051977667,-0.0035782834,-0.03987417,59.775623,156.9064,0.0047884034,1442826,293,136,2315,8944
40819111,3992,0,-0.1722098,-0.80686337,-10.108379,0.0024097632,0.00050089665,-0.038707104,59.778393,156.9064,0.0047884034,1442826,-322,14,1967,8945
40919120,3994,0,-0.034867484,0.033528805,-9.735488,0.003456034,0.010571975,-0.038499378,59.759003,156.9064,0.0047884034,1442826,-671,-135,1917,8938
41019119,4000,0,0.6057517,1.7099731,-9.310769,0.003564918,0.008473573,-0.037546404,59.772854,156.9064,0.0047884034,1442826,262,67,2360,8943
41123125,4006,0,-0.39983034,-1.0159452,-10.217107,-0.005274632,-0.008297078,-0.040286496,59.797783,156.9064,0.0047884034,1442826,126,74,2284,8952
41227119,4036,0,1.0474229,1.4121279,-9.490722,0.003575858,0.0047436254,-0.037442908,59.772854,156.9064,0.0047884034,1442826,765,243,2226,8943
41327912,4793,0,-0.7365007,-0.119773746,-10.115931,0.0013264589,-0.0045149424,-0.04925138,59.800552,156.9064,0.0047884034,1442826,99,-248,1851,8953
41428714,3952,0,0.50870806,1.3335308,-9.518416,-0.0020901922,0.010409373,-0.0381371,59.817173,156.9064,0.0047884034,1442826,241,228,2382,8959
41532761,4012,0,0.29389066,0.4844835,-9.84083,0.018575076,-0.0018592009,-0.038476378,59.800552,156.9064,0.0047884034,1442826,-69,-856,1734,8953
41632758,4046,0,-1.2579831,-0.9723668,-10.443302,-0.00024048123,0.0097800605,-0.042811166,59.822716,156.9064,0.0047884034,1442826,-581,-570,2351,8961
41732717,4005,0,-0.075972155,0.90285116,-9.849332,0.017149959,0.0039255857,-0.03222739,59.795013,156.9064,0.0047884034,1442826,-121,-594,2022,8951
41836719,4007,0,-0.51678675,-0.7563447,-10.050824,5.2988296e-05,-0.003930345,-0.04849972,59.814404,156.9064,0.0047884034,1442826,-597,-527,1884,8958
41936736,4022,0,-0.5100406,0.17652921,-9.8344755,-0.009310641,-0.008648929,-0.049368314,59.858727,156.9064,0.0047884034,1442826,-125,-171,1964,8974
42040758,3997,0,-0.17971772,-0.18690906,-10.644694,0.0075491737,0.008319551,-0.045575693,59.847645,156.9064,0.0047884034,1442826,-464,-840,1670,8970
42140759,4011,0,0.64390844,-0.58820564,-10.180778,0.016298601,0.00037846202,-0.03843175,59.836563,156.9064,0.0047884034,1442826,-611,-37,1592,8966
42240804,4092,0,0.7147604,0.64397025,-9.282012,-0.0008911857,0.0013450374,-0.020510007,59.836563,156.9064,0.0047884034,1442826,426,649,1892,8966
42344714,3937,0,0.54620606,-0.028334983,-9.439136,0.0059966734,0.0029855545,-0.0521551,59.872574,156.9064,0.0047884034,1442826,-280,-35,3370,8979
42444712,3913,0,-0.6113537,0.026268808,-9.508099,0.018185925,0.0025486546,-0.036412712,59.853184,156.9064,0.0047884034,1442826,119,-1421,2599,8972
42546303,3963,0,0.11246464,0.30902478,-9.953673,0.019394383,-0.0026854656,-0.04495359,59.850414,156.9064,0.0047884034,1442826,21,-738,1717,8971
42646298,3968,0,0.9926317,0.046279937,-9.640276,0.003344951,-0.004219835,-0.024002297,59.828255,156.9064,0.0047884034,1442826,-110,1186,2068,8963
42750347,4055,0,0.82296383,0.68238586,-9.367024,0.017408803,-0.00070565357,-0.030909851,59.847645,156.9064,0.0047884034,1442826,1120,103,2711,8970
42854293,3991,0,0.3273648,0.43856844,-10.188224,0.017975243,0.0035515688,-0.050373167,59.847645,156.9064,0.0047884034,1442826,568,-798,244,8970
42954292,4000,0,-0.17292894,0.25720647,-9.78471,0.0131217325,0.00043531955,-0.04695587,59.850414,156.9064,0.0047884034,1442826,115,-457,1763,8971
43054292,3994,0,-0.13224743,0.61031336,-10.452689,0.014810421,-0.0039418684,-0.03508349,59.864265,156.9064,0.0047884034,1442826,-539,-1140,91,8976
43158335,4025,0,0.12369636,-0.29344925,-9.798341,0.0022654582,-0.0053044353,-0.04335033,59.855953,156.9064,0.0047884034,1442826,-164,-373,3182,8973
43262334,4036,0,0.7713151,0.05993681,-8.938892,0.013599561,0.001884136,-0.034062274,59.889194,156.9064,0.0047884034,1442826,547,355,2227,8985
43362291,3999,0,0.5965888,0.16723031,-9.079514,-0.004576348,0.005906292,-0.027763972,59.889194,156.9064,0.0047884034,1442826,918,711,2603,8985
44391892,3949,0,-0.0076117218,-1.0442128,-10.264959,0.0029186488,-0.0005748838,-0.04528672,59.94737,156.9064,0.0047884034,1442826,-304,-170,2538,9006
44495899,3971,0,0.008570253,0.2140532,-10.032398,0.0047183125,-0.000561993,-0.034707047,59.936287,156.9064,0.0047884034,1442826,-166,-20,1370,9002
44599892,3963,0,0.2895118,-0.20100693,-9.936005,-0.0064314413,-0.0018545522,-0.028188426,59.96676,156.9064,0.0047884034,1442826,518,1278,4694,9013
44699891,3982,0,0.03298911,-0.6340331,-11.350322,-0.0054479097,-0.0035244112,-0.040532988,59.955677,156.9064,0.0047884034,1442826,284,-408,856,9009
44803892,3989,0,0.4054668,0.79165363,-9.742895,0.007171363,0.0043334565,-0.017688878,59.96399,156.9064,0.0047884034,1442826,134,1013,3499,9012
44901527,4020,0,-0.07279482,0.7840766,-10.30682,0.017719695,0.003718952,-0.035857383,59.955677,156.9064,0.0047884034,1442826,1113,-151,1365,9009
45005478,3959,0,0.107462615,-0.1162437,-9.485795,-0.009755292,-0.007894799,-0.032337964,59.936287,156.9064,0.0047884034,1442826,730,170,2563,9002
45105517,3997,0,-0.3495638,-0.95274156,-10.451731,-0.0055319015,-0.0024630758,-0.032998428,59.96676,156.9064,0.0047884034,1442826,-471,-61,1349,9013
45205520,4001,0,-0.56781465,-0.20265417,-9.884449,-0.0029996666,0.004082602,-0.02432295,59.96676,156.9064,0.0047884034,1442826,-873,83,1667,9013
45309519,4000,0,-0.73888606,0.90873647,-9.327456,-0.007885745,0.006085637,-0.04651155,59.97784,156.9064,0.0047884034,1442826,-572,-1181,2243,9017
45409512,3992,0,0.18748772,0.43215662,-9.873415,-0.008640509,-0.007577577,-0.034687594,59.991688,156.9064,0.0047884034,1442826,-347,-84,2437,9022
45509514,3995,0,0.57166666,-0.35778004,-10.329129,0.0015003001,-0.0020925268,-0.03441646,59.972298,156.9064,0.0047884034,1442826,316,-597,2645,9015
45613519,4000,0,0.21998052,-1.072188,-10.632947,-0.0029949252,0.00032702857,-0.05159343,59.975067,156.9064,0.0047884034,1442826,305,515,1667,9016
45713519,4000,0,-0.74394035,0.5621914,-10.278847,-0.0034815012,0.009219253,-0.046014708,59.958447,156.9064,0.0047884034,1442826,-21,-911,772,9010
45817520,4000,0,0.0138375275,0.49450392,-10.207957,-0.0061781844,0.0018894766,-0.04190214,60.01385,156.9064,0.0047884034,1442826,545,248,2499,9030
45917520,4011,0,0.53504866,-0.43149143,-10.670086,0.009885059,-0.0041995775,-0.03727812,60.011078,156.9064,0.0047884034,1442826,2007,228,2396,9029
46023112,4001,0,0.13778166,-0.06102363,-10.343907,0.0028180059,-0.0030407067,-0.047557954,60.04155,156.9064,0.0047884034,1442826,-861,168,1407,9040
46123118,4000,0,-0.6493823,1.2076535,-9.897488,0.01044794,0.00056941266,-0.05003021,60.04155,156.9064,0.0047884034,1442826,-116,-528,2595,9040
46223167,4017,0,-0.21474308,0.9029732,-10.297378,-0.009448887,-0.001247365,-0.036010087,60.02216,156.9064,0.0047884034,1442826,-210,135,1360,9033
46327143,3994,0,0.4916318,-0.61833113,-10.74665,-0.0019181914,-0.0055792895,-0.03425644,60.05817,156.9064,0.0047884034,1442826,-453,658,2185,9046
46427118,4003,0,0.50594485,-0.64143157,-10.398443,0.004341097,-0.005353025,-0.037918255,60.03047,156.9064,0.0047884034,1442826,-332,671,3004,9036
46531112,4000,0,-0.29816383,0.6486406,-10.342836,-0.0013646168,0.00034537085,-0.036041074,60.05263,156.9064,0.0047884034,1442826,-171,549,1971,9044
46631119,3966,0,0.4017146,1.4069797,-10.550184,0.0128151225,-0.00034316487,-0.043385264,60.0554,156.9064,0.0047884034,1442826,436,-236,-268,9045
46731114,3963,0,0.6175344,0.3626675,-10.027663,-0.00022431137,-0.008060055,-0.0336681,60.069252,156.9064,0.0047884034,1442826,187,-301,2861,9050
46835138,4026,0,-0.10599427,-1.0985701,-10.895054,-0.0008116871,0.003586332,-0.031672407,60.05263,156.9064,0.0047884034,1442826,-380,-473,640,9044
46935118,4006,0,0.17326628,-0.07685182,-9.829445,-0.006517398,-7.804367e-05,-0.04145136,60.06094,156.9064,0.0047884034,1442826,-682,655,-299,9047
47035118,3994,0,-0.7524452,1.2415797,-9.688305,0.0006139917,0.009378998,-0.042384412,60.04155,156.9064,0.0047884034,1442826,-268,-268,3116,9040
47139130,4012,0,0.20444667,0.22002345,-10.646156,-0.0011368154,-0.003554105,-0.04402978,60.07756,156.9064,0.0047884034,1442826,49,-6,1590,9053
47240782,4090,0,0.6168853,-0.7322069,-10.486942,0.0026284256,-0.0026049209,-0.043095842,60.099724,156.9064,0.0047884034,1442826,330,155,1975,9061
47344726,3953,0,-0.33843228,-0.5368251,-9.94697,-0.008837665,0.009869149,-0.04220467,60.105263,156.9064,0.0047884034,1442826,-912,-74,2005,9063
47448737,4045,0,0.5069261,1.2828687,-9.531358,-0.004879105,0.00017132203,-0.028661849,60.085873,156.9064,0.0047884034,1442826,-382,989,1948,9056
47552692,3976,0,0.15031826,-0.011754453,-10.231585,0.0037473906,-0.012920204,-0.06577209,60.09141,156.9064,0.0047884034,1442826,538,-856,2192,9058
47652692,4000,0,0.4286635,-1.2155075,-10.723839,0.0072604218,-0.008772405,-0.03328959,60.124653,156.9064,0.0047884034,1442826,244,490,2445,9070
47756718,4026,0,-0.44249564,0.31125146,-9.646603,-0.009705572,0.013926402,-0.051263943,60.088642,156.9064,0.0047884034,1442826,-261,167,2197,9057
47856692,4001,0,-0.3424417,1.5013651,-9.563319,0.0006475244,0.008563903,-0.042421065,60.108032,156.9064,0.0047884034,1442826,-38,-1013,1728,9064
47956699,3985,0,0.15056889,1.1429715,-9.71359,0.0031211437,0.0017126342,-0.04438126,60.105263,156.9064,0.0047884034,1442826,-131,-1164,2701,9063
48060748,4057,0,0.14574853,-0.94716614,-10.203681,0.008959799,-0.0029027439,-0.03863351,60.1108,156.9064,0.0047884034,1442826,427,-60,476,9065
48160782,4091,0,-0.56506723,-0.61772645,-9.359779,-0.0050518764,0.0104378695,-0.030617781,60.105263,156.9064,0.0047884034,1442826,-265,-816,2191,9063
48264698,3960,0,-0.27853122,1.391333,-8.780477,-0.011592652,0.011580858,-0.04360812,60.177284,156.9064,0.0047884034,1442826,-188,-230,2771,9089
48366346,3966,0,0.55079776,0.8186283,-9.3232355,-0.0146150775,-0.004800304,-0.055155363,60.157894,156.9064,0.0047884034,1442826,-545,441,1900,9082
48470375,4066,0,0.25559556,-1.113702,-9.396106,-0.011104612,-0.0002919351,-0.039449684,60.163433,156.9064,0.0047884034,1442826,331,523,3346,9084
48570304,4013,0,0.12698269,-1.06515,-9.630385,0.0020210862,-0.0033236109,-0.034776747,60.152355,156.9064,0.0047884034,1442826,201,157,2234,9080
48670298,3967,0,-0.54848707,0.32351726,-9.117242,-0.0021197284,0.0099701695,-0.04379412,60.163433,156.9064,0.0047884034,1442826,-626,-584,2330,9084
48774291,4000,0,0.071882136,1.2165725,-9.625967,-0.0020610525,0.0012483814,-0.052606456,60.138504,156.9064,0.0047884034,1442826,41,-1245,697,9075
48874318,3988,0,0.54062545,-0.02203397,-9.5038595,-0.009206736,-0.011098587,-0.019672312,60.174515,156.9064,0.0047884034,1442826,437,877,3144,9088
48978309,3996,0,0.15742056,-0.8553902,-8.977927,-0.008120351,0.011434233,-0.025940632,60.193905,156.9064,0.0047884034,1442826,-174,717,4048,9095
49078303,4011,0,-0.18883029,-0.10508763,-8.813358,3.7181424e-05,0.00827741,-0.01801556,60.174515,156.9064,0.0047884034,1442826,-965,1006,3743,9088
49178310,4013,0,0.6648703,1.1549038,-8.884532,0.00085629977,-0.0027780477,-0.031030418,60.177284,156.9064,0.0047884034,1442826,-613,-16,223,9089
49282292,3956,0,0.31820244,0.266289,-9.10625,-0.008334393,-0.0029206588,-0.03681744,60.155125,156.9064,0.0047884034,1442826,564,687,4624,9081
49382291,3999,0,0.52673143,-0.75359046,-9.38625,-0.0054946705,0.0013080118,-0.025227282,60.191135,156.9064,0.0047884034,1442826,-391,1507,3949,9094
49483919,4028,0,-0.10337159,-0.9401273,-9.107405,-0.015816817,0.010319137,-0.022879418,60.202217,156.9064,0.0047884034,1442826,-1176,1115,3271,9098
49583920,4039,0,-0.11903994,0.43835053,-9.189619,-0.0048077353,0.00907146,-0.025333976,60.202217,156.9064,0.0047884034,1442826,-1041,-19,942,9098
49687919,4000,0,-0.6290145,0.55950946,-9.210131,0.004629213,0.007149467,-0.040993154,60.235455,156.9064,0.0047884034,1442826,85,-1353,1649,9110
49787926,4008,0,0.2377565,-0.63263893,-9.653171,-0.002465754,-0.007828754,-0.048962414,60.221607,156.9064,0.0047884034,1442826,-468,-131,2989,9105
49891920,4039,0,0.27498475,-0.53130025,-9.0079,-0.0077299383,0.011963143,-0.02653991,60.221607,156.9064,0.0047884034,1442826,194,865,1881,9105
49991913,3993,0,-0.16121316,0.4833697,-8.890398,-0.016130408,-0.0016408819,-0.034204505,60.224377,156.9064,0.0047884034,1442826,-1425,804,3174,9106
50095919,4008,0,-0.0025105819,0.9567656,-9.523473,0.014396377,-0.00309022,-0.038382027,60.221607,156.9064,0.0047884034,1442826,1186,-762,1742,9105
50195881,3962,0,0.40977034,-0.32874802,-10.06665,0.018632209,-0.002271656,-0.030388063,60.246536,156.9064,0.0047884034,1442826,1185,245,1655,9114
50299919,4000,0,0.04257372,-0.6615047,-9.817163,-0.009217187,0.002937454,-0.032036398,60.260387,156.9064,0.0047884034,1442826,-435,-72,1198,9119
50399919,3984,0,-0.37316117,0.85050625,-8.9511,-0.009116995,0.014364946,-0.03316295,60.263157,156.9064,0.0047884034,1442826,405,-87,2344,9120
50503881,3975,0,-0.030494956,1.1566956,-9.001643,0.008378254,0.008095491,-0.044876404,60.257618,156.9064,0.0047884034,1442826,1310,-577,1600,9118
50605521,4007,0,0.52226174,-0.7523259,-9.232983,0.00057344185,-0.008152699,-0.03947701,60.282547,156.9064,0.0047884034,1442826,1454,263,1983,9127
50705512,3963,0,-0.076126136,-1.032868,-8.645424,0.011414117,-0.008240684,-0.034437265,60.260387,156.9064,0.0047884034,1442826,-3060,-131,3465,9119
50805560,4012,0,-1.1102716,1.1861556,-8.866187,0.015355743,0.014220619,-0.0313772,60.282547,156.9064,0.0047884034,1442826,619,-538,3386,9127
50909554,4042,0,-0.29998147,1.432617,-9.394152,0.01475176,0.008221687,-0.03213407,60.285316,156.9064,0.0047884034,1442826,627,149,931,9128
51009518,4006,0,0.30755985,0.4641288,-9.254147,0.007196628,-0.007294718,-0.033970974,60.268696,156.9064,0.0047884034,1442826,684,-31,1092,9122
51109544,4032,0,0.20669088,-0.89824504,-10.701066,0.006063852,-0.0063803084,-0.058782388,60.28809,156.9064,0.0047884034,1442826,203,-18,-589,9129
51213512,3976,0,-0.41433507,-0.07774533,-9.781775,0.0054923682,0.0090091005,-0.011303073,60.28809,156.9064,0.0047884034,1442826,-677,-322,2802,9129
51313512,3963,0,-0.5325878,1.3373309,-9.294688,0.0035752375,0.011220982,-0.047798607,60.277008,156.9064,0.0047884034,1442826,-714,-387,2790,9125
51417548,3996,0,0.57224345,0.5755278,-9.951979,-0.00086008036,-0.013336003,-0.044286016,60.29363,156.9064,0.0047884034,1442826,369,907,3311,9131
51517491,4000,0,0.21547651,-0.31818703,-10.896527,-0.010471416,-0.0021442743,-0.063973665,60.285316,156.9064,0.0047884034,1442826,497,-1136,547,9128
51617491,3977,0,0.12735572,-0.56759745,-11.258065,-0.0044113654,0.0027243372,-0.06436597,60.318558,156.9064,0.0047884034,1442826,84,-1506,717,9140
51719092,4000,0,-0.67908937,0.9121391,-10.475221,-0.011969116,0.012526932,-0.05606126,60.318558,156.9064,0.0047884034,1442826,-808,143,1260,9140
51823092,4000,0,0.3507376,1.8284706,-9.653307,-0.0047969865,-0.004086309,-0.037710384,60.31302,156.9064,0.0047884034,1442826,-1036,440,5590,9138
51923127,4035,0,0.17962049,0.35267258,-11.35555,-0.004980135,-0.0007413351,-0.05488995,60.33241,156.9064,0.0047884034,1442826,-1140,1276,4702,9145
52027092,3974,0,0.33583438,-2.099843,-12.452581,0.01081233,-0.016475383,-0.043904964,60.35457,156.9064,0.0047884034,1442826,-366,656,3175,9153
52131134,4043,0,-0.34126836,-0.6106377,-11.058523,-0.0035382402,0.021370677,-0.059171043,60.36842,156.9064,0.0047884034,1442826,1593,-318,590,9158
52231092,4000,0,-0.66297334,0.28132585,-8.559212,0.015079319,-0.016257655,0.008901729,60.36011,156.9064,0.0047884034,1442826,2677,-407,4675,9155
52335092,3976,0,0.31469068,1.0150468,-9.883008,-0.0027609172,0.01883486,-0.009145636,60.37673,156.9064,0.0047884034,1442826,332,785,4652,9161
52435130,4039,0,-0.013937781,1.5541551,-10.99142,0.010544982,0.020192463,-0.05126094,60.32964,156.9064,0.0047884034,1442826,-58,-612,4495,9144
52535126,4034,0,0.13983855,0.09155683,-10.268748,0.011525005,-0.0021292232,-0.04142151,60.31302,156.9064,0.0047884034,1442826,-224,415,3151,9138
52639092,3994,0,-0.33784166,0.4383876,-9.52559,-0.0024005785,0.00482311,-0.028056076,60.36565,156.9064,0.0047884034,1442826,-249,-460,2132,9157
52739092,4000,0,-0.15408333,0.46355957,-9.446892,-0.0059781633,0.0044284244,-0.03701125,60.38781,156.9064,0.0047884034,1442826,535,293,856,9165
52840761,4070,0,0.3553231,-0.7096972,-9.859208,-0.0050489847,-0.014406659,-0.03113379,60.36288,156.9064,0.0047884034,1442826,-48,641,2986,9156
52940743,4045,0,0.2449903,-0.79211396,-9.939052,-0.0076745623,-0.0029268647,-0.03548137,60.36565,156.9064,0.0047884034,1442826,-1286,857,2010,9157
53044698,3953,0,-0.8743526,1.2430251,-9.215951,-0.00724314,0.013207807,-0.042890556,60.415512,156.9064,0.0047884034,1442826,-124,-387,2049,9175
53148692,4000,0,0.069124505,1.2400624,-9.666044,0.012643244,-0.008547683,-0.047488924,60.43767,156.9064,0.0047884034,1442826,162,-367,2615,9183
53248733,4016,0,0.22289413,-0.07788541,-10.236718,0.011400697,-0.010679367,-0.044424508,60.38504,156.9064,0.0047884034,1442826,648,-237,2013,9164
53352691,3987,0,-0.058061134,-1.3533069,-10.3452425,0.0131543605,-0.01196663,-0.02682082,60.41828,156.9064,0.0047884034,1442826,-238,-51,3251,9176
53452692,4000,0,-0.6055922,-0.37523502,-9.193569,-0.005537378,0.004742668,-0.03895467,60.41828,156.9064,0.0047884034,1442826,-2182,113,3021,9176
53556698,3995,0,0.35420182,1.3767271,-8.525981,0.0029701616,0.0026503121,-0.045686923,60.41828,156.9064,0.0047884034,1442826,501,985,4843,9176
53656692,3969,0,-0.24907626,-0.009038477,-9.358744,-0.0007356935,-0.001338043,-0.031798694,60.426594,156.9064,0.0047884034,1442826,311,-126,3629,9179
53756692,3955,0,0.12368807,-1.0716997,-10.036548,0.005000045,-0.006826539,-0.043635447,60.42105,156.9064,0.0047884034,1442826,-1090,-111,2727,9177
53860765,4073,0,-0.14555119,0.43161657,-9.995201,0.0039032334,0.005587641,-0.02928098,60.44044,156.9064,0.0047884034,1442826,640,382,2138,9184
53958319,4000,0,-0.20552087,0.83346796,-9.963427,0.014134154,0.0021921888,-0.04646547,60.445984,156.9064,0.0047884034,1442826,-370,-667,1966,9186
54062294,3968,0,0.17471191,1.2976254,-9.543163,-0.0061279144,0.0047708573,-0.02640514,60.451523,156.9064,0.0047884034,1442826,1045,-20,934,9188
54162309,3990,0,0.47330675,-0.13332124,-10.342996,0.0014469719,0.006175936,-0.029265199,60.470913,156.9064,0.0047884034,1442826,457,1,-77,9195
54266302,3983,0,-0.38296166,-1.0122346,-10.1115265,-0.0037101742,-0.0018035355,-0.039302956,60.426594,156.9064,0.0047884034,1442826,-1197,-483,1307,9179
54366324,4003,0,-0.03113062,0.68664235,-9.5131445,-0.0019705545,0.013811062,-0.04219606,60.501385,156.9064,0.0047884034,1442826,721,-114,1860,9206
54466294,3974,0,-0.47537073,1.4501643,-9.402553,0.0067636976,0.0079028765,-0.028991178,60.468143,156.9064,0.0047884034,1442826,161,-775,2590,9194
54570319,4000,0,0.47049627,0.49969617,-9.854349,0.011344717,-0.010889823,-0.033456814,60.454292,156.9064,0.0047884034,1442826,339,638,4602,9189
54670319,4010,0,0.44275197,-0.71507156,-10.26629,0.005396694,-0.009904217,-0.045545872,60.479225,156.9064,0.0047884034,1442826,1226,766,3718,9198
54770302,3976,0,-0.025681108,-0.94984686,-10.587386,0.0076705995,-0.0047166687,-0.03576909,60.509693,156.9064,0.0047884034,1442826,-19,248,3035,9209
54874327,3980,0,-0.026321588,1.1189673,-9.454226,-0.007928366,0.013291627,-0.049104765,60.493073,156.9064,0.0047884034,1442826,296,97,449,9203
54974279,3959,0,0.4246536,1.5992395,-9.675224,0.0013334561,-0.0015340131,-0.04218469,60.484764,156.9064,0.0047884034,1442826,-364,7,828,9200
55078334,4020,0,0.5298698,-0.123021655,-9.699823,0.002045492,-0.0051061194,-0.03344804,60.515236,156.9064,0.0047884034,1442826,-417,238,3001,9211
55795918,3926,0,-0.23856103,1.4773113,-8.902796,-0.016041674,0.008145509,-0.049069736,60.534626,156.9064,0.0047884034,1442826,-352,-517,1465,9218
55895939,4027,0,-0.13408424,1.4548194,-9.227722,-0.0012926836,0.0046837665,-0.04290456,60.595566,156.9064,0.0047884034,1442826,-259,-1404,1480,9240
55995925,4006,0,-0.074840255,-0.2176306,-10.139935,-0.0014614342,-0.0055637066,-0.046936642,60.562325,156.9064,0.0047884034,1442826,-124,-1110,1472,9228
56099912,4000,0,0.022503814,-1.3000846,-10.120883,-0.00493818,-0.006712158,-0.04430629,60.570637,156.9064,0.0047884034,1442826,-384,461,1355,9231
56199912,3970,0,0.17863484,-0.5381778,-9.602979,-0.003009486,-0.0015329788,-0.030036917,60.595566,156.9064,0.0047884034,1442826,-1382,782,2275,9240
56301529,4007,0,-0.8309173,1.1763252,-9.023301,-0.01060938,0.011192957,-0.046634477,60.573406,156.9064,0.0047884034,1442826,-1291,-273,2380,9232
56405492,3995,0,0.76952004,1.0383921,-9.83684,0.005424551,-0.011751745,-0.05713167,60.578945,156.9064,0.0047884034,1442826,685,106,2365,9234
56509492,3987,0,0.18944089,-0.8403154,-10.304919,-0.004779795,-0.0040899767,-0.041344423,60.587257,156.9064,0.0047884034,1442826,714,-816,1252,9237
56609498,4000,0,0.0106594,-0.33901015,-9.908497,0.007654774,0.011463678,-0.04463143,60.612186,156.9064,0.0047884034,1442826,-233,-337,3282,9246
56713534,4042,0,-0.04915817,1.3710515,-9.099629,-0.014842027,0.00097602536,-0.039767105,60.606647,156.9064,0.0047884034,1442826,5,729,3289,9244
56813492,4000,0,-0.5078949,1.0557139,-9.371203,-0.008584573,-0.0002876122,-0.05068484,60.592796,156.9064,0.0047884034,1442826,-6,-28,3932,9239
56913492,3961,0,0.40080383,0.17143744,-9.716421,0.004059742,-0.0063506337,-0.044427164,60.590027,156.9064,0.0047884034,1442826,-194,-405,3747,9238
57017516,4025,0,0.2051128,-0.7976689,-10.252804,-0.00060660276,0.00028538052,-0.0287502,60.60111,156.9064,0.0047884034,1442826,-697,400,1743,9242
57117538,4046,0,-0.20383804,-0.41622958,-9.877397,-0.009752954,0.007998718,-0.046246015,60.59834,156.9064,0.0047884034,1442826,-124,-165,2091,9241
57217492,4000,0,-0.12810728,0.3507542,-8.944822,-0.0039799344,0.007272403,-0.022243809,60.592796,156.9064,0.0047884034,1442826,-566,307,3979,9239
57319091,3999,0,-0.47637165,0.74840856,-9.5387,0.0042224815,-0.0021134717,-0.039082564,60.6205,156.9064,0.0047884034,1442826,-111,-1177,1715,9249
57423091,4000,0,0.35060072,-0.4278599,-10.517396,-0.0018406763,-0.0074120536,-0.032234438,60.63712,156.9064,0.0047884034,1442826,913,243,2719,9255
57523109,4017,0,0.3319903,-0.6059919,-9.825947,-0.0056056045,0.0012368395,-0.024349462,60.631577,156.9064,0.0047884034,1442826,199,1295,3277,9253
57623153,4055,0,-0.1602686,0.27890515,-9.498104,-0.010942646,0.01950958,-0.04715274,60.628807,156.9064,0.0047884034,1442826,-126,335,1785,9252
57727132,4000,0,0.3912488,1.5540731,-9.73268,0.008321195,-0.005067237,-0.044658855,60.63989,156.9064,0.0047884034,1442826,484,64,1107,9256
57831154,4062,0,0.2436799,-1.3139632,-10.453451,-0.0030109813,-0.009062089,-0.043216612,60.612186,156.9064,0.0047884034,1442826,107,-1088,1123,9246
57935092,4001,0,0.15819651,-0.8518902,-10.214632,0.00441235,0.0016440274,-0.032486454,60.645428,156.9064,0.0047884034,1442826,1008,514,2041,9258
58035092,4000,0,0.12793165,0.68957657,-9.492908,-0.0066668233,0.008797549,-0.015481222,60.66205,156.9064,0.0047884034,1442826,-843,709,1822,9264
58135092,3999,0,-0.39921927,1.4764551,-8.926283,-0.013517039,0.008235646,-0.040896125,60.645428,156.9064,0.0047884034,1442826,-73,94,1491,9258
58239095,3987,0,0.7264104,0.32553613,-10.127262,0.011702957,-0.010092881,-0.04179914,60.67313,156.9064,0.0047884034,1442826,-550,23,1075,9268
58339092,3964,0,0.5191317,-1.0639424,-10.631769,-0.0040533952,-0.013767858,-0.040563103,60.67867,156.9064,0.0047884034,1442826,-135,161,-700,9270
58440744,4050,0,-0.04868947,-1.234636,-10.079248,-0.011515791,0.0039313245,-0.030664276,60.70637,156.9064,0.0047884034,1442826,-1183,477,2568,9280
58540714,4011,0,-0.49593863,0.104144275,-10.032248,-0.012395844,0.010601683,-0.04780701,60.68144,156.9064,0.0047884034,1442826,-688,-544,246,9271
58644719,4005,0,0.47013068,1.4370649,-9.408413,0.006152804,-0.0019341663,-0.04418215,60.67036,156.9064,0.0047884034,1442826,640,223,1411,9267
58744720,3999,0,0.6696323,0.8279886,-10.322095,0.0041766292,-0.0152094895,-0.03245376,60.67313,156.9064,0.0047884034,1442826,720,96,2222,9268
58844719,3979,0,0.60007,-0.7343219,-10.61328,-0.001391573,-0.012397513,-0.039125815,60.69529,156.9064,0.0047884034,1442826,-46,577,1177,9276
58948704,3984,0,0.16622072,-0.598954,-9.717072,-0.007302372,0.01387662,-0.025636323,60.71191,156.9064,0.0047884034,1442826,308,320,2456,9282
59048694,3976,0,0.007353969,0.6789741,-9.432451,-0.006936799,0.015759405,-0.035795208,60.72853,156.9064,0.0047884034,1442826,-625,342,2370,9288
59148719,4031,0,-0.78325576,1.8038948,-10.130719,-0.001517856,0.010629721,-0.048514523,60.72576,156.9064,0.0047884034,1442826,-308,-1896,823,9287
59252749,4025,0,0.61316186,0.31355104,-10.673925,-0.0005196324,-0.0027960767,-0.047823858,60.71468,156.9064,0.0047884034,1442826,1140,328,2488,9283
59352740,4021,0,0.54094476,-0.9381953,-10.721829,-0.004020506,-0.006116219,-0.039670505,60.74792,156.9064,0.0047884034,1442826,443,130,1034,9295
59456719,4012,0,0.32791784,0.081083365,-9.281258,0.00470989,0.0071579674,-0.021236725,60.720222,156.9064,0.0047884034,1442826,-799,848,4331,9285
59558350,3998,0,-0.0016599706,1.303188,-9.221098,0.010004987,0.0049181385,-0.03362603,60.772854,156.9064,0.0047884034,1442826,31,-476,1729,9304
59662344,4027,0,0.70439655,0.47863662,-9.968956,-0.0025104939,-0.009372874,-0.034694042,60.759003,156.9064,0.0047884034,1442826,-1048,279,2176,9299
59762356,4045,0,1.0068738,-0.9052167,-10.472844,-0.0009477659,-0.009219824,-0.027986515,60.722992,156.9064,0.0047884034,1442826,316,287,1628,9286
59866312,3994,0,-0.28660744,-0.6438804,-10.43944,-0.013139947,0.015669484,-0.048485328,60.74515,156.9064,0.0047884034,1442826,-83,-63,1443,9294
59966312,4001,0,-0.2846053,0.07755376,-9.605462,-0.0088732075,0.009197973,-0.029504512,60.74792,156.9064,0.0047884034,1442826,-1596,488,2405,9295
60066312,3966,0,-0.11102852,1.3910662,-9.362245,-0.006518705,-0.0008725231,-0.03795989,60.76454,156.9064,0.0047884034,1442826,-197,48,680,9301
60170312,3975,0,0.94982517,0.2164748,-9.744835,-0.004329592,-0.008858446,-0.027860623,60.792244,156.9064,0.0047884034,1442826,225,510,3332,9311
60270312,4000,0,0.4082308,-1.1951808,-10.814498,0.0004720107,-0.011531693,-0.046274606,60.761772,156.9064,0.0047884034,1442826,-269,378,736,9300
60370312,3994,0,-0.08719813,-0.52872187,-9.850713,-0.000107811415,0.0071622413,-0.034189865,60.789474,156.9064,0.0047884034,1442826,699,-221,3259,9310
60474312,3993,0,-0.5454725,1.1168166,-9.307459,0.006525561,0.010371072,-0.03078765,60.781162,156.9064,0.0047884034,1442826,-405,-521,2776,9307
60574297,4005,0,0.05273368,1.5784974,-9.064781,-0.007041811,0.00422302,-0.042913742,60.78393,156.9064,0.0047884034,1442826,-280,735,2821,9308
60675892,4000,0,1.0998139,0.8641514,-9.93795,0.01021111,-0.009215014,-0.024970759,60.811634,156.9064,0.0047884034,1442826,65,400,1376,9318
60779899,4007,0,0.5431241,-1.2508831,-9.997294,3.461202e-05,-0.007882142,-0.027256439,60.795013,156.9064,0.0047884034,1442826,-199,905,3458,9312
60879927,4029,0,-0.46602035,-0.35657236,-10.359686,0.010021167,0.003185023,-0.045969807,60.789474,156.9064,0.0047884034,1442826,-593,-379,1418,9310
60979904,4006,0,-0.5115673,0.77657825,-9.413355,-0.00568484,0.011505026,-0.026580244,60.825485,156.9064,0.0047884034,1442826,-238,-371,361,9323
61083933,4035,0,0.72646236,1.5068527,-9.246399,0.0025514162,-0.0026741931,-0.040968202,60.819942,156.9064,0.0047884034,1442826,-106,1009,2326,9321
61183892,4000,0,0.23501284,0.43714496,-10.062924,-0.010889874,-0.0013537386,-0.056800146,60.811634,156.9064,0.0047884034,1442826,1180,-1038,1582,9318
61287898,3977,0,0.06913322,-1.1983161,-10.515769,-0.0040360945,-0.016756872,-0.03797777,60.817173,156.9064,0.0047884034,1442826,-550,280,1627,9320
61387892,3962,0,0.23061152,-0.30692962,-9.5309,-0.008232193,0.008519843,-0.03551189,60.855953,156.9064,0.0047884034,1442826,-1406,1568,3450,9334
61487892,4000,0,-0.6895187,1.0743299,-9.033561,-0.013190027,0.01710102,-0.03773118,60.811634,156.9064,0.0047884034,1442826,604,-383,1654,9318
61591899,3970,0,0.69019496,1.0924327,-10.102897,0.013769377,-3.6853016e-05,-0.047455043,60.825485,156.9064,0.0047884034,1442826,634,-89,742,9323
61693524,4795,0,1.0861742,-0.5651297,-9.966786,-0.00074829324,-0.007814761,-0.030378751,60.878117,156.9064,0.0047884034,1442826,-440,908,1954,9342
61793492,3955,0,0.22729217,-1.1787567,-10.215856,-0.009013437,0.0047601024,-0.032076947,60.828255,156.9064,0.0047884034,1442826,-588,1153,3123,9324
61893525,4004,0,-0.6744481,0.17099558,-10.089626,-0.00879612,0.011988251,-0.038977038,60.839333,156.9064,0.0047884034,1442826,372,-907,125,9328
61997529,4038,0,-0.09326231,1.5609766,-9.66403,-0.004147224,0.0011506872,-0.051483728,60.833794,156.9064,0.0047884034,1442826,78,395,1783,9326
62097529,4038,0,0.031472493,0.6558291,-10.215931,-0.0034036757,0.00011271471,-0.053433523,60.867035,156.9064,0.0047884034,1442826,1221,-881,482,9338
62201491,3999,0,0.4178696,-1.0709903,-10.373073,-0.013915119,0.009535622,-0.04975708,60.842106,156.9064,0.0047884034,1442826,603,1181,2261,9329
62305505,4014,0,-0.115616426,0.103435926,-9.3295555,-0.00017114985,0.0019551343,-0.026714072,60.869804,156.9064,0.0047884034,1442826,-1887,806,2869,9339
62405501,4009,0,0.24060732,1.828326,-9.7336,0.015311823,0.010435451,-0.04398261,60.878117,156.9064,0.0047884034,1442826,109,75,1675,9342
62509499,4001,0,0.8083982,1.1464392,-10.139105,0.004153493,-0.004881701,-0.049333528,60.878117,156.9064,0.0047884034,1442826,1060,-42,1572,9342
62609524,4027,0,0.71570057,-0.28394228,-10.411193,0.010200262,-0.013509673,-0.057192538,60.897507,156.9064,0.0047884034,1442826,178,-275,2044,9349
62713529,3999,0,0.30150962,-1.0607238,-10.100101,-0.0050219605,0.0038404772,-0.026010333,60.872574,156.9064,0.0047884034,1442826,393,839,1298,9340
62815128,4046,0,-0.34381968,0.17620696,-9.422776,-0.005557031,0.0048488453,-0.027270872,60.903046,156.9064,0.0047884034,1442826,-842,-226,961,9351
62915093,4012,0,0.018440254,1.4956055,-8.61663,-0.011476887,0.0017781206,-0.027627692,60.903046,156.9064,0.0047884034,1442826,-445,861,3895,9351
63019128,4009,0,0.16012405,0.91664577,-10.341158,0.012989746,-0.0044933087,-0.055060282,60.900276,156.9064,0.0047884034,1442826,762,-1279,392,9350
63123105,3986,0,0.18463543,-1.2864536,-10.57321,-0.006874648,0.0030999123,-0.039143294,60.925205,156.9064,0.0047884034,1442826,-86,500,2237,9359
63223120,4000,0,-0.18801412,-0.6158527,-10.375838,0.0047389385,0.007200252,-0.030936776,60.94737,156.9064,0.0047884034,1442826,-1243,313,500,9367
63327119,4000,0,-0.3543607,1.505291,-8.981141,-0.0052070008,0.01358846,-0.025681082,60.936287,156.9064,0.0047884034,1442826,376,3,2485,9363
63427119,4008,0,-0.164897,1.3360382,-9.289136,0.0034885763,0.007635456,-0.03630385,60.9446,156.9064,0.0047884034,1442826,304,-516,1858,9366
63531084,3965,0,0.39610422,-0.97237504,-10.824073,0.00096113025,-0.012787715,-0.043715715,60.9446,156.9064,0.0047884034,1442826,869,-81,1644,9366
63631126,4019,0,0.26842886,-1.2628595,-10.550025,-0.0011289825,-0.0044752024,-0.034996428,60.919666,156.9064,0.0047884034,1442826,317,737,1551,9357
63731119,4033,0,-0.086545356,-0.35687843,-10.335851,-2.5240588e-06,0.001104277,-0.03742374,60.9446,156.9064,0.0047884034,1442826,-610,136,518,9366
63835119,4000,0,-0.14423707,1.5164698,-8.86084,-0.0027846084,0.008785188,-0.03121182,60.96953,156.9064,0.0047884034,1442826,-326,322,5059,9375
63936698,4007,0,0.23405847,0.8321962,-9.577677,0.008669493,-0.0030712406,-0.029969977,60.9446,156.9064,0.0047884034,1442826,676,412,3797,9366
64036725,4013,0,0.4947085,-0.75637263,-10.47103,-0.0009842371,-0.0065726726,-0.03298106,60.941826,156.9064,0.0047884034,1442826,-312,-700,831,9365
64136722,4004,0,0.1740316,-0.9466918,-10.0005865,0.002045239,0.00089475396,-0.019782992,60.941826,156.9064,0.0047884034,1442826,6,243,3925,9365
64240769,4055,0,0.18480161,0.80614156,-9.664076,0.01055609,0.006581138,-0.060555886,60.96953,156.9064,0.0047884034,1442826,-784,79,1225,9375
64344750,3986,0,-0.074670695,1.2531207,-10.059569,-0.008262432,-0.002408877,-0.046365622,60.972298,156.9064,0.0047884034,1442826,-253,-341,-296,9376
65566294,4003,0,-0.039542213,-1.2293121,-10.058432,-0.006558761,0.003901095,-0.048039913,61.05817,156.9064,0.0047884034,1442826,-944,-42,927,9407
65666292,4000,0,0.15601969,0.5959525,-9.199237,0.0036300109,0.010881598,-0.040338747,60.994457,156.9064,0.0047884034,1442826,1104,546,1907,9384
65770292,3992,0,0.45261115,1.20393,-8.876284,-0.0025679388,-0.007869547,-0.032877497,61.02493,156.9064,0.0047884034,1442826,-1490,746,2594,9395
65870292,3991,0,0.80804336,0.18740843,-10.403243,0.011112733,-0.005665262,-0.048635654,61.03601,156.9064,0.0047884034,1442826,1349,90,2088,9399
65974294,4002,0,0.13221344,-1.4590306,-10.221106,0.000107509346,-0.0011122383,-0.033882163,61.03601,156.9064,0.0047884034,1442826,566,33,1111,9399
66071911,3996,0,-0.42633277,-0.3845823,-10.189498,0.0007363218,0.012047143,-0.02745304,61.04432,156.9064,0.0047884034,1442826,-494,-1256,-216,9402
66175902,4010,0,-0.1273442,1.2981071,-9.705156,0.013917982,0.0077474965,-0.03760421,61.049862,156.9064,0.0047884034,1442826,-530,-553,1036,9404
66275893,3990,0,-0.28328124,1.3269858,-9.505054,0.0020650022,0.004087803,-0.05001401,61.066483,156.9064,0.0047884034,1442826,-87,-920,1937,9410
66379904,3975,0,0.10265957,-0.2980674,-10.291555,0.00024097902,-0.01433549,-0.03867037,61.047092,156.9064,0.0047884034,1442826,728,-174,2942,9403
66483892,3979,0,0.13923268,-1.0322112,-9.752294,0.00044741415,-0.0005523148,-0.04025788,61.03047,156.9064,0.0047884034,1442826,-753,-228,2797,9397
66583939,4047,0,-0.47814137,0.06368604,-9.464005,-0.004736389,0.0128986575,-0.039394386,61.06094,156.9064,0.0047884034,1442826,-473,-154,1349,9408
66687953,4061,0,-0.21711767,1.5314534,-9.585415,0.017260354,0.0012398504,-0.034739956,61.09141,156.9064,0.0047884034,1442826,-363,-773,2526,9419
66787937,4046,0,0.048435915,1.021825,-9.678781,0.015946057,0.0011883174,-0.032979723,61.0554,156.9064,0.0047884034,1442826,433,-1051,2843,9406
66887898,3994,0,0.16084921,-0.4802183,-10.018738,0.003589349,-0.009081156,-0.050322838,61.08033,156.9064,0.0047884034,1442826,200,-524,3038,9415
66991891,3999,0,0.26505947,-1.0806916,-10.445404,0.008602606,-0.004929645,-0.027925227,61.116344,156.9064,0.0047884034,1442826,563,654,2140,9428
67091909,3976,0,0.037638735,0.06555203,-10.236096,0.004072512,0.00084814243,-0.03709268,61.069252,156.9064,0.0047884034,1442826,-251,198,182,9411
67193491,4000,0,-0.0166718,1.5023987,-9.593053,-0.007543984,0.0013596539,-0.036116812,61.085873,156.9064,0.0047884034,1442826,-591,17,-597,9417
67293520,4013,0,0.017983345,1.2265847,-9.995987,-0.008287597,-0.0021965508,-0.029319279,61.132965,156.9064,0.0047884034,1442826,-593,-52,-767,9434
67397519,3979,0,-0.04340502,-0.5709306,-9.6636505,-4.5536668e-05,-0.0061105457,-0.03466329,61.132965,156.9064,0.0047884034,1442826,1273,-249,4473,9434
67497523,3997,0,0.19646387,-1.2085694,-9.85352,0.008063383,-0.0033387733,-0.021634232,61.102493,156.9064,0.0047884034,1442826,195,-134,3946,9423
67601520,3994,0,0.061811652,-0.0680612,-9.786203,-0.0012448898,0.0031020069,-0.054276034,61.108032,156.9064,0.0047884034,1442826,-483,-282,917,9425
67801519,4029,0,0.1777861,1.4223733,-9.234488,-0.006702554,0.0066791642,-0.043361105,61.11357,156.9064,0.0047884034,1442826,-231,495,2935,9427
67905492,3973,0,0.80653185,-0.09578026,-10.808574,0.019723888,-0.009215355,-0.052242365,61.1108,156.9064,0.0047884034,1442826,958,-111,1656,9426
68005553,4033,0,0.57282394,-1.2003071,-10.540387,0.0045074895,-0.0080205435,-0.050789647,61.144043,156.9064,0.0047884034,1442826,204,524,2443,9438
68105519,3990,0,0.1318384,-0.64689636,-10.455359,0.0019608445,0.0025967732,-0.04554535,61.13019,156.9064,0.0047884034,1442826,-66,-85,717,9433
68211091,3944,0,-0.15812351,1.6717391,-9.303791,-0.0019009223,0.005402271,-0.03560783,61.144043,156.9064,0.0047884034,1442826,350,-351,1593,9438
68315137,4011,0,0.22245318,0.7039946,-9.948546,0.0048901187,-0.0035450556,-0.06400113,61.124653,156.9064,0.0047884034,1442826,138,-589,2503,9431
68415126,4034,0,0.4049304,-0.9013472,-10.574884,0.0021864194,-0.008456087,-0.071888156,61.132965,156.9064,0.0047884034,1442826,-203,-599,1635,9434
68515092,3966,0,0.09696887,-1.0830657,-10.494564,0.0024650916,-0.0020153874,-0.050976362,61.138504,156.9064,0.0047884034,1442826,-627,-631,1938,9436
68619099,4007,0,0.46224424,0.650088,-9.424354,0.0066956556,0.0087069655,-0.018948814,61.166203,156.9064,0.0047884034,1442826,-594,372,1820,9446
68719158,4066,0,0.22963609,1.4317193,-9.017349,0.0007787866,0.0013961131,-0.030122582,61.177284,156.9064,0.0047884034,1442826,109,158,1790,9450
68819112,3979,0,0.22285207,1.0069057,-9.267223,0.0056314627,-0.007470435,-0.038384993,61.185596,156.9064,0.0047884034,1442826,-95,-211,2797,9453
68923160,4003,0,0.5220017,-1.5680323,-10.512677,-0.009993566,-0.011674001,-0.04826475,61.127422,156.9064,0.0047884034,1442826,-876,896,2021,9432
69023135,4016,0,-0.07874799,-1.7294209,-10.2783375,-0.008356174,0.0003984864,-0.026240632,61.191135,156.9064,0.0047884034,1442826,-744,742,2968,9455
69127112,3982,0,-0.44279116,0.3110242,-9.504064,0.0053942683,0.011906952,-0.041514486,61.202217,156.9064,0.0047884034,1442826,58,-848,2892,9459
69227118,4006,0,-0.512107,1.4545299,-9.668588,0.00021040556,0.01012424,-0.04510078,61.149582,156.9064,0.0047884034,1442826,-23,-1135,531,9440
69328715,3997,0,-0.3850751,0.7339804,-9.661853,-0.00366692,0.0026357663,-0.039114863,61.182823,156.9064,0.0047884034,1442826,1121,-583,1532,9452
69432705,4013,0,0.27692848,-1.33352,-10.466654,0.0039775064,-0.0074733375,-0.046229288,61.185596,156.9064,0.0047884034,1442826,619,-205,3739,9453
69532692,4001,0,-0.31834665,-1.3259407,-10.248311,-0.0027746516,-0.00011579739,-0.039591044,61.216064,156.9064,0.0047884034,1442826,-1132,-1222,1401,9464
69632698,4006,0,-0.37243992,-0.06952551,-9.133342,-0.0043973094,0.014626172,-0.019441932,61.238228,156.9064,0.0047884034,1442826,907,7,2545,9472
69736692,3985,0,-0.25879383,1.408279,-9.278036,0.005379014,-0.0031987564,-0.038364314,61.210526,156.9064,0.0047884034,1442826,-172,-364,3429,9462
69836732,3994,0,0.11292342,0.9491896,-9.634818,-0.009300158,-0.0046636406,-0.041127995,61.207756,156.9064,0.0047884034,1442826,353,-411,1708,9461
69940783,4084,0,0.2460506,-1.2807667,-10.67231,-0.0007121563,-0.009593157,-0.04843275,61.202217,156.9064,0.0047884034,1442826,-467,-748,1076,9459
70044766,4027,0,-0.058519736,0.48575497,-10.05057,0.009867742,0.008322246,-0.042960674,61.218838,156.9064,0.0047884034,1442826,214,299,344,9465
70144692,3950,0,-0.2247574,1.1017433,-9.801981,0.018640203,0.005190629,-0.038031086,61.216064,156.9064,0.0047884034,1442826,-233,-471,1650,9464
70244691,3916,0,-0.22165586,1.4811606,-9.487608,0.012293376,0.008840042,-0.043175332,61.260387,156.9064,0.0047884034,1442826,587,-1325,1439,9480
70346319,4000,0,-0.30754226,0.595252,-9.63396,0.0029177112,-0.0021424373,-0.065257385,61.213295,156.9064,0.0047884034,1442826,292,-795,2089,9463
70450326,4002,0,-0.08312852,-1.3383781,-10.349979,0.0081133,-0.0030105473,-0.039452776,61.263157,156.9064,0.0047884034,1442826,193,-233,2339,9481
70550333,4042,0,-0.1528035,-0.8158064,-9.612234,-0.0017132919,0.0048384736,-0.03213082,61.25485,156.9064,0.0047884034,1442826,-199,-530,1603,9478
70650318,3973,0,-0.22111958,-0.025694532,-9.109293,-0.0016290594,0.012965615,-0.02741991,61.277008,156.9064,0.0047884034,1442826,-450,473,2258,9486
70754308,4015,0,-0.26717573,1.2485259,-9.647839,0.0027473995,-0.000575294,-0.034484148,61.260387,156.9064,0.0047884034,1442826,524,-276,2047,9480
70854331,4040,0,0.24765418,0.16523096,-9.686586,-0.0041965074,-0.008985607,-0.043970957,61.31025,156.9064,0.0047884034,1442826,118,4,2770,9498
70954332,4041,0,1.315762,-1.1550847,-10.045959,-0.0076844944,-0.0061033224,-0.0420459,61.235455,156.9064,0.0047884034,1442826,-76,861,1829,9471
71058354,4024,0,-0.72748417,-0.72839516,-10.02716,0.0012511505,0.0060368273,-0.029062752,61.27424,156.9064,0.0047884034,1442826,-848,-664,3053,9485
71158291,3999,0,-0.8245523,0.46991646,-9.086915,-0.003519977,0.012879104,-0.031007843,61.277008,156.9064,0.0047884034,1442826,-23,-579,2355,9486
71262291,3991,0,-0.30159542,1.2918744,-9.576092,0.0012205106,-0.0028263908,-0.044935673,61.263157,156.9064,0.0047884034,1442826,492,-369,1818,9481
71362292,3999,0,0.26457015,0.3287595,-10.0706,0.0016079834,-0.0059007127,-0.036106594,61.31302,156.9064,0.0047884034,1442826,435,-145,299,9499
71463918,4006,0,0.3568461,-1.0868694,-10.314212,-0.0045685982,-0.0070329057,-0.037763484,61.304707,156.9064,0.0047884034,1442826,-155,-3,1543,9496
71563912,3977,0,-0.05295173,-1.2207063,-10.005105,-0.007856305,-0.00032890728,-0.054316297,61.31302,156.9064,0.0047884034,1442826,-912,-236,1032,9499
71667937,4025,0,-0.39682582,0.9304104,-9.621135,-0.0038956427,0.01379238,-0.032574963,61.31025,156.9064,0.0047884034,1442826,-554,-3,2032,9498
71767894,4003,0,0.23024817,1.6446241,-8.822674,-0.010736842,0.008904213,-0.038700946,61.301937,156.9064,0.0047884034,1442826,138,197,3039,9495
71867911,4014,0,-0.08228211,1.2821703,-9.254966,-0.008869304,0.0016498405,-0.034535397,61.3241,156.9064,0.0047884034,1442826,590,611,3986,9503
71971891,4000,0,0.317369,-1.0337254,-10.385196,0.0030389628,-0.0077449633,-0.037649155,61.301937,156.9064,0.0047884034,1442826,1,-108,2475,9495
72071919,4000,0,0.10637625,-1.0735297,-10.281184,-0.007019776,0.00060586067,-0.043634348,61.3241,156.9064,0.0047884034,1442826,-423,-340,630,9503
72175881,3940,0,-0.23288769,0.9461689,-9.484251,0.0056417175,0.009015286,-0.042297535,61.32687,156.9064,0.0047884034,1442826,-715,-503,2626,9504
72275906,3944,0,-0.45261526,1.8862683,-9.560852,0.0048603173,0.010099108,-0.051133264,61.318558,156.9064,0.0047884034,1442826,235,-1008,2354,9501
72379942,4023,0,0.6353207,0.44163606,-10.448727,0.006952948,-0.010740729,-0.040986985,61.299168,156.9064,0.0047884034,1442826,535,203,1358,9494
72481516,3974,0,0.53973275,-0.8873095,-10.626849,-0.003223149,-0.0061030295,-0.04468879,61.33241,156.9064,0.0047884034,1442826,526,144,755,9506
72585498,3931,0,-0.029318802,-0.3501346,-9.631541,-0.0075002164,0.010996263,-0.031057287,61.36011,156.9064,0.0047884034,1442826,-1385,759,2859,9516
72685492,4000,0,0.378033,1.2585074,-9.063237,6.2631443e-06,-0.0015789245,-0.015184003,61.31025,156.9064,0.0047884034,1442826,25,770,2916,9498
72785498,4006,0,0.4954166,1.4695584,-9.634028,-0.0002902302,-0.0014406528,-0.032615714,61.36288,156.9064,0.0047884034,1442826,297,-120,49,9517
72889492,3988,0,1.0296439,-0.3360341,-9.977995,-0.0024736072,-0.0016013857,-0.045557052,61.34349,156.9064,0.0047884034,1442826,575,661,2789,9510
72989491,3973,0,0.46864882,-1.1833662,-10.284362,-0.0036445432,-0.001753056,-0.041415516,61.34349,156.9064,0.0047884034,1442826,-15,828,2062,9510
73093505,4013,0,-0.67090595,0.27947474,-9.566878,-0.014227547,0.0137499785,-0.0471904,61.33518,156.9064,0.0047884034,1442826,-704,-1223,169,9507
73193492,4000,0,-0.0137988,1.7298366,-8.844935,-0.0077561433,0.014061756,-0.030941177,61.3518,156.9064,0.0047884034,1442826,415,278,2224,9513
73293491,3999,0,0.19481976,1.5809014,-9.1162615,-0.00515354,-0.00026433333,-0.039355174,61.36011,156.9064,0.0047884034,1442826,-395,685,2957,9516
73397546,4039,0,0.36222997,-0.7695578,-10.56063,0.001664846,-0.0069184694,-0.04793619,61.3518,156.9064,0.0047884034,1442826,581,-275,2583,9513
73501519,4007,0,0.06325286,-0.88800824,-10.108404,0.0050476003,0.0054001184,-0.0334349,61.393353,156.9064,0.0047884034,1442826,497,-49,1161,9528
73603113,4015,0,0.263818,0.8697827,-9.117548,0.0036489419,0.003793886,-0.034525044,61.35734,156.9064,0.0047884034,1442826,-354,3,1659,9515
73703092,3962,0,0.07523053,1.761654,-9.548559,0.011322825,0.009609573,-0.044757612,61.36842,156.9064,0.0047884034,1442826,-325,-213,1307,9519
73807139,4047,0,0.6667023,0.3321037,-10.218678,0.0017480575,-0.014623843,-0.032400265,61.412743,156.9064,0.0047884034,1442826,380,877,1818,9535
73907091,3951,0,0.4293903,-1.1936994,-10.490619,0.00014573417,-0.013570377,-0.026429493,61.37673,156.9064,0.0047884034,1442826,-37,598,1962,9522
74011119,4027,0,-0.42928267,-0.56979203,-9.528959,-0.015017818,0.010697894,-0.052850578,61.40166,156.9064,0.0047884034,1442826,-916,-502,1755,9531
74111092,3965,0,-0.4349976,0.60176635,-9.067236,-0.003953161,0.011850233,-0.043566316,61.415512,156.9064,0.0047884034,1442826,-1056,-506,2472,9536
74211103,4010,0,-0.45176792,1.7372305,-8.743856,-0.01330726,0.00739644,-0.050136987,61.38504,156.9064,0.0047884034,1442826,-192,-453,3307,9525
74311124,4026,0,0.2014998,1.5576276,-8.990442,-0.0026283101,0.00811296,-0.040241823,61.42382,156.9064,0.0047884034,1442826,854,-184,2327,9539
74415108,4010,0,0.18068181,-0.82216114,-9.884407,0.0048200847,-0.0022458716,-0.043597497,61.39889,156.9064,0.0047884034,1442826,738,-229,3127,9530
74519092,3999,0,-0.11919608,-0.0065331114,-9.5791445,0.009032186,0.005347311,-0.044059645,61.409973,156.9064,0.0047884034,1442826,-63,-158,1487,9534
74616674,3949,0,-0.52066886,0.4446135,-8.857968,-0.00920426,0.018449213,-0.034018565,61.39889,156.9064,0.0047884034,1442826,-85,140,2007,9530
74716719,4000,0,0.18936613,1.593318,-8.746756,-0.0028730808,0.015314755,-0.024290618,61.412743,156.9064,0.0047884034,1442826,-400,424,2719,9535
74820769,4057,0,0.14596021,1.3830656,-10.077266,0.013688454,-0.008884088,-0.061003987,61.40443,156.9064,0.0047884034,1442826,902,-1237,2674,9532
74920752,4047,0,0.25028986,-0.0794222,-10.1965,0.008136143,-0.007407901,-0.050050132,61.409973,156.9064,0.0047884034,1442826,1433,-356,1619,9534
75024711,3972,0,0.123908564,-0.86138135,-10.391837,0.001017747,-0.0047899396,-0.03808087,61.432133,156.9064,0.0047884034,1442826,-564,34,1640,9542
75128693,3974,0,-0.08976831,0.824991,-8.894233,-0.010989616,0.005559843,-0.03192991,61.415512,156.9064,0.0047884034,1442826,-673,-115,1380,9536
75228691,3993,0,0.012099014,1.4157516,-9.4543,-0.006161305,0.0037937083,-0.04318041,61.434902,156.9064,0.0047884034,1442826,222,-312,164,9543
75332694,4003,0,0.41179317,-0.3846995,-9.950335,-0.001489751,0.0024991184,-0.03654261,61.4072,156.9064,0.0047884034,1442826,963,-33,3824,9533
75432692,3979,0,0.2159233,-0.88981885,-10.3153105,0.0008639754,0.0050985296,-0.04174724,61.451523,156.9064,0.0047884034,1442826,776,-61,1104,9549
75532691,4000,0,-0.31180847,-0.269824,-10.038439,-0.0018881068,0.005316617,-0.035101727,61.443214,156.9064,0.0047884034,1442826,-385,-91,1713,9546
75634311,4792,0,-0.15873963,0.6903508,-8.933008,0.0044266162,0.008022656,-0.04517836,61.432133,156.9064,0.0047884034,1442826,-898,-241,4148,9542
75738361,4043,0,0.4855104,1.1455734,-10.048294,0.006618028,-0.0103275515,-0.054268625,61.432133,156.9064,0.0047884034,1442826,831,189,1788,9542
75838318,3981,0,0.6660067,0.14111742,-10.439397,0.0036304074,-0.018436281,-0.0437338,61.443214,156.9064,0.0047884034,1442826,559,750,3655,9546
75938356,4044,0,0.5381699,-1.0170531,-10.335374,0.0038077573,-0.008209375,-0.035349183,61.45983,156.9064,0.0047884034,1442826,-346,203,1568,9552
76042322,4010,0,-0.10749952,-0.10637317,-10.061331,-0.0069601964,0.0029755267,-0.0410123,61.45706,156.9064,0.0047884034,1442826,-1234,212,1365,9551
76142352,4032,0,-0.049940776,1.471926,-9.294468,0.004151885,0.007056024,-0.022681579,61.448753,156.9064,0.0047884034,1442826,-520,336,1765,9548
76246318,3967,0,0.021148888,0.6902015,-10.217589,0.0020298178,-0.0021851242,-0.04049925,61.451523,156.9064,0.0047884034,1442826,411,-309,683,9549
76350338,4027,0,0.08994888,-1.5261754,-11.029104,0.00012193946,-0.0096099,-0.06654533,61.479225,156.9064,0.0047884034,1442826,-423,-850,-1106,9559
76450312,3999,0,-0.31196368,-1.1189739,-10.27207,0.013390681,0.0027121394,-0.022775821,61.470913,156.9064,0.0047884034,1442826,504,82,3386,9556
76554291,3972,0,0.06385252,1.3860285,-9.386276,-0.00042501336,0.0025911222,-0.043974377,61.451523,156.9064,0.0047884034,1442826,-477,447,2217,9549
76654319,4028,0,0.57422715,1.8816962,-8.869147,0.0075794538,0.003927111,-0.027778067,61.47645,156.9064,0.0047884034,1442826,1720,668,3894,9558
76755892,4001,0,0.031215576,0.34301105,-10.040655,0.007447471,-0.0015536752,-0.053129535,61.462605,156.9064,0.0047884034,1442826,197,-199,1356,9553
76859892,3987,0,0.06723389,-1.478253,-10.165589,-0.009876084,0.0075505204,-0.03652425,61.504154,156.9064,0.0047884034,1442826,-286,406,1965,9568
76959930,4012,0,-0.26840925,-0.9851857,-9.98163,-0.0063904827,0.009593159,-0.027733149,61.504154,156.9064,0.0047884034,1442826,-1658,244,1619,9568
77059892,4000,0,-0.13213654,0.7587412,-9.524446,-0.003603712,0.01334331,-0.02463139,61.512466,156.9064,0.0047884034,1442826,716,53,1646,9571
77163892,3982,0,-0.15956803,1.0081991,-9.2380905,0.0033183685,-0.007797758,-0.037277214,61.504154,156.9064,0.0047884034,1442826,-538,-852,3392,9568
77263892,4000,0,0.29319102,0.025303846,-9.710774,0.00095991086,-0.0006140923,-0.050309792,61.490303,156.9064,0.0047884034,1442826,631,291,3082,9563
77363891,3981,0,0.2892656,-1.1289611,-10.093113,-0.006053186,-0.0084837675,-0.046473294,61.512466,156.9064,0.0047884034,1442826,571,-354,4075,9571
77467946,4006,0,-0.344652,-0.2409849,-9.982617,-8.825364e-05,0.009187741,-0.03623183,61.504154,156.9064,0.0047884034,1442826,230,337,1577,9568
77567926,4035,0,0.11958154,1.0386463,-9.187817,0.0072267614,0.005906257,-0.026398886,61.520775,156.9064,0.0047884034,1442826,412,1144,3910,9574
77667892,3993,0,0.2351192,1.3155199,-9.780907,0.0004199436,0.0014628163,-0.04255303,61.515236,156.9064,0.0047884034,1442826,334,440,2132,9572
77769513,4022,0,0.39835107,-0.11028839,-10.109664,-0.00018556102,-0.013025699,-0.03693347,61.493073,156.9064,0.0047884034,1442826,-279,285,2042,9564
77873526,4029,0,0.20222946,-0.91668665,-10.140484,0.0063450094,0.010205783,-0.03227411,61.551247,156.9064,0.0047884034,1442826,664,292,2650,9585
77973502,4005,0,-0.6525455,-0.41288802,-10.3818245,0.0071048113,0.01019006,-0.043276016,61.531857,156.9064,0.0047884034,1442826,-372,-860,2208,9578
78077495,3981,0,0.23001367,1.1731478,-9.305865,-0.0037691833,0.013543547,-0.02728744,61.554016,156.9064,0.0047884034,1442826,-209,391,720,9586
78177498,4000,0,0.873525,0.7182443,-9.819399,0.001159939,-0.002925547,-0.043681577,61.556786,156.9064,0.0047884034,1442826,341,827,3061,9587
78281518,4026,0,0.3761433,-0.99916685,-10.16024,0.0031092188,0.0076476373,-0.0093304,61.523544,156.9064,0.0047884034,1442826,357,252,2054,9575
78385498,4006,0,-0.3985162,0.12144596,-10.063938,0.00068917463,0.0015152526,-0.052211564,61.551247,156.9064,0.0047884034,1442826,-237,-377,1833,9585
78485492,4000,0,0.24076183,1.080185,-8.942284,0.007158304,0.0017645838,-0.019244958,61.537395,156.9064,0.0047884034,1442826,156,753,3164,9580
78589517,4003,0,-0.10022493,0.8117706,-9.489677,-0.0009904207,0.002415942,-0.03815884,61.548477,156.9064,0.0047884034,1442826,1724,-237,4461,9584
78689542,4012,0,0.25519595,-0.14883876,-10.247813,0.0030771596,0.0025397874,-0.05196431,61.548477,156.9064,0.0047884034,1442826,1371,-924,3046,9584
78790311,3981,0,0.091297306,-0.97532034,-10.637165,0.007631288,-0.008710704,-0.049729027,61.548477,156.9064,0.0047884034,1442826,727,-288,2193,9584
78891119,4025,0,0.11349453,-0.47256362,-10.380598,0.0022730094,-0.008651737,-0.042796943,61.595566,156.9064,0.0047884034,1442826,159,564,2125,9601
78991126,3997,0,0.260744,1.023236,-9.852922,0.00074559543,0.0082894005,-0.021145191,61.542934,156.9064,0.0047884034,1442826,499,654,1146,9582
79095122,4045,0,-0.4569578,1.3508083,-9.575505,0.0049826526,0.0013431724,-0.048689235,61.595566,156.9064,0.0047884034,1442826,119,-1578,1734,9601
79195084,3965,0,0.5008297,0.30245036,-9.877322,0.012078511,-0.0018986808,-0.033403423,61.595566,156.9064,0.0047884034,1442826,1685,-22,1957,9601
79295116,4009,0,0.35786006,-1.1795557,-10.476905,-0.004779837,-0.012616657,-0.045127608,61.58172,156.9064,0.0047884034,1442826,-899,-255,-210,9596
79399103,3984,0,-0.11753071,0.071813494,-9.328874,0.0060018147,0.013851461,-0.03390293,61.578945,156.9064,0.0047884034,1442826,17,116,2872,9595
79499119,4000,0,0.3235428,0.97065955,-9.226185,-0.006730059,-0.0021139316,-0.06573957,61.631577,156.9064,0.0047884034,1442826,-849,53,1090,9614
79599130,4011,0,-0.26733598,1.3553563,-9.338181,-0.0027937898,0.016525699,-0.04388833,61.587257,156.9064,0.0047884034,1442826,583,-575,3074,9598
79703086,3966,0,0.39118046,-0.19280985,-10.157196,-0.010619525,-0.0059247334,-0.031961985,61.595566,156.9064,0.0047884034,1442826,813,244,2628,9601
79803117,4011,0,0.12210723,-0.8999428,-10.599051,0.010634955,0.00030816114,-0.045476153,61.595566,156.9064,0.0047884034,1442826,1345,-36,2359,9601
79904713,3954,0,-0.22745812,-0.70657474,-10.509079,0.003027372,0.006664131,-0.041984197,61.590027,156.9064,0.0047884034,1442826,-1101,-1188,-214,9599
80008712,3997,0,0.180027,0.77083355,-9.100308,-0.010041274,-0.0073603718,-0.040456906,61.612186,156.9064,0.0047884034,1442826,-1135,398,2024,9607
80108712,3966,0,-0.20446825,1.1000804,-9.828691,0.01534886,0.005339734,-0.036316067,61.614956,156.9064,0.0047884034,1442826,741,84,2963,9608
80208752,4040,0,0.7170903,-0.26757795,-10.500703,-0.0019455265,-0.01607226,-0.05934707,61.645428,156.9064,0.0047884034,1442826,-386,-41,1209,9619
80312715,3960,0,0.16627045,-1.1316619,-10.455355,-0.002693733,-0.015577931,-0.03883071,61.6205,156.9064,0.0047884034,1442826,-772,798,2090,9610
80412724,3977,0,-0.36163288,-0.13520594,-9.699597,0.0016833385,0.009690226,-0.028021736,61.63989,156.9064,0.0047884034,1442826,401,-566,2472,9617
80516735,4007,0,0.34036905,0.9429638,-9.210087,0.0013466678,-0.00078794826,-0.022964515,61.603878,156.9064,0.0047884034,1442826,598,1102,3764,9604
80616745,4005,0,0.05492149,0.6600668,-9.795963,-0.0013029315,-0.003616187,-0.03712412,61.63435,156.9064,0.0047884034,1442826,32,-126,1919,9615
80716718,3943,0,0.5216138,-1.0000749,-10.583485,0.0036659013,-0.013515166,-0.038704008,61.614956,156.9064,0.0047884034,1442826,32,742,3064,9608
80820758,4046,0,-0.035258632,-0.64821154,-9.847547,0.00985643,0.000579786,-0.038470183,61.664818,156.9064,0.0047884034,1442826,-640,120,2616,9626
80922292,4000,0,-0.25390944,0.99722815,-9.384449,-0.007668662,0.022799285,-0.03888579,61.65651,156.9064,0.0047884034,1442826,-1539,184,1542,9623
81022298,4006,0,-0.039372083,1.6080111,-9.961626,0.011206521,0.006337892,-0.057222467,61.59834,156.9064,0.0047884034,1442826,37,-603,1506,9602
81122325,4015,0,0.44485304,0.8177942,-10.14887,-0.006484608,-0.013501634,-0.047609076,61.65374,156.9064,0.0047884034,1442826,1006,490,2721,9622
81226300,3982,0,0.28739884,-1.1634785,-10.425074,0.008837819,-0.010813779,-0.037079584,61.63435,156.9064,0.0047884034,1442826,360,228,1767,9615
81326292,3995,0,0.30391172,-0.92340195,-10.403936,0.0008757273,0.004575184,-0.020403735,61.65928,156.9064,0.0047884034,1442826,663,743,1803,9624
81430298,4003,0,0.33196405,0.5396003,-9.412916,0.008409684,0.0004893356,-0.048901066,61.65928,156.9064,0.0047884034,1442826,-115,-247,1296,9624
81530292,3999,0,0.41761214,0.6864898,-9.736441,-0.0045043216,-0.00040702068,-0.028745215,61.664818,156.9064,0.0047884034,1442826,-178,534,1652,9626
81630329,4013,0,0.05774034,0.20070405,-10.132637,-0.0019050767,-0.009360191,-0.05226269,61.66205,156.9064,0.0047884034,1442826,-798,-1800,-40,9625
81734338,4046,0,0.0757871,-1.6687502,-10.53522,-0.013296442,-0.0023878955,-0.035238016,61.6759,156.9064,0.0047884034,1442826,-389,402,1633,9630
81834292,4001,0,-0.4589523,-0.95704013,-9.820917,-0.0016735864,0.014257354,-0.021276327,61.66205,156.9064,0.0047884034,1442826,-489,-276,3546,9625
81935949,4048,0,0.049430244,0.92829704,-9.649255,0.0074545424,-0.0035941843,-0.036029145,61.664818,156.9064,0.0047884034,1442826,-1195,-175,1323,9626
82039901,4010,0,0.18161538,0.7881834,-9.043916,-0.006197849,0.002485775,-0.041662205,61.6759,156.9064,0.0047884034,1442826,-662,96,2412,9630
82143948,4056,0,0.6075565,-1.3397549,-10.090695,-0.010353167,-0.014092639,-0.04726197,61.684208,156.9064,0.0047884034,1442826,-1200,58,230,9633
82243892,4001,0,-0.229401,-1.3372256,-10.155654,-0.0042225625,0.008550394,-0.028386649,61.664818,156.9064,0.0047884034,1442826,-1383,-306,1375,9626
82343891,3981,0,0.09339971,0.1805625,-9.545087,0.019393602,0.009223326,-0.018139018,61.69529,156.9064,0.0047884034,1442826,591,-243,2502,9637
82447901,4003,0,-0.20814502,1.1823868,-9.020146,-0.00962667,0.014675226,-0.028203903,61.67867,156.9064,0.0047884034,1442826,510,259,3196,9631
82547919,4000,0,0.063090816,0.40912703,-10.083208,0.010433691,-0.005847627,-0.051328674,61.7313,156.9064,0.0047884034,1442826,-601,-1064,802,9650
82651892,3980,0,0.3965562,-1.2422943,-10.131194,-0.013096728,-0.003563397,-0.031597316,61.70637,156.9064,0.0047884034,1442826,-1278,687,2077,9641
82751900,4008,0,-0.5446835,-0.46949437,-9.769732,-0.0020657608,0.013962069,-0.032097645,61.70637,156.9064,0.0047884034,1442826,-58,-719,3111,9641
82855898,4007,0,0.1787103,1.0950155,-9.227098,-0.00634323,0.0064493814,-0.018944494,61.71745,156.9064,0.0047884034,1442826,621,627,1132,9645
82953519,4800,0,0.4818368,1.1749828,-9.378458,-0.0014424056,-0.0023989903,-0.046961505,61.684208,156.9064,0.0047884034,1442826,637,718,2183,9633
83057491,3986,0,-0.11412234,-0.51891905,-10.485992,0.00864635,-0.0129640335,-0.04926736,61.7313,156.9064,0.0047884034,1442826,413,-1021,627,9650
83157530,4036,0,0.6825365,-1.1546116,-10.633765,0.008239036,-0.01390761,-0.04307454,61.69529,156.9064,0.0047884034,1442826,486,362,2287,9637
83257520,4000,0,0.17121872,-1.1183217,-10.6799965,-0.0023961505,0.0016431274,-0.041778337,61.70083,156.9064,0.0047884034,1442826,-197,-126,-107,9639
83361519,4000,0,0.022157274,1.1161836,-8.860582,0.0056533287,0.010735529,-0.029239137,61.71191,156.9064,0.0047884034,1442826,320,-260,3713,9643
83461507,4020,0,-0.39354876,1.6004499,-9.48249,0.015396908,0.007420586,-0.026900329,61.720222,156.9064,0.0047884034,1442826,1111,-364,2362,9646
83561519,4008,0,0.5798487,0.74388427,-10.543742,0.019160261,-0.008312433,-0.03587998,61.71468,156.9064,0.0047884034,1442826,451,97,1117,9644
83665523,4004,0,-0.098513514,-1.184703,-10.34339,-0.0069158273,0.00033966522,-0.052164227,61.71191,156.9064,0.0047884034,1442826,-482,-1084,2299,9643
83769519,4000,0,-0.11354416,0.3994543,-10.019293,-0.010204551,0.010164432,-0.03969925,61.72853,156.9064,0.0047884034,1442826,-477,37,1636,9649
83869520,4001,0,-0.2902404,1.7081976,-9.673668,-0.0032789796,0.01615732,-0.045437757,61.72576,156.9064,0.0047884034,1442826,325,-1205,443,9648
83973519,4000,0,0.3220141,0.35264668,-10.531425,-0.00041491006,-0.012713278,-0.04344056,61.720222,156.9064,0.0047884034,1442826,-574,-107,863,9646
84075098,4007,0,-0.2888464,-0.8292723,-10.158418,-0.0065220203,-0.0039823735,-0.043738894,61.74515,156.9064,0.0047884034,1442826,-19,-1266,1368,9655
84175092,4000,0,0.34246263,-0.7265844,-10.085249,0.011563462,0.0016884012,-0.03353122,61.775623,156.9064,0.0047884034,1442826,973,161,2946,9666
84275112,3955,0,0.20084059,0.30123532,-9.630372,0.005950151,0.0059509855,-0.016701702,61.77008,156.9064,0.0047884034,1442826,937,850,2190,9664
84379136,3998,0,-0.55515224,1.4317734,-9.252297,-0.006382378,0.007178332,-0.042772226,61.778393,156.9064,0.0047884034,1442826,127,-1045,1308,9667
