timestamp,integral_dt,error_count,x,y,z,x_integral,y_integral,z_integral,temperature,range_m_s2,scaling,device_id,x_raw,y_raw,z_raw,temperature_raw
26648199,4000,0,0.46261236,0.42881837,-9.911336,0.0032284693,-0.002556644,-0.03972364,56.62327,156.9064,0.0047884034,1442826,251,-63,2076,7806
26752206,4008,0,-0.26834202,0.8708915,-9.830876,0.00011914386,0.007926764,-0.038716573,56.606647,156.9064,0.0047884034,1442826,-199,-36,1971,7800
26852221,4023,0,0.15598738,0.93513894,-9.8328905,0.0019112212,-0.0012667899,-0.038210228,56.63435,156.9064,0.0047884034,1442826,316,-161,1915,7810
26952212,4014,0,-0.008660411,-0.14410214,-9.98397,0.004004883,0.010561448,-0.037275672,56.65374,156.9064,0.0047884034,1442826,-516,-236,2138,7817
27056222,4024,0,-0.6078316,-1.9040804,-10.201989,0.0034316862,0.007082171,-0.040347356,56.66205,156.9064,0.0047884034,1442826,-705,-85,2105,7820
27156244,4046,0,-0.6197442,-1.8663229,-10.005034,-0.0044393823,-0.01885045,-0.04196228,56.648197,156.9064,0.0047884034,1442826,404,112,2514,7815
27260206,4006,0,-0.54256135,-2.3623793,-10.560708,-0.00025736168,-0.0031529272,-0.041739874,56.65374,156.9064,0.0047884034,1442826,-112,-163,1838,7817
27364198,4000,0,0.14226215,-0.064828455,-9.820447,0.007151063,0.016959913,-0.030302195,56.65097,156.9064,0.0047884034,1442826,-1003,-270,1868,7816
27464213,4015,0,0.7166004,1.4595453,-9.337716,0.0055747726,0.011760539,-0.035114616,56.65374,156.9064,0.0047884034,1442826,-264,-107,1948,7817
27568198,4000,0,-0.40705988,-0.91799676,-10.264953,-0.003877255,-0.00030269055,-0.03938514,56.65651,156.9064,0.0047884034,1442826,-651,-25,1981,7818
27668198,4000,0,1.2247976,0.6110932,-9.490595,0.0067027775,0.001972584,-0.035390023,56.66759,156.9064,0.0047884034,1442826,241,207,2587,7822
27768198,3973,0,-0.4687054,-0.6163344,-10.307781,0.0093561355,0.0016094673,-0.036406636,56.66205,156.9064,0.0047884034,1442826,-801,-511,1582,7820
27872198,3990,0,-0.18492061,-0.19321236,-9.966723,0.010030195,0.01396127,-0.030642036,56.69806,156.9064,0.0047884034,1442826,-639,-379,2389,7833
27973798,4000,0,0.51668227,0.48420048,-9.817823,0.010802504,0.0031330287,-0.03836821,56.69806,156.9064,0.0047884034,1442826,158,-427,2243,7833
28073799,3980,0,1.0465373,1.2244012,-9.436806,-0.0008167642,0.0025937723,-0.040105708,56.6759,156.9064,0.0047884034,1442826,18,457,2232,7825
28173799,3949,0,1.032444,-0.035461057,-9.984312,0.009958104,0.009983711,-0.02482761,56.70637,156.9064,0.0047884034,1442826,-853,235,1820,7836
28277822,4024,0,0.67792046,0.6864387,-9.543603,-0.01672772,0.013349915,-0.045532964,56.71191,156.9064,0.0047884034,1442826,601,1155,2433,7838
28381799,4001,0,-0.42032218,-0.20439373,-9.796967,3.6294223e-05,-0.0009875076,-0.054598097,56.70637,156.9064,0.0047884034,1442826,-325,-380,3008,7836
28485799,4000,0,0.5325451,0.1877729,-9.419243,-0.010500172,0.0031910313,-0.04682831,56.720222,156.9064,0.0047884034,1442826,72,714,2402,7841
28585824,4019,0,0.42031547,-0.128781,-8.913145,0.013419529,0.0041069984,-0.03257047,56.722992,156.9064,0.0047884034,1442826,-500,-152,3162,7842
28685802,4001,0,-1.0324612,-0.035156034,-9.53163,-0.020662444,0.0019067175,-0.04449194,56.72853,156.9064,0.0047884034,1442826,-360,-67,2953,7844
28789849,4035,0,-0.20896326,0.07885272,-9.052575,0.0010427948,0.008279069,-0.049472854,56.742382,156.9064,0.0047884034,1442826,-232,-584,3160,7849
28889804,4005,0,0.052351285,0.27905455,-9.90019,0.026110172,-0.0059482073,-0.04490569,56.71745,156.9064,0.0047884034,1442826,274,-1399,1665,7840
28989799,4000,0,-0.040452294,0.4562037,-10.2309065,-0.013399104,0.0047458964,-0.044383325,56.74792,156.9064,0.0047884034,1442826,411,209,1736,7851
29093799,4000,0,-0.32049283,0.259731,-10.39143,-0.010576439,0.0024712847,-0.057076894,56.73407,156.9064,0.0047884034,1442826,-122,-641,1617,7846
29193799,4000,0,1.076045,-0.0829434,-9.536794,0.00859956,-0.0046700914,-0.033873897,56.761772,156.9064,0.0047884034,1442826,-94,632,1957,7856
29297798,3999,0,-0.14361323,-0.3456753,-9.367823,-0.016912902,-0.005008178,-0.042936973,56.770084,156.9064,0.0047884034,1442826,-1147,-578,3950,7859
29397798,3983,0,0.5074104,0.13907765,-9.962724,0.018523455,-0.0001228083,-0.045414224,56.795013,156.9064,0.0047884034,1442826,-176,-487,2044,7868
29498598,3996,0,0.6323338,0.25522107,-9.6379,-0.011538973,0.001798723,-0.033916857,56.739613,156.9064,0.0047884034,1442826,185,1010,2696,7848
29602598,4000,0,0.41358745,0.5769106,-10.396231,0.006415734,0.0021900863,-0.04241071,56.778393,156.9064,0.0047884034,1442826,280,-468,1907,7862
29702598,4000,0,0.67874414,0.2992312,-10.062366,0.0015639511,0.0061112954,-0.032295596,56.7867,156.9064,0.0047884034,1442826,-275,203,1715,7865
29802604,3974,0,0.36553422,0.0031009957,-9.928709,-0.0023761773,0.007423327,-0.029819172,56.795013,156.9064,0.0047884034,1442826,29,-89,1956,7868
29906635,4037,0,0.30825225,0.7856611,-9.845964,0.0009827113,-0.004841884,-0.0346722,56.828255,156.9064,0.0047884034,1442826,-179,20,2494,7880
30006599,4000,0,-0.28673598,0.6285535,-10.657984,-0.0033713914,-0.0059720166,-0.06357228,56.808865,156.9064,0.0047884034,1442826,-286,-629,1587,7873
30106605,4007,0,-0.120209396,-0.47608292,-10.423143,-0.014092113,-0.0017539727,-0.04781586,56.800552,156.9064,0.0047884034,1442826,777,173,1521,7870
30210598,3999,0,0.11169207,-0.651947,-9.014057,-0.0022559874,0.0010367299,-0.02188997,56.817173,156.9064,0.0047884034,1442826,284,300,2351,7876
30310634,4035,0,0.5574005,0.31330743,-9.099893,0.0025739975,-0.0073108315,-0.024285944,56.825485,156.9064,0.0047884034,1442826,-1160,787,2755,7879
30410620,4022,0,-0.28777888,1.3193908,-10.246999,0.00885808,-0.0015276917,-0.04300624,56.808865,156.9064,0.0047884034,1442826,305,-461,2376,7873
30514598,4000,0,0.6530727,-0.061906297,-11.213476,0.008964977,-0.012899956,-0.048173763,56.869804,156.9064,0.0047884034,1442826,-65,147,1093,7895
30614598,3999,0,0.37657645,-0.76379454,-10.405154,-0.0062696263,-0.0013287547,-0.024573978,56.853184,156.9064,0.0047884034,1442826,-603,1110,3150,7889
30714600,4002,0,0.10645138,-0.34950054,-10.642991,0.005380707,-0.0048180195,-0.06043437,56.872574,156.9064,0.0047884034,1442826,-230,-414,1630,7896
30818642,4037,0,-0.46830124,1.0121596,-9.929457,0.0024682316,0.004509043,-0.037150607,56.864265,156.9064,0.0047884034,1442826,17,-354,2684,7893
30918598,4000,0,0.8818571,1.081931,-10.066916,0.005723801,0.0007105648,-0.040926024,56.872574,156.9064,0.0047884034,1442826,506,-66,3445,7896
31022598,4000,0,0.20720308,-0.9690473,-11.445412,0.0043864287,-0.0021867924,-0.04296302,56.864265,156.9064,0.0047884034,1442826,78,309,2614,7893
31122598,4000,0,-0.32699943,-1.655025,-10.883599,-0.013169753,0.007228235,-0.047201313,56.891968,156.9064,0.0047884034,1442826,-348,-270,3363,7903
31222598,3983,0,-0.19583797,0.038721792,-10.922355,0.007760455,0.0038041284,-0.04415245,56.889194,156.9064,0.0047884034,1442826,-214,215,1594,7902
31326636,4023,0,0.9764029,1.8447262,-10.22646,0.012025981,-0.00376525,-0.043534484,56.883656,156.9064,0.0047884034,1442826,806,443,2445,7900
31428224,4019,0,0.6348806,0.4899059,-10.681071,0.010756436,-0.00514016,-0.047766335,56.919666,156.9064,0.0047884034,1442826,1458,-277,3235,7913
31528226,4001,0,0.030973064,-1.1559948,-10.289152,-0.0067315106,-0.0009452116,-0.04861617,56.950138,156.9064,0.0047884034,1442826,-205,-247,1514,7924
31628223,4025,0,-0.042998277,-0.26219818,-9.150298,-0.0071677803,0.006703969,-0.047165405,56.933517,156.9064,0.0047884034,1442826,-916,-154,2931,7918
31732227,4029,0,0.32938257,0.87884957,-8.73996,-0.0010974789,0.004078582,-0.035551704,56.92798,156.9064,0.0047884034,1442826,270,238,2204,7916
31832200,4002,0,-0.093520366,0.54056364,-9.580632,-0.0038373414,-0.00018427579,-0.041032854,56.933517,156.9064,0.0047884034,1442826,273,-837,1933,7918
31936198,3976,0,0.3598506,-1.050176,-10.174086,-0.0049583605,-0.003481687,-0.029150717,56.930748,156.9064,0.0047884034,1442826,78,852,2704,7917
32040198,4000,0,-0.078734316,0.7944527,-9.843053,0.0151040265,0.0059695896,-0.039790995,56.930748,156.9064,0.0047884034,1442826,718,-110,847,7917
32140198,4000,0,0.31159198,1.2003778,-9.939636,-0.0011416416,-0.0027147667,-0.039970975,56.96399,156.9064,0.0047884034,1442826,158,546,1694,7929
32244198,3994,0,0.1547136,-0.03807045,-10.105612,0.005872097,-0.003286982,-0.036676235,56.98061,156.9064,0.0047884034,1442826,308,-260,2552,7935
32344198,4000,0,0.39954117,-0.93754536,-10.538518,0.0035155723,-0.008380473,-0.03286056,56.958447,156.9064,0.0047884034,1442826,80,626,1694,7927
32444198,4000,0,-0.09500623,-0.26388368,-9.80546,-0.0028108421,0.008937951,-0.034668505,56.930748,156.9064,0.0047884034,1442826,7,-499,773,7917
32548198,3968,0,0.24803422,1.1610737,-9.256441,-0.006348066,-0.00021128997,-0.04726554,56.96953,156.9064,0.0047884034,1442826,-472,795,2506,7931
32652210,4012,0,0.658519,0.030801125,-10.472886,0.0155488895,-0.0051336326,-0.03234889,56.936287,156.9064,0.0047884034,1442826,792,361,3185,7919
32756199,3958,0,0.38814303,-0.29717484,-9.813664,-0.0005796731,0.0074537545,-0.030077692,57.0,156.9064,0.0047884034,1442826,-1095,-16,3215,7942
32853812,4007,0,0.16543527,-0.06573684,-10.637162,0.008392831,-0.0008596452,-0.047996227,57.0277,156.9064,0.0047884034,1442826,-549,-75,1129,7952
32957815,4017,0,0.28420392,1.4133645,-9.790689,0.0066481177,0.0060731308,-0.04071658,57.02216,156.9064,0.0047884034,1442826,841,-330,2455,7950
33057798,4000,0,0.21471022,0.3724209,-10.377606,-0.012910186,-0.007483918,-0.051526587,57.011078,156.9064,0.0047884034,1442826,802,173,1994,7946
33157804,3991,0,-0.43065283,-0.78024656,-10.685814,-4.9108174e-05,0.013377696,-0.031390853,57.0,156.9064,0.0047884034,1442826,18,-1739,1115,7942
33261798,3970,0,-0.10962252,0.69514257,-10.3742485,0.014428056,0.020873763,-0.04320294,57.04155,156.9064,0.0047884034,1442826,-1040,-934,1641,7957
33361805,4007,0,0.27885455,1.1892375,-9.954355,0.022631744,0.011790202,-0.051805988,57.0554,156.9064,0.0047884034,1442826,194,-707,2263,7962
33465798,4000,0,0.34715304,-0.29854986,-10.270693,0.0011511202,-0.01963522,-0.03882581,57.04155,156.9064,0.0047884034,1442826,-126,584,588,7957
33565798,4000,0,0.27647877,-0.48123673,-9.445597,0.007702461,-0.0043483404,-0.039583936,57.066483,156.9064,0.0047884034,1442826,-186,38,1783,7966
33665798,3961,0,-0.0021621548,0.6244522,-8.799924,0.008149976,-0.0011267088,-0.03571654,57.08033,156.9064,0.0047884034,1442826,132,-522,316,7971
33769798,4000,0,-0.010268007,0.44178054,-8.333865,0.0053206077,-0.007020976,-0.0367102,57.07756,156.9064,0.0047884034,1442826,-508,-466,2921,7970
33869798,4000,0,0.13336916,-0.21095309,-9.215534,0.014681299,0.00015297811,-0.04384261,57.05817,156.9064,0.0047884034,1442826,898,-1033,1878,7963
33969800,4002,0,0.25337583,-0.46068186,-9.0157585,0.009144523,0.0018002964,-0.034273755,57.1108,156.9064,0.0047884034,1442826,-178,-259,831,7982
34073798,4000,0,0.20215395,1.1058505,-7.923338,-0.009883479,0.0046416116,-0.034876928,57.116344,156.9064,0.0047884034,1442826,335,623,2217,7984
35311398,3977,0,0.1038815,-1.087414,-10.823485,-0.0011790378,-0.0028569517,-0.045137662,57.199444,156.9064,0.0047884034,1442826,-296,-146,107,8014
35411407,4009,0,-0.24306437,-0.7586632,-10.100095,-0.0039220047,0.0041358313,-0.034761544,57.163433,156.9064,0.0047884034,1442826,-570,-111,1875,8001
35515448,4048,0,0.15386322,2.0833373,-8.873501,0.0030311183,0.01562342,-0.03797843,57.210526,156.9064,0.0047884034,1442826,-10,-993,3032,8018
35615398,3993,0,0.04781639,1.6917306,-9.552649,0.0064146216,0.0042360877,-0.041549005,57.227146,156.9064,0.0047884034,1442826,370,273,3778,8024
35716998,3999,0,0.26154956,-0.083430305,-10.6176,0.0012954365,-0.007496218,-0.05544632,57.221607,156.9064,0.0047884034,1442826,478,-127,2584,8022
35820998,4000,0,-0.23522116,-1.1060972,-10.778213,-0.01230337,0.005073502,-0.042092692,57.213295,156.9064,0.0047884034,1442826,-425,-361,378,8019
35924998,4000,0,-0.35969993,0.9136899,-10.303453,0.015379328,0.002608289,-0.04696744,57.232685,156.9064,0.0047884034,1442826,-1030,-388,2698,8026
36024998,4000,0,0.4670604,1.7831875,-10.357064,0.011803614,-0.0028772,-0.043978266,57.229916,156.9064,0.0047884034,1442826,365,260,2035,8025
36128998,3990,0,0.57852376,-0.13710852,-10.682379,0.00072120863,0.00022966997,-0.035323173,57.249306,156.9064,0.0047884034,1442826,-133,-108,2598,8032
36228998,4000,0,-0.005966654,-0.81590873,-10.626972,-0.0028373683,0.0005261897,-0.051504485,57.240997,156.9064,0.0047884034,1442826,-635,-504,2816,8029
36329019,4021,0,-0.13911709,-0.11546471,-10.910511,0.007514543,0.0055900314,-0.0511809,57.268696,156.9064,0.0047884034,1442826,286,-921,1107,8039
36433016,4014,0,-0.16038391,1.3121594,-9.908493,-0.0029780879,0.008826139,-0.04853545,57.29086,156.9064,0.0047884034,1442826,25,346,2608,8047
36536999,4001,0,0.274133,0.7279431,-10.658949,0.01640952,-0.005082573,-0.05879822,57.279778,156.9064,0.0047884034,1442826,1235,-129,2574,8043
36636998,3989,0,0.00015652097,-0.4601971,-10.9503565,0.008983711,-0.007824503,-0.039087445,57.31302,156.9064,0.0047884034,1442826,352,-261,2712,8055
36740998,3968,0,-0.054936726,0.13774048,-9.8599825,0.0037053023,0.0020466414,-0.04105313,57.29086,156.9064,0.0047884034,1442826,230,-209,2802,8047
36840998,4000,0,-0.30863503,1.2047373,-8.968855,-0.003644887,0.004176454,-0.022815779,57.34903,156.9064,0.0047884034,1442826,-67,-231,2311,8068
36940998,3969,0,0.55702454,1.520776,-9.170586,0.009384703,0.002416952,-0.03762888,57.30748,156.9064,0.0047884034,1442826,790,92,1216,8053
37045032,4026,0,0.38914713,-0.51375,-10.475872,0.008821356,-0.0038528878,-0.05173607,57.321327,156.9064,0.0047884034,1442826,1211,-689,864,8058
37146598,4000,0,-0.08568114,-1.2614905,-9.631972,-0.011678784,0.0051323473,-0.035861757,57.34903,156.9064,0.0047884034,1442826,-1561,737,3398,8068
37246598,4000,0,-0.010807509,0.092394665,-8.79138,0.004982686,-0.0036947546,-0.019589694,57.34903,156.9064,0.0047884034,1442826,-471,-45,3088,8068
37350598,4000,0,-0.3245383,1.5152018,-9.203941,0.009401119,0.008011654,-0.04747708,57.36011,156.9064,0.0047884034,1442826,-207,-198,2008,8072
37454601,3962,0,0.08429502,-0.61930627,-9.982085,-0.0038433548,-0.012042732,-0.023844339,57.35734,156.9064,0.0047884034,1442826,301,-135,2616,8071
37562598,3985,0,-0.021638153,0.60988814,-8.9966755,0.012173134,0.00033272337,-0.023306074,57.373962,156.9064,0.0047884034,1442826,-229,-935,1907,8077
37662609,3986,0,0.15425265,1.8337641,-8.621337,-0.011782831,0.009603106,-0.031880967,57.38781,156.9064,0.0047884034,1442826,368,691,4028,8082
37766652,4053,0,-0.035536014,0.47056356,-10.158017,-0.012167863,0.0032097902,-0.04893801,57.40443,156.9064,0.0047884034,1442826,954,-41,660,8088
37866598,4000,0,0.26344773,-1.1315125,-10.536406,0.009746404,-0.0068885735,-0.032176495,57.40166,156.9064,0.0047884034,1442826,722,-466,560,8087
37966598,4000,0,0.10808972,-1.0962403,-9.568075,-0.0093528,-0.0041807303,-0.036172315,57.409973,156.9064,0.0047884034,1442826,-956,340,3443,8090
38070598,4000,0,-0.44351152,1.1369549,-8.983496,-0.012053246,0.019717297,-0.045078617,57.38504,156.9064,0.0047884034,1442826,1180,-242,1280,8081
38170617,4019,0,0.19568239,1.7863216,-9.824681,0.0016269985,0.002647024,-0.050428096,57.412743,156.9064,0.0047884034,1442826,1047,-202,580,8091
38274598,3997,0,0.42050838,0.06909038,-10.495892,0.008237671,-0.005857654,-0.03713078,57.42105,156.9064,0.0047884034,1442826,852,-633,408,8094
38374598,3999,0,0.11814523,-1.0203857,-9.964265,-0.0060062986,-0.005130646,-0.028073866,57.412743,156.9064,0.0047884034,1442826,-236,464,3194,8091
38476198,4000,0,-0.13299812,-0.48141408,-9.8796015,-0.0058267647,-0.0004473416,-0.035493657,57.44044,156.9064,0.0047884034,1442826,-727,10,996,8101
38576198,4000,0,0.304234,1.1063114,-9.345098,0.011877013,-0.004404779,-0.030994447,57.44044,156.9064,0.0047884034,1442826,585,-77,950,8101
38680210,4012,0,0.623201,1.4156448,-9.584356,-0.0018104638,-0.011829156,-0.035594564,57.43767,156.9064,0.0047884034,1442826,-120,757,2650,8100
38780205,3981,0,1.0022814,0.21183601,-10.784367,0.002632532,-0.014955354,-0.042719074,57.45706,156.9064,0.0047884034,1442826,254,-161,361,8107
38880198,3999,0,0.42299503,-0.91731775,-10.748423,0.00069134077,-0.0052384413,-0.035020407,57.43767,156.9064,0.0047884034,1442826,140,669,1599,8100
38984239,4041,0,0.11150828,-0.23196873,-9.455984,-0.007543456,0.00208832,-0.027014142,57.473682,156.9064,0.0047884034,1442826,-644,236,1890,8113
39084214,4016,0,0.08616435,1.4411654,-9.401715,-0.0037333784,0.008057198,-0.027304865,57.462605,156.9064,0.0047884034,1442826,-820,116,1045,8109
39188221,4023,0,-0.11239532,1.4290142,-9.678673,0.0032713537,0.0040430604,-0.050904363,57.465374,156.9064,0.0047884034,1442826,773,-847,2722,8110
39288216,4018,0,0.16645695,-0.74034256,-10.025659,-0.0023284792,-0.008330972,-0.047656357,57.487534,156.9064,0.0047884034,1442826,505,-933,1918,8118
39388221,4023,0,-0.08714191,-0.97252095,-10.117958,-0.0053631105,0.003190971,-0.043798383,57.484764,156.9064,0.0047884034,1442826,459,-1142,613,8117
39492198,4000,0,-0.054343656,0.6243809,-9.407594,0.0040063662,0.0059080794,-0.035002857,57.487534,156.9064,0.0047884034,1442826,68,280,2472,8118
39592212,3993,0,0.15349591,1.4103198,-8.962471,0.00096581003,0.0056013693,-0.039682865,57.493073,156.9064,0.0047884034,1442826,497,-117,1470,8120
39692233,4026,0,0.48404312,1.151328,-9.899008,0.0061613275,-0.007922316,-0.035207264,57.495846,156.9064,0.0047884034,1442826,608,132,1426,8121
39796225,4016,0,0.5767364,-1.0178344,-10.076973,-0.013013939,-0.0047344035,-0.03201146,57.509693,156.9064,0.0047884034,1442826,-231,682,2321,8126
39897798,3956,0,0.013671715,-0.6305315,-9.610402,-0.011845885,0.008125672,-0.025158944,57.537395,156.9064,0.0047884034,1442826,-260,482,2532,8136
39997798,3996,0,0.046219364,0.25263244,-9.346974,-0.005317044,0.008355626,-0.018042205,57.531857,156.9064,0.0047884034,1442826,-930,412,2295,8134
40101816,4018,0,-0.291064,1.4205531,-9.159131,-0.0038422341,0.009291367,-0.041642085,57.578945,156.9064,0.0047884034,1442826,363,-182,3020,8151
40201798,4000,0,0.7276422,0.37639472,-9.445871,-0.004910878,-0.0045558996,-0.01926076,57.515236,156.9064,0.0047884034,1442826,508,361,3043,8128
40301798,3992,0,0.38734767,-0.97760546,-10.472762,-0.0071854927,0.0039181323,-0.03847428,57.559555,156.9064,0.0047884034,1442826,718,-332,382,8144
40401805,3964,0,-0.013577473,-1.1225744,-10.396882,-0.00526649,-0.0056875707,-0.03522609,57.542934,156.9064,0.0047884034,1442826,-988,-39,1984,8138
40505806,4008,0,-0.24841085,1.001763,-10.25181,0.011680176,0.01038732,-0.035593797,57.556786,156.9064,0.0047884034,1442826,229,-812,388,8143
40605799,4001,0,0.28626603,1.4031949,-10.056999,0.0054148473,0.0068082684,-0.038956366,57.567867,156.9064,0.0047884034,1442826,861,-267,510,8147
40709798,4000,0,0.48224765,-0.34561893,-10.57718,-0.009365199,-0.0034373342,-0.046912193,57.590027,156.9064,0.0047884034,1442826,273,86,1919,8155
40809798,4000,0,0.24982136,-0.7447295,-10.240667,-0.007630518,-0.0035554387,-0.028375186,57.58172,156.9064,0.0047884034,1442826,-938,415,2645,8152
40913799,4001,0,-0.12995686,0.6156459,-9.093406,0.00015708672,0.01274603,-0.040157713,57.576176,156.9064,0.0047884034,1442826,-382,-187,1626,8150
41013799,3982,0,0.05565656,1.4027874,-8.864062,-0.0014230204,0.006630769,-0.040714033,57.565098,156.9064,0.0047884034,1442826,-963,-78,4065,8146
41113798,3966,0,0.12073334,0.7912378,-9.396499,-0.006931909,-0.0035475874,-0.042621665,57.609417,156.9064,0.0047884034,1442826,-187,-204,2938,8162
41218621,4023,0,0.35539204,-0.82541066,-10.295839,-0.00016435649,-0.0015691088,-0.045359362,57.603878,156.9064,0.0047884034,1442826,581,95,1665,8160
41319429,4031,0,-0.31873307,0.1215512,-10.029909,0.0048651085,0.010797554,-0.04536166,57.612186,156.9064,0.0047884034,1442826,72,-657,1070,8163
41419413,4015,0,0.1405073,1.0089809,-9.117371,-0.004925945,0.011220254,-0.053090967,57.63435,156.9064,0.0047884034,1442826,-822,-23,1157,8171
41519398,4000,0,0.24947745,1.0925126,-9.549688,0.008955413,-0.007551364,-0.03695799,57.606647,156.9064,0.0047884034,1442826,-256,-425,2624,8161
41623398,4000,0,0.37116152,-0.66344297,-9.992664,0.002838696,-0.0046249647,-0.0367594,57.62327,156.9064,0.0047884034,1442826,-544,803,3468,8167
41723399,3995,0,0.13369712,-1.118111,-9.939365,-0.0042318343,-0.0064000385,-0.024979927,57.63989,156.9064,0.0047884034,1442826,-138,825,3153,8173
41827405,4007,0,-0.22657901,0.792369,-9.541617,-0.0012419189,0.013934549,-0.040665843,57.664818,156.9064,0.0047884034,1442826,43,-522,2065,8182
41927398,3985,0,-0.48606452,1.6565642,-9.462587,-0.0074282982,0.0049147625,-0.060525157,57.65097,156.9064,0.0047884034,1442826,-138,-1146,2471,8177
42027418,4013,0,0.10493905,0.56839746,-9.639936,-0.002475432,-0.006630888,-0.05047418,57.65928,156.9064,0.0047884034,1442826,483,55,3151,8180
42131405,3992,0,0.3940231,-1.2112566,-10.174866,0.0026180116,-0.004862272,-0.033066995,57.66205,156.9064,0.0047884034,1442826,170,68,2096,8181
42231398,4000,0,-0.038276672,-0.36183456,-9.779508,0.0007309075,0.006370494,-0.03383622,57.66205,156.9064,0.0047884034,1442826,724,-86,1684,8181
42331400,3999,0,0.29076925,0.8798993,-8.579848,0.0057574892,0.006039436,-0.014878786,57.68144,156.9064,0.0047884034,1442826,615,964,3768,8188
42435398,3996,0,0.20843671,1.166033,-9.273355,-0.007775931,0.0036244185,-0.043372527,57.68421,156.9064,0.0047884034,1442826,839,25,4088,8189
42535405,3989,0,0.3855534,-0.06186673,-10.054243,-0.0055938363,-0.00013357121,-0.05321643,57.70083,156.9064,0.0047884034,1442826,1225,-532,2313,8195
42636998,4000,0,0.078218415,-0.7226154,-10.509477,0.009693624,0.00032505504,-0.03842038,57.70914,156.9064,0.0047884034,1442826,678,-746,378,8198
42736998,3957,0,0.0833948,-0.20104976,-10.105463,0.009256877,0.002379158,-0.026787648,57.69806,156.9064,0.0047884034,1442826,271,-213,1528,8194
42841039,4041,0,0.24419987,1.3779154,-9.25144,-0.00065505435,0.013763948,-0.021432685,57.74515,156.9064,0.0047884034,1442826,189,205,241,8211
42940999,4001,0,0.46328512,0.7276845,-9.644376,-0.002784135,0.0018887273,-0.028462349,57.74515,156.9064,0.0047884034,1442826,-29,-90,702,8211
43044998,4000,0,0.06510092,-0.8989965,-10.225609,-0.005144984,-0.0047154785,-0.056907725,57.72576,156.9064,0.0047884034,1442826,378,-557,2503,8204
43145005,4007,0,-0.14264919,-0.5987381,-10.37127,0.009673942,0.0030040212,-0.05003598,57.739613,156.9064,0.0047884034,1442826,228,-835,806,8209
43245005,4007,0,-0.39011878,0.5343852,-9.711248,0.005233204,0.011075797,-0.058605548,57.74515,156.9064,0.0047884034,1442826,-238,-431,556,8211
43348998,3971,0,0.5946374,1.4806014,-9.150866,-0.006721247,-0.005790601,-0.027334664,57.759003,156.9064,0.0047884034,1442826,-538,1178,2903,8216
43449005,4007,0,0.8339428,0.6156788,-9.7859955,-0.0023494235,-0.012872818,-0.026740847,57.778393,156.9064,0.0047884034,1442826,-415,398,2896,8223
43553018,4020,0,-0.03486381,-1.3933554,-10.133901,-0.002871834,0.00024115402,-0.05029403,57.756233,156.9064,0.0047884034,1442826,-236,-936,3692,8215
43652998,4000,0,-0.5313764,-0.9023999,-9.830036,-0.0066844914,0.0025845207,-0.05178922,57.781162,156.9064,0.0047884034,1442826,-1022,-742,2823,8224
43757013,4015,0,0.27822262,1.3478091,-9.455702,0.0067139002,0.002644512,-0.030373124,57.77008,156.9064,0.0047884034,1442826,347,314,2044,8220
43860999,3994,0,0.492824,0.4900715,-9.675389,-0.008474338,-0.0070998357,-0.03648617,57.792244,156.9064,0.0047884034,1442826,-95,265,1811,8228
43958598,3998,0,0.9084341,0.15320456,-10.508593,0.010379283,-0.0095012495,-0.03276857,57.828255,156.9064,0.0047884034,1442826,775,56,1144,8241
44062614,3967,0,0.097749576,-0.8416899,-9.881978,-0.016566131,0.010476887,-0.04761178,57.797783,156.9064,0.0047884034,1442826,14,774,3683,8230
44162599,4001,0,-0.03258581,-0.33466458,-9.431552,-0.016290763,0.015631136,-0.047784917,57.814404,156.9064,0.0047884034,1442826,-724,714,2508,8236
44266598,3990,0,0.033444732,1.5552303,-9.597419,0.010314115,-0.00022927066,-0.03352482,57.822716,156.9064,0.0047884034,1442826,409,-160,3177,8239
44366598,3989,0,0.29711857,1.0582098,-10.060025,0.018134028,-0.005102445,-0.04068603,57.844875,156.9064,0.0047884034,1442826,685,-514,1207,8247
44466598,3994,0,0.4939363,-0.112626575,-10.402119,0.012023693,-0.01040519,-0.04213649,57.833794,156.9064,0.0047884034,1442826,536,-146,2929,8243
44570598,4000,0,0.25274003,-0.89802855,-9.827747,-0.010714181,0.0019509727,-0.04185582,57.836563,156.9064,0.0047884034,1442826,-1385,353,812,8244
44670630,4032,0,0.105409645,0.42304885,-9.320318,-0.0041342853,0.009185491,-0.017898247,57.847645,156.9064,0.0047884034,1442826,-72,386,846,8248
44770598,3993,0,0.20178592,1.1232867,-8.841663,-0.008695834,0.001448791,-0.023684738,57.833794,156.9064,0.0047884034,1442826,-694,681,3366,8243
44874628,4030,0,0.18682507,0.29411158,-9.926345,0.0014860492,-0.01021077,-0.06403109,57.855953,156.9064,0.0047884034,1442826,-152,-828,2529,8251
44974599,4001,0,0.2581701,-0.98056006,-10.287306,0.009219457,-0.009101055,-0.05027252,57.869804,156.9064,0.0047884034,1442826,755,-171,3685,8256
45078618,4004,0,0.024193395,-0.53760403,-9.997249,-0.0044518635,0.0012652974,-0.02557924,57.878117,156.9064,0.0047884034,1442826,-426,690,2821,8259
45178603,4005,0,0.35837996,0.65263915,-9.541648,-0.003117295,0.008830978,-0.03136094,57.889194,156.9064,0.0047884034,1442826,-429,487,1057,8263
45280198,3963,0,0.116743796,1.7608547,-9.334681,-0.0035999015,0.0067680413,-0.028917558,57.897507,156.9064,0.0047884034,1442826,-1,97,2981,8266
45380198,3993,0,0.42173943,0.8316557,-9.848277,0.004701311,-0.0016329631,-0.034936048,57.886425,156.9064,0.0047884034,1442826,-462,-266,2597,8262
45484205,4007,0,0.36843678,-0.9542806,-10.462317,-0.0006708595,-0.009721893,-0.0453432,57.90859,156.9064,0.0047884034,1442826,350,160,2208,8270
45584198,3978,0,0.30096972,-0.21960923,-10.113757,0.0067702653,0.0028564758,-0.024980174,57.933517,156.9064,0.0047884034,1442826,-401,59,920,8279
45684198,3989,0,0.014887204,0.813039,-9.52901,-0.0020826715,-0.001072485,-0.040146016,57.92798,156.9064,0.0047884034,1442826,-577,305,1288,8277
45788229,4031,0,-0.013012266,1.1332947,-9.625539,0.0035289759,-0.0052799815,-0.04477058,57.925205,156.9064,0.0047884034,1442826,-120,-217,2773,8276
45888220,4022,0,0.51502895,0.2532449,-10.634375,0.018774223,-0.008916687,-0.040235206,57.925205,156.9064,0.0047884034,1442826,1084,287,2303,8276
45992226,4027,0,-0.3242546,-1.3131642,-9.867763,-0.0092917085,0.0065123085,-0.028760156,57.9446,156.9064,0.0047884034,1442826,-742,396,3199,8283
46092198,4000,0,0.08952363,-0.1858904,-9.027462,-0.0055771065,0.014664073,-0.030942088,57.925205,156.9064,0.0047884034,1442826,-470,-81,3222,8276
46192211,4013,0,-0.21378271,1.3000714,-9.125765,-0.0070904903,0.014825643,-0.041849256,58.00277,156.9064,0.0047884034,1442826,-152,-930,2618,8304
46296198,3997,0,0.30159882,1.5287517,-10.298961,0.008833005,-0.0030639064,-0.05473552,57.955677,156.9064,0.0047884034,1442826,691,-619,1311,8287
46396198,3978,0,0.5265989,-0.14985117,-10.8389,0.010793469,-0.0071025086,-0.053165413,57.96122,156.9064,0.0047884034,1442826,1034,-192,6,8289
46496219,4008,0,0.23434417,-1.1014736,-10.875055,0.0081792995,-0.004665151,-0.046656247,57.96399,156.9064,0.0047884034,1442826,608,-328,1303,8290
46597798,3997,0,0.2473921,-0.75705284,-10.053291,0.0021619287,-0.00028579077,-0.024625415,57.98061,156.9064,0.0047884034,1442826,-438,254,429,8296
46701798,3984,0,-0.23114628,1.5380085,-8.651048,-0.013093068,0.009440762,-0.04160557,57.98338,156.9064,0.0047884034,1442826,449,-60,1901,8297
46801805,3999,0,0.13199377,1.0417894,-9.309484,-0.007891358,0.002443381,-0.0357964,58.01662,156.9064,0.0047884034,1442826,918,-259,2549,8309
46905815,4017,0,-0.021229925,-0.91947514,-10.388981,0.0034627505,-0.0017018869,-0.06294911,57.97784,156.9064,0.0047884034,1442826,58,-730,2276,8295
47009798,3974,0,0.0038951333,-0.24330169,-9.749538,0.0037530814,-0.00016853213,-0.022525879,58.01662,156.9064,0.0047884034,1442826,-951,609,2211,8309
47109798,4000,0,0.389018,1.3357903,-9.581154,0.005273563,0.0016406919,-0.021110615,58.03878,156.9064,0.0047884034,1442826,-435,803,1225,8317
47213799,4001,0,0.18017974,1.0751996,-9.69646,-0.0023619235,0.0031523148,-0.04210973,58.00831,156.9064,0.0047884034,1442826,605,-299,2975,8306
47313798,4000,0,0.27460912,-0.39048454,-9.956954,-0.006549515,0.005003218,-0.04716772,58.01662,156.9064,0.0047884034,1442826,786,-377,2943,8309
47417798,4000,0,-0.26601523,-0.64130694,-10.631937,0.012382548,-0.0004771617,-0.04099702,58.00277,156.9064,0.0047884034,1442826,-62,40,1360,8304
47521799,3962,0,0.45771974,1.32322,-8.937664,-0.009369271,0.0047681434,-0.030272514,58.03324,156.9064,0.0047884034,1442826,-745,567,2569,8315
47621815,4010,0,1.0800068,1.4467534,-9.190579,-0.0025565396,0.0048772027,-0.030711034,58.04432,156.9064,0.0047884034,1442826,-500,850,2601,8319
47721798,3999,0,0.88233685,0.09534403,-9.709092,0.0015415506,-0.0037322347,-0.032935385,58.02493,156.9064,0.0047884034,1442826,-50,437,3079,8312
47825798,4000,0,0.10164871,-1.0213228,-10.310435,-0.0060780584,0.002869632,-0.05289229,58.07479,156.9064,0.0047884034,1442826,-331,-592,1765,8330
47927398,3993,0,-0.26174635,0.109408125,-9.710806,0.00069820456,0.018891549,-0.048882138,58.05817,156.9064,0.0047884034,1442826,186,-617,1621,8324
48027398,4000,0,-0.0005607132,0.9570954,-9.116988,-0.0029257883,0.01791316,-0.061442383,58.124653,156.9064,0.0047884034,1442826,-527,-704,1865,8348
48127399,3995,0,-0.28837413,1.4371436,-9.094186,0.0021924078,0.007006048,-0.06269212,58.085873,156.9064,0.0047884034,1442826,19,-647,2490,8334
48231398,3993,0,0.7450766,-0.6208891,-10.559878,0.004257547,-0.013151286,-0.052812807,58.069252,156.9064,0.0047884034,1442826,-222,232,581,8328
48331417,4003,0,0.15400134,-1.4685938,-10.717191,0.0075427652,-0.013349263,-0.040307965,58.09418,156.9064,0.0047884034,1442826,196,247,2392,8337
48431398,4000,0,0.19415107,-0.4969213,-10.207096,0.011929769,-0.00058766076,-0.024272392,58.1108,156.9064,0.0047884034,1442826,139,75,1289,8343
48535416,4018,0,-0.358792,1.0825021,-8.955104,-0.007795291,0.005976644,-0.032333434,58.102493,156.9064,0.0047884034,1442826,-250,-830,2654,8340
48635398,3999,0,0.3139738,1.3663656,-9.3720255,0.0047828234,-0.0026319853,-0.02744016,58.07756,156.9064,0.0047884034,1442826,524,-421,3276,8331
48739398,3955,0,0.5204755,-0.95907927,-10.702398,-0.0013722021,-0.007107492,-0.04861889,58.119114,156.9064,0.0047884034,1442826,-302,407,1799,8346
48839398,4000,0,0.08752304,-1.6628511,-10.311735,-0.007891169,-0.0027715627,-0.044918716,58.09141,156.9064,0.0047884034,1442826,-805,55,2034,8336
48939399,3994,0,0.18852255,-0.6973452,-9.920163,-0.0076479255,0.0016122824,-0.032060582,58.144043,156.9064,0.0047884034,1442826,-243,880,2403,8355
49043398,4000,0,-0.25718045,1.6247826,-9.156902,0.0023892256,0.01303205,-0.038081143,58.124653,156.9064,0.0047884034,1442826,134,-898,2896,8348
49147413,4015,0,0.8198665,0.6967972,-10.610916,0.014198688,-0.009357442,-0.047582302,58.144043,156.9064,0.0047884034,1442826,773,-219,2154,8355
49248999,4000,0,0.46173477,-1.1175461,-10.657727,0.008853427,-0.008245615,-0.033148322,58.157894,156.9064,0.0047884034,1442826,570,452,2055,8360
49352999,3979,0,0.3082704,-0.582433,-9.710607,0.0033987048,0.005339328,-0.023621418,58.152355,156.9064,0.0047884034,1442826,-1345,389,1191,8358
49453015,3989,0,0.1774,0.8155225,-9.280844,0.004509282,0.0031275353,-0.037078124,58.182823,156.9064,0.0047884034,1442826,-679,216,1970,8369
49557054,4056,0,0.6998779,0.5588609,-9.985303,0.00029508932,-0.0095449705,-0.024919178,58.149586,156.9064,0.0047884034,1442826,188,1081,2576,8357
49657009,4011,0,0.8987044,-0.5437628,-10.493676,0.0099282395,-0.014815933,-0.03956365,58.155125,156.9064,0.0047884034,1442826,153,18,879,8359
49760998,4000,0,-0.01703726,-1.27424,-9.828487,-0.011030611,0.0018738015,-0.039206885,58.229916,156.9064,0.0047884034,1442826,-1750,851,3273,8386
49860998,4000,0,0.09063589,0.21397133,-9.530105,-0.004373199,0.0067697833,-0.029759418,58.171745,156.9064,0.0047884034,1442826,63,565,2170,8365
49960998,3980,0,0.3034375,1.8266969,-9.99663,0.004064396,0.0008141445,-0.04308849,58.218838,156.9064,0.0047884034,1442826,-572,-85,397,8382
50065043,4024,0,0.70108885,0.5734219,-10.11602,-0.00019869744,0.001423616,-0.04799249,58.191135,156.9064,0.0047884034,1442826,9,-43,1189,8372
50165000,4002,0,0.6619062,-0.45516106,-10.093236,-0.0019501584,-0.0038642958,-0.04869981,58.202217,156.9064,0.0047884034,1442826,1010,151,2372,8376
50268998,4000,0,0.30567518,-0.6405399,-9.652107,-0.0045324992,0.0040336875,-0.028582428,58.243767,156.9064,0.0047884034,1442826,-434,624,1273,8391
50368998,4000,0,0.021714378,1.0526489,-9.391741,0.006671762,0.0063807173,-0.032662164,58.229916,156.9064,0.0047884034,1442826,305,511,2259,8386
50469005,3976,0,0.470827,1.8031442,-9.277244,0.014795976,0.003976443,-0.0435935,58.193905,156.9064,0.0047884034,1442826,630,-242,2848,8373
50574599,4000,0,0.5955803,-0.7698657,-10.347724,0.007543671,-0.008452754,-0.039690513,58.227146,156.9064,0.0047884034,1442826,292,160,964,8385
50674599,4000,0,-0.07175925,-0.7574328,-9.842176,-0.0025586947,0.0072200266,-0.03814029,58.221607,156.9064,0.0047884034,1442826,593,-313,2591,8383
50774630,4025,0,-0.12366934,-0.24785912,-9.6574745,-0.0048898505,0.0128143,-0.03803762,58.221607,156.9064,0.0047884034,1442826,-633,295,1574,8383
50874598,4000,0,0.214404,1.1723775,-9.873828,0.005278701,0.0018242573,-0.027564723,58.232685,156.9064,0.0047884034,1442826,30,73,294,8387
50978619,4011,0,1.0774015,1.4897485,-9.982069,0.0018440105,-0.011226183,-0.040030204,58.265926,156.9064,0.0047884034,1442826,600,577,2094,8399
51078599,4001,0,0.6845331,0.31509992,-10.992025,0.016166776,-0.0036584889,-0.04675172,58.265926,156.9064,0.0047884034,1442826,687,-225,-85,8399
51182598,3987,0,0.1361695,-1.1647118,-10.376789,0.0034371587,-0.0012385189,-0.04097012,58.282547,156.9064,0.0047884034,1442826,955,-25,1065,8405
51282598,4000,0,-0.22410464,0.03317629,-9.800837,0.014158858,0.006547861,-0.02723776,58.31025,156.9064,0.0047884034,1442826,-565,-226,2074,8415
51382598,3983,0,-0.24712981,1.1993603,-8.966609,-0.00835517,0.014961812,-0.033070993,58.2964,156.9064,0.0047884034,1442826,-60,-280,1422,8410
51486598,3991,0,0.019257117,1.1452347,-9.447516,-0.0037615215,-0.0018174234,-0.031552803,58.279778,156.9064,0.0047884034,1442826,828,-84,3435,8404
51586615,4017,0,0.7618013,-0.109806,-10.396554,0.0037753305,-0.012927519,-0.030757055,58.299168,156.9064,0.0047884034,1442826,-370,-14,1439,8411
51686598,3976,0,0.4446488,-1.1978748,-10.491279,0.009563569,0.0013563449,-0.04968813,58.31579,156.9064,0.0047884034,1442826,736,77,2601,8417
51790629,4031,0,-0.11336059,0.12154314,-9.825807,0.0071188686,0.01011869,-0.03050816,58.31302,156.9064,0.0047884034,1442826,851,-90,1409,8416
51892208,4009,0,-0.014846961,1.4232128,-9.2037325,0.0049192663,0.012118229,-0.052716944,58.31025,156.9064,0.0047884034,1442826,-150,-426,1310,8415
51992218,4020,0,0.10826038,1.7775791,-9.392728,-0.0011200986,-0.0017908022,-0.041881256,58.31579,156.9064,0.0047884034,1442826,958,-504,3182,8417
52096199,4000,0,0.07477264,-0.9301178,-10.126037,0.0032588819,-0.010200763,-0.040021054,58.321327,156.9064,0.0047884034,1442826,-159,-323,3103,8419
52196198,4000,0,0.25447482,-1.3512976,-10.204894,-0.012663031,0.0077221533,-0.048786983,58.36011,156.9064,0.0047884034,1442826,721,-241,1865,8433
52296198,3980,0,0.2829383,-0.8357115,-9.880125,-0.014001767,0.004266741,-0.034222964,58.30471,156.9064,0.0047884034,1442826,-966,942,2518,8413
52400198,3992,0,-0.18636334,1.6200645,-9.038399,-0.0068833614,0.009347598,-0.050293863,58.33518,156.9064,0.0047884034,1442826,-937,-843,1968,8424
52500198,3993,0,0.49831337,1.1907808,-8.90426,-0.0013429311,0.005168372,-0.016950883,58.35457,156.9064,0.0047884034,1442826,267,780,4591,8431
52600198,4000,0,1.0483928,0.04294117,-9.964208,0.006013366,-0.0028368651,-0.03524117,58.34903,156.9064,0.0047884034,1442826,76,246,1239,8429
52704198,4000,0,-0.12142109,-0.93235946,-10.219653,-0.01126265,0.004892111,-0.040838048,58.3518,156.9064,0.0047884034,1442826,375,25,2982,8430
52804198,3982,0,0.13450623,-0.21970795,-9.576874,-0.0035333007,0.01451582,-0.036515854,58.38781,156.9064,0.0047884034,1442826,-196,83,2456,8443
52908198,4000,0,0.047046684,1.6946137,-9.575659,0.011217984,0.0072464603,-0.038343225,58.37119,156.9064,0.0047884034,1442826,635,-457,1101,8437
53008198,4000,0,0.34937677,0.9304462,-9.719916,0.0038066877,-0.0049702264,-0.051306814,58.36842,156.9064,0.0047884034,1442826,312,-324,1128,8436
53108998,4000,0,0.4077015,-0.29321164,-10.346566,0.005138638,-0.0052918238,-0.040662847,58.39889,156.9064,0.0047884034,1442826,32,81,1555,8447
53209799,4000,0,0.27453634,-1.1270704,-10.181353,0.002480311,-0.009742679,-0.031837825,58.39058,156.9064,0.0047884034,1442826,-292,171,1582,8444
53313814,4015,0,0.27884692,0.6062163,-9.012454,-0.008299811,0.013755024,-0.026585605,58.448753,156.9064,0.0047884034,1442826,230,826,2546,8465
53413799,4001,0,-0.43086803,1.4707911,-9.17864,-0.0073532835,0.011101894,-0.047780067,58.40443,156.9064,0.0047884034,1442826,276,-1359,1762,8449
53517799,3998,0,0.7775372,0.5018132,-10.967021,0.0074014477,-0.013398295,-0.056671552,58.432133,156.9064,0.0047884034,1442826,596,-228,1783,8459
53617798,4000,0,0.46068507,-1.1003741,-11.013629,0.010365698,-0.0057280306,-0.04580024,58.426594,156.9064,0.0047884034,1442826,323,-84,-112,8457
53717798,4000,0,0.52716374,-0.7133305,-10.541405,0.003438506,-0.00032727595,-0.04116919,58.412743,156.9064,0.0047884034,1442826,473,345,1268,8452
53821799,3986,0,0.22370344,1.112564,-9.108507,-0.008778818,0.011677005,-0.02516751,58.451523,156.9064,0.0047884034,1442826,-179,211,1744,8466
53921817,4019,0,-0.02974636,1.215021,-9.572845,-0.0068938523,0.0059063807,-0.043208543,58.443214,156.9064,0.0047884034,1442826,-279,-920,1529,8463
54021798,3971,0,0.45329258,0.6485836,-9.934307,0.002454106,-0.0031538035,-0.0392112,58.415512,156.9064,0.0047884034,1442826,508,22,2950,8453
54125828,4030,0,0.59351313,-1.0471065,-10.437685,0.007428909,-0.0049123084,-0.036811776,58.42382,156.9064,0.0047884034,1442826,522,417,603,8456
54225798,4000,0,0.18640625,-0.53849053,-10.069347,2.83384e-05,-0.0035756247,-0.039946903,58.465374,156.9064,0.0047884034,1442826,-787,-268,-71,8471
54325799,3981,0,0.5180458,0.8725003,-9.797349,0.008673905,0.0026825853,-0.03702209,58.44044,156.9064,0.0047884034,1442826,-682,103,-819,8462
54431399,4000,0,0.121764205,0.82455695,-9.587283,0.0012231814,-0.0034778821,-0.045600146,58.451523,156.9064,0.0047884034,1442826,263,-475,3490,8466
54531398,3999,0,0.5512257,-0.3346575,-9.938977,-0.007043936,-0.008225316,-0.060336437,58.484764,156.9064,0.0047884034,1442826,-634,-503,2611,8478
54631399,3997,0,0.0705813,-0.6148693,-9.799275,-0.006479455,0.00031080132,-0.041125637,58.495846,156.9064,0.0047884034,1442826,-335,154,3497,8482
54735399,3987,0,0.18388337,1.0149426,-9.426409,0.0026460486,0.009705655,-0.044595588,58.498615,156.9064,0.0047884034,1442826,986,-339,1520,8483
54835398,4000,0,-0.0822204,1.4639083,-9.575008,0.0083031645,0.0064759576,-0.045995444,58.484764,156.9064,0.0047884034,1442826,-225,-623,1118,8478
54935405,4007,0,0.066952586,0.5657789,-9.934443,0.008176043,-0.004947555,-0.04034091,58.520775,156.9064,0.0047884034,1442826,584,-285,1973,8491
55039398,4000,0,0.83784425,-1.1817905,-9.98206,-0.000909434,-0.009308047,-0.027277205,58.484764,156.9064,0.0047884034,1442826,-407,535,2805,8478
55139398,3977,0,0.38473564,-0.18086508,-10.198949,0.010303301,0.009520152,-0.038525492,58.495846,156.9064,0.0047884034,1442826,734,255,1808,8482
55239398,4000,0,-0.10509925,1.1158402,-9.93169,0.01653341,0.005317915,-0.030305017,58.493073,156.9064,0.0047884034,1442826,-26,160,2053,8481
55343435,4037,0,0.82621646,1.2309957,-9.682933,0.007461107,-0.003749065,-0.04223365,58.515236,156.9064,0.0047884034,1442826,564,778,3115,8489
55443398,4000,0,0.8684937,0.19948229,-10.364506,0.004305143,-0.009957463,-0.050164275,58.487534,156.9064,0.0047884034,1442826,236,-28,109,8479
55547399,4001,0,0.3882824,-1.4238607,-9.568195,-0.0053684087,-0.0063455896,-0.025211506,58.523544,156.9064,0.0047884034,1442826,-1304,1221,4862,8492
55647398,4000,0,0.10324871,0.4036283,-10.027008,0.010903772,0.007145329,-0.044446073,58.534626,156.9064,0.0047884034,1442826,260,-57,1778,8496
55748999,4001,0,0.28865132,1.723783,-9.043043,0.0064558065,0.019997517,-0.026763678,58.534626,156.9064,0.0047884034,1442826,1076,-169,738,8496
55848998,3999,0,0.14609587,1.6433382,-9.486376,-0.002721397,-0.000488871,-0.04558471,58.540165,156.9064,0.0047884034,1442826,470,-175,1977,8498
55952999,3994,0,0.88086414,-1.1069117,-10.195598,-0.008052904,-0.0022302188,-0.035795774,58.554016,156.9064,0.0047884034,1442826,399,385,1810,8503
56052999,4000,0,-0.05661033,-0.9959011,-10.71018,0.0033877785,0.0064608953,-0.040724654,58.534626,156.9064,0.0047884034,1442826,768,-552,-131,8496
56156998,3985,0,0.039433707,1.2564286,-9.000789,0.00572619,0.011456391,-0.03987351,58.567867,156.9064,0.0047884034,1442826,-13,463,2567,8508
56260998,3995,0,0.5698448,1.1543356,-9.655295,0.0155084925,-0.0038441136,-0.034230143,58.58172,156.9064,0.0047884034,1442826,58,-338,1935,8513
56364998,4000,0,0.6391103,-1.1569598,-10.987689,0.0049950485,-0.011194199,-0.03364854,58.59834,156.9064,0.0047884034,1442826,62,172,764,8519
56464998,3980,0,-0.44323817,-1.0430359,-10.192682,0.011226636,-0.0011782686,-0.049030893,58.576176,156.9064,0.0047884034,1442826,-847,-571,3311,8511
56568998,4000,0,-0.23956464,1.1991966,-9.177659,0.008653832,0.00838192,-0.029691301,58.554016,156.9064,0.0047884034,1442826,-102,-165,3093,8503
56668998,4000,0,0.48908147,1.2580057,-8.896814,-0.004576453,0.006138383,-0.030158415,58.559555,156.9064,0.0047884034,1442826,-221,1274,3569,8505
56769000,4002,0,0.774501,1.0393245,-10.355247,0.01610753,-9.9981204e-05,-0.05169545,58.592796,156.9064,0.0047884034,1442826,1450,-147,1530,8517
56873010,4012,0,0.41799822,-0.71896255,-10.569129,0.00739243,-0.00013138307,-0.04419667,58.626038,156.9064,0.0047884034,1442826,522,274,1263,8529
56974599,4001,0,-0.4650998,0.070110984,-9.804185,0.0045244964,0.007883529,-0.036048844,58.592796,156.9064,0.0047884034,1442826,718,-970,1565,8517
57074645,4040,0,0.19901787,0.96248245,-9.075665,-0.0004962168,0.006455501,-0.009218545,58.631577,156.9064,0.0047884034,1442826,-448,848,1458,8531
57178605,4002,0,0.83879215,1.28948,-9.599462,-0.0068032034,-0.002953649,-0.035384197,58.63712,156.9064,0.0047884034,1442826,582,692,2455,8533
57278614,4015,0,0.6519722,0.10431355,-10.920435,0.013740607,-0.005015742,-0.04092679,58.612186,156.9064,0.0047884034,1442826,880,220,665,8524
57378598,4000,0,0.099297464,-1.1148571,-9.79961,-0.0034945472,-0.0026647607,-0.031347096,58.590027,156.9064,0.0047884034,1442826,150,-146,3928,8516
57482599,4001,0,-0.6822695,-0.12340656,-9.821653,-0.006492584,0.009581346,-0.03458558,58.64266,156.9064,0.0047884034,1442826,-830,-665,1626,8535
57582599,4000,0,0.5043652,1.234526,-8.876078,0.0052595744,0.0020157206,-0.028293163,58.65928,156.9064,0.0047884034,1442826,-876,406,1957,8541
57686598,4000,0,0.9601142,0.8915299,-10.240887,0.010674941,-0.012809518,-0.03558736,58.631577,156.9064,0.0047884034,1442826,387,194,1123,8531
57790599,3958,0,0.6878073,-0.9789011,-10.044043,0.0046244576,-0.0061569423,-0.03205826,58.648197,156.9064,0.0047884034,1442826,-155,908,3420,8537
57890599,3974,0,-0.0012271475,-0.478713,-10.026827,0.0069627427,0.0064418186,-0.045130227,58.66205,156.9064,0.0047884034,1442826,356,-292,1577,8542
57990599,4001,0,-0.61629164,0.68523794,-9.572275,-0.008002436,0.015692195,-0.046440993,58.645428,156.9064,0.0047884034,1442826,3,-1002,629,8536
58094598,4000,0,0.034276057,1.4474034,-8.937221,-0.005940738,0.0068001156,-0.03590763,58.648197,156.9064,0.0047884034,1442826,814,-836,2821,8537
58194605,4002,0,0.68053967,0.17128134,-9.961551,-0.0017002234,-0.009069816,-0.033258058,58.69529,156.9064,0.0047884034,1442826,-593,144,1987,8554
58296198,3992,0,0.46347642,-1.3381892,-10.188452,0.0060311155,-0.0063191354,-0.04006409,58.66205,156.9064,0.0047884034,1442826,-341,700,4232,8542
58400199,3994,0,0.0143617615,0.19377622,-9.892044,0.0025502234,0.0022108569,-0.034260552,58.67036,156.9064,0.0047884034,1442826,-548,330,1399,8545
58500205,4000,0,0.13862306,1.2863814,-9.15086,0.008933089,0.011216954,-0.025712332,58.67313,156.9064,0.0047884034,1442826,68,151,1424,8546
58600199,4000,0,0.11777128,1.6211389,-9.631308,0.010424217,0.008109754,-0.04585971,58.68698,156.9064,0.0047884034,1442826,-237,-1280,1277,8551
58704198,3999,0,1.0358388,-0.39611554,-10.877171,0.008601583,-0.012062529,-0.041354544,58.6759,156.9064,0.0047884034,1442826,1258,235,1703,8547
58804199,4001,0,0.40622175,-1.4997238,-11.050245,0.00802463,-0.0073147295,-0.0396424,58.7036,156.9064,0.0047884034,1442826,839,520,1925,8557
58904199,4001,0,-0.18111229,-0.98350537,-10.339997,0.005536685,0.002112378,-0.045122992,58.739613,156.9064,0.0047884034,1442826,61,140,1287,8570
59008199,3964,0,0.18070422,1.1699255,-8.998829,0.00036262767,-0.0030845492,-0.033119824,58.71468,156.9064,0.0047884034,1442826,-526,462,2432,8561
59108198,3999,0,0.63961023,1.689415,-9.47172,0.011750151,0.0020808945,-0.05132661,58.72853,156.9064,0.0047884034,1442826,554,-31,1460,8566
59212199,4001,0,1.0414822,-0.33645043,-10.92315,-0.0007703681,-0.011662227,-0.043995246,58.722992,156.9064,0.0047884034,1442826,-168,-82,-931,8564
59717846,4048,0,0.6411243,-0.07369672,-10.092501,-0.00861356,-0.000590319,-0.04685721,58.75069,156.9064,0.0047884034,1442826,441,103,642,8574
59821799,4001,0,0.20563258,-1.652668,-10.260845,-0.011787519,0.0024367704,-0.042354178,58.73407,156.9064,0.0047884034,1442826,-567,823,1638,8568
59921834,4036,0,-0.06811575,-0.3543631,-10.121279,0.008130224,0.00861031,-0.023893068,58.736843,156.9064,0.0047884034,1442826,583,-157,806,8569
60021799,4001,0,-0.37516057,0.7143527,-8.784237,-0.006541272,0.014262581,-0.032856893,58.778393,156.9064,0.0047884034,1442826,-858,5,3930,8584
60125799,3975,0,-0.15671073,1.2477154,-9.650999,-0.007981767,0.007622536,-0.050794743,58.775623,156.9064,0.0047884034,1442826,86,-614,643,8583
60225798,3995,0,0.50198,0.12003662,-10.130411,0.01848275,-0.006963671,-0.048027698,58.792244,156.9064,0.0047884034,1442826,273,-420,659,8589
60325805,4007,0,0.7820478,-1.1549575,-9.628458,-0.007957419,-0.008689169,-0.026247367,58.797783,156.9064,0.0047884034,1442826,-723,1036,2697,8591
60429798,4000,0,0.2823662,0.3183416,-9.779408,0.009867543,0.008631683,-0.035612747,58.772854,156.9064,0.0047884034,1442826,861,-237,-411,8582
60529798,3992,0,-0.55136573,1.0217581,-9.128313,-0.009748308,0.012466715,-0.044304043,58.80332,156.9064,0.0047884034,1442826,-384,-993,1088,8593
60629799,4000,0,0.2079519,1.9217762,-9.696154,0.010523031,0.0064404886,-0.038760763,58.792244,156.9064,0.0047884034,1442826,900,-763,299,8589
60731398,4000,0,0.29040524,0.48623514,-9.700176,0.003454907,-0.0010714885,-0.046721652,58.75069,156.9064,0.0047884034,1442826,69,-503,3652,8574
60835398,4000,0,0.3847961,-0.9048742,-10.008635,-0.022065228,0.0033751423,-0.044133864,58.795013,156.9064,0.0047884034,1442826,554,558,1169,8590
60935405,3977,0,-0.015040062,-0.6558403,-10.029497,0.01011703,0.0031396952,-0.0255637,58.797783,156.9064,0.0047884034,1442826,676,-480,1725,8591
61035398,3999,0,-0.24385136,0.72146344,-9.175306,-0.017241763,0.019370625,-0.05825764,58.817173,156.9064,0.0047884034,1442826,536,-169,1335,8598
61139400,4002,0,0.60543954,1.1807215,-9.2935095,-0.0068850983,-0.0022272472,-0.047785882,58.844875,156.9064,0.0047884034,1442826,-903,1041,2789,8608
61243414,4016,0,0.8244334,-0.3802415,-10.147697,0.0068445443,-0.0050911875,-0.025207855,58.806095,156.9064,0.0047884034,1442826,849,1075,3365,8594
61343399,3974,0,-0.09737646,-0.8654288,-9.737425,0.0003678071,0.0012253607,-0.030972894,58.817173,156.9064,0.0047884034,1442826,-699,-171,4543,8598
61443398,4000,0,0.14538394,-0.40158677,-9.648077,-0.0016151996,0.00040825567,-0.021223798,58.844875,156.9064,0.0047884034,1442826,-136,868,2627,8608
61543398,3999,0,-0.23554212,1.0858771,-9.429007,0.008794393,0.0067662084,-0.029544324,58.842106,156.9064,0.0047884034,1442826,-877,-214,2980,8607
61647399,3994,0,0.19012108,1.3703458,-10.032548,-0.00012497907,-0.00040476554,-0.055155866,58.889194,156.9064,0.0047884034,1442826,0,-991,2320,8624
61747414,3975,0,1.3626323,0.046526466,-9.872759,0.008597858,-0.006735986,-0.023157336,58.880886,156.9064,0.0047884034,1442826,155,712,2262,8621
61851428,4029,0,0.46976516,-0.9004174,-10.673518,0.0023625845,-0.0069730906,-0.034199525,58.855953,156.9064,0.0047884034,1442826,371,88,-527,8612
61955399,4000,0,-0.21310759,1.0619596,-9.517191,0.0060171676,0.0033908966,-0.046830945,58.878117,156.9064,0.0047884034,1442826,152,84,2101,8620
62057005,3963,0,-0.25746882,1.5733682,-9.4665165,0.0073361006,-0.0015856305,-0.048360713,58.861496,156.9064,0.0047884034,1442826,-246,-1392,2300,8614
62157018,4020,0,0.86688244,0.76424366,-9.899984,-0.0055380976,-0.0068852967,-0.032617413,58.889194,156.9064,0.0047884034,1442826,759,-63,1447,8624
62260999,4000,0,0.3710749,-1.1895877,-10.569105,0.0075205094,-0.0047354763,-0.035232805,58.883656,156.9064,0.0047884034,1442826,-817,529,2134,8622
62361015,4016,0,-0.6685493,-0.12790452,-9.773551,-0.0037729014,0.012000114,-0.019774765,58.875347,156.9064,0.0047884034,1442826,515,-853,662,8619
62460999,3962,0,0.21678986,0.82617074,-9.072945,0.011229692,0.014526835,-0.042599145,58.861496,156.9064,0.0047884034,1442826,-177,148,1778,8614
62565012,4014,0,0.54256666,1.8131524,-9.282582,0.01632741,0.0030129096,-0.041990817,58.90859,156.9064,0.0047884034,1442826,484,-132,3580,8631
62665023,4023,0,0.66006315,-0.08861689,-10.183879,-0.0019771392,-0.009456438,-0.026094269,58.933517,156.9064,0.0047884034,1442826,1382,239,1932,8640
62765006,4007,0,0.4377303,-1.0077343,-10.107685,0.0050278516,-0.0012891463,-0.03698153,58.916897,156.9064,0.0047884034,1442826,36,470,2190,8634
62869048,4050,0,-0.6667763,0.20824738,-9.963472,0.0023772367,0.011384246,-0.0364877,58.914127,156.9064,0.0047884034,1442826,274,-773,728,8633
62968999,4000,0,-0.050494753,1.0736456,-8.93975,-0.010798433,0.016548423,-0.03988073,58.939056,156.9064,0.0047884034,1442826,-590,713,2659,8642
63072999,4001,0,0.51476896,0.82245827,-9.393711,0.0020601419,-0.0011450392,-0.02199355,58.939056,156.9064,0.0047884034,1442826,61,264,2558,8642
63172998,3992,0,0.7192706,0.44845477,-10.594369,0.013518426,-0.010188908,-0.048724517,58.925205,156.9064,0.0047884034,1442826,1461,262,1581,8637
63274598,4000,0,-0.18706408,-0.96343803,-10.445289,-0.0057637915,0.00032334274,-0.04686083,58.914127,156.9064,0.0047884034,1442826,171,-716,1501,8633
63374605,4007,0,0.17609216,-1.0627439,-10.0888195,-0.0063793575,0.0037468208,-0.017321642,58.955677,156.9064,0.0047884034,1442826,-492,1034,2693,8648
63474598,3990,0,-0.1050771,0.4070019,-9.884758,0.0080066,5.9006532e-05,-0.032889552,58.950138,156.9064,0.0047884034,1442826,-142,285,2565,8646
63578604,3991,0,0.27341482,1.6876785,-9.211852,0.0054935487,-0.0009890669,-0.038913146,58.94737,156.9064,0.0047884034,1442826,1305,-101,1933,8645
63678599,3984,0,0.23614787,0.78328544,-10.312272,-0.0026130665,-0.0062120073,-0.042755574,58.933517,156.9064,0.0047884034,1442826,424,-811,2193,8640
63782621,4023,0,-0.0012748144,-1.3743205,-10.921868,0.009529759,-0.008137348,-0.04837619,58.933517,156.9064,0.0047884034,1442826,-321,-509,2763,8640
63882598,4000,0,-0.15767597,-0.942847,-9.981352,-0.009940135,0.012409607,-0.042495985,58.933517,156.9064,0.0047884034,1442826,-930,309,1974,8640
63982601,4002,0,0.14699584,0.8110164,-10.133977,0.0030483415,0.0050027217,-0.03882165,58.98338,156.9064,0.0047884034,1442826,479,-5,395,8658
64086599,3979,0,0.7940548,1.3076906,-9.771415,0.012315533,-0.0032804003,-0.05088423,58.96122,156.9064,0.0047884034,1442826,379,-285,743,8650
64186632,4034,0,0.2647607,-0.088534266,-10.381795,-0.0019876857,-0.007951263,-0.057234105,59.0,156.9064,0.0047884034,1442826,-176,-480,870,8664
64290601,4001,0,-0.036236346,-0.52512395,-9.507592,-0.005816906,0.0029192022,-0.024898356,58.97784,156.9064,0.0047884034,1442826,300,246,2882,8656
64390642,4044,0,0.08245486,0.43898335,-9.488629,0.0070355553,0.006894232,-0.03844554,58.97784,156.9064,0.0047884034,1442826,475,-4,1077,8656
64491398,3980,0,-0.2466375,1.6447127,-8.883095,-0.006918917,0.010814727,-0.048798412,58.98061,156.9064,0.0047884034,1442826,-826,494,3813,8657
64592240,4042,0,0.5116532,1.501037,-9.318277,-0.0050424696,-0.006420544,-0.042563405,58.991688,156.9064,0.0047884034,1442826,-1237,293,2410,8661
64696198,3967,0,0.8473496,-0.7013772,-10.754949,-0.0026186449,-0.0014031397,-0.03260813,58.975067,156.9064,0.0047884034,1442826,628,461,1195,8655
64796198,3958,0,-0.13370664,-1.1968288,-10.236664,0.00017757149,-0.002185343,-0.0319971,59.00831,156.9064,0.0047884034,1442826,-921,413,3822,8667
64900218,4019,0,-0.21884827,0.8284217,-9.836071,-0.0050586276,0.014249715,-0.04600219,58.99446,156.9064,0.0047884034,1442826,-500,281,1089,8662
65004198,3976,0,0.82391113,1.2491678,-9.6616125,0.0012043542,-0.00698089,-0.034999788,59.02493,156.9064,0.0047884034,1442826,1490,859,2550,8673
65104199,3969,0,0.05848017,-0.37630242,-9.718948,-0.0112538375,-0.007406205,-0.054829586,59.0,156.9064,0.0047884034,1442826,-451,-976,3375,8664
65208208,4003,0,0.45868185,-0.9669361,-9.657428,-0.0027820733,0.0027081145,-0.016194027,59.01662,156.9064,0.0047884034,1442826,-1285,1141,2453,8670
65308198,3981,0,-0.44521925,0.44278917,-9.450728,-0.009411167,0.008219107,-0.037807018,59.05817,156.9064,0.0047884034,1442826,-512,284,2666,8685
65408199,3989,0,-0.12403858,1.7584851,-8.867699,0.00044597487,0.007594363,-0.04830087,59.04155,156.9064,0.0047884034,1442826,383,-425,1905,8679
65512220,3978,0,0.026853632,0.6538467,-10.209283,-0.0017651158,0.0011312654,-0.052705493,59.01385,156.9064,0.0047884034,1442826,200,-491,1168,8669
65612204,4004,0,0.76530504,-0.508404,-10.859331,0.009009829,-0.007278822,-0.03437517,59.00554,156.9064,0.0047884034,1442826,1495,273,2650,8666
65713846,4048,0,-0.13517529,-0.7089244,-10.163316,-0.0057231705,0.00564398,-0.036058746,58.99723,156.9064,0.0047884034,1442826,-930,-29,1382,8663
65813805,4007,0,0.19996138,0.32202157,-8.7584505,0.01637492,0.0129505675,-0.022640258,59.05817,156.9064,0.0047884034,1442826,-428,445,4113,8685
65917819,4018,0,-0.058763556,1.6405065,-8.721056,-0.006495612,-0.003105526,-0.0343094,59.0554,156.9064,0.0047884034,1442826,49,-337,4733,8684
66017817,4019,0,0.4070571,0.5050172,-10.1990185,0.017641371,-0.009825273,-0.047823407,59.07479,156.9064,0.0047884034,1442826,468,-587,3522,8691
66117800,4001,0,1.0604508,-0.80030763,-10.801963,-0.004364242,-0.007973086,-0.03867215,59.07479,156.9064,0.0047884034,1442826,393,221,300,8691
66221798,4000,0,-0.29710957,-0.253491,-10.308403,0.0013918807,0.0076883542,-0.047652733,59.05817,156.9064,0.0047884034,1442826,147,-555,242,8685
66321798,4000,0,0.33809823,1.1409317,-8.827425,-0.008812172,0.009790447,-0.038071875,59.0554,156.9064,0.0047884034,1442826,128,807,1555,8684
66421814,4001,0,-0.15141015,1.7094457,-8.791011,-0.007188428,0.004936676,-0.037718777,59.07202,156.9064,0.0047884034,1442826,-323,-628,3109,8690
66525798,3964,0,0.8987886,0.19045447,-10.067729,0.000939923,-0.011187587,-0.027003007,59.108032,156.9064,0.0047884034,1442826,1,91,2231,8703
66625800,4002,0,0.01690376,-0.7239901,-10.298764,-0.014786994,0.0010893238,-0.050411303,59.099724,156.9064,0.0047884034,1442826,800,89,1163,8700
66729831,4033,0,0.057522584,0.13912876,-9.793729,0.005510905,0.0056498563,-0.040061213,59.09695,156.9064,0.0047884034,1442826,284,-55,1776,8699
66829798,3999,0,0.24436803,0.8722559,-9.227373,-0.0035871007,0.011672067,-0.03095577,59.066483,156.9064,0.0047884034,1442826,-849,407,1700,8688
66931398,4000,0,0.62451005,1.6365516,-9.559321,0.009540971,0.0036497558,-0.06027989,59.085873,156.9064,0.0047884034,1442826,707,-298,1893,8695
67031398,3999,0,0.9171483,-0.18895379,-9.696779,-0.008414046,-0.012090584,-0.02310405,59.102493,156.9064,0.0047884034,1442826,-262,1886,4046,8701
67135398,3993,0,0.16500495,-0.8730447,-10.79,0.008462176,-0.00013366935,-0.045672726,59.105263,156.9064,0.0047884034,1442826,661,-634,-382,8702
67235431,4033,0,0.01752403,-0.06293131,-9.506281,-0.017388538,0.015156211,-0.038916964,59.124653,156.9064,0.0047884034,1442826,-377,1038,1712,8709
67339399,3970,0,-0.09565997,1.3126856,-9.460055,0.0042314758,-0.0022627634,-0.03446008,59.124653,156.9064,0.0047884034,1442826,-26,672,2205,8709
67439398,3999,0,0.083845854,0.89800006,-9.652049,0.007077014,-0.0013296624,-0.036873195,59.155125,156.9064,0.0047884034,1442826,-262,-1015,2663,8720
67539398,3993,0,1.2545741,-0.26480472,-10.009838,0.009019122,-0.013942741,-0.03577876,59.132965,156.9064,0.0047884034,1442826,-1092,696,2278,8712
67643409,4011,0,0.49934983,-1.1437848,-10.2382965,0.00087767805,-0.0038913176,-0.023187567,59.168976,156.9064,0.0047884034,1442826,669,44,930,8725
67743399,3993,0,-0.2549947,0.085382484,-9.271233,-0.0049895896,0.012563543,-0.04243879,59.11357,156.9064,0.0047884034,1442826,-360,-713,1943,8705
67843399,3994,0,0.3056891,1.0365145,-9.437077,-0.00039438144,0.0018486036,-0.042465266,59.138504,156.9064,0.0047884034,1442826,136,34,782,8714
67947398,3976,0,0.75080985,0.71735334,-9.82122,0.00410947,-0.010929065,-0.03250719,59.146812,156.9064,0.0047884034,1442826,396,-175,1345,8717
68051398,3984,0,0.5382113,-1.0989307,-10.78374,0.0027542033,-0.0055852216,-0.04705529,59.157894,156.9064,0.0047884034,1442826,502,-7,1068,8721
68152998,4000,0,-0.3192542,-0.7504503,-10.268524,0.013115777,0.008166026,-0.036145817,59.149582,156.9064,0.0047884034,1442826,-709,-112,2323,8718
68256998,3992,0,-0.09168122,1.5069116,-9.443647,0.013832149,0.010938383,-0.054209743,59.157894,156.9064,0.0047884034,1442826,-53,-577,1421,8721
68356998,3980,0,-0.4355264,1.2964754,-9.791345,0.0043521184,0.0032666656,-0.047827065,59.191135,156.9064,0.0047884034,1442826,475,-1626,2089,8733
68460999,4001,0,0.20220007,-0.6050013,-10.14364,0.01465757,-0.0045207264,-0.038673587,59.182823,156.9064,0.0047884034,1442826,32,-674,3410,8730
68561013,4015,0,-0.11544866,-1.0086845,-9.766577,-0.005149492,0.004056313,-0.031841222,59.155125,156.9064,0.0047884034,1442826,-291,546,4706,8720
68664998,3986,0,0.043410927,0.7935556,-9.035532,0.0033835447,0.0023673475,-0.015409995,59.227146,156.9064,0.0047884034,1442826,-1339,-289,2750,8746
68764999,4001,0,0.17461577,1.1066959,-8.910245,-0.0047653564,-0.0031589358,-0.026244681,59.174515,156.9064,0.0047884034,1442826,-740,245,4171,8727
68864998,4000,0,0.27304256,0.8876152,-10.042989,0.00890759,-0.0039742454,-0.049242433,59.166203,156.9064,0.0047884034,1442826,630,-898,1317,8724
68968998,3985,0,0.12518777,-1.3222066,-10.837333,0.002266425,-0.001900844,-0.040106714,59.221607,156.9064,0.0047884034,1442826,841,-315,918,8744
69069005,4000,0,-0.38862103,-0.759396,-10.168069,0.0050279433,0.0022657553,-0.04575038,59.185596,156.9064,0.0047884034,1442826,-694,-450,2769,8731
69173003,3998,0,0.15490665,1.506326,-9.467078,0.015858935,0.012121066,-0.03817642,59.216064,156.9064,0.0047884034,1442826,163,90,2399,8742
69273009,4011,0,-0.061727002,1.9638935,-9.659782,0.0012044809,0.008603493,-0.061856538,59.185596,156.9064,0.0047884034,1442826,759,-1413,1146,8731
69374642,4012,0,0.068434566,0.32303417,-10.0609045,0.0018428173,-0.004700687,-0.040878974,59.202217,156.9064,0.0047884034,1442826,-544,94,3327,8737
69474598,3990,0,0.36836785,-1.1005625,-10.059369,-0.007728041,-0.0067109517,-0.046396878,59.202217,156.9064,0.0047884034,1442826,-321,64,2239,8737
69578599,4001,0,-0.99584925,-0.66150117,-10.044804,0.0035916246,0.0035651254,-0.02850993,59.238228,156.9064,0.0047884034,1442826,-705,-1152,2300,8750
69678598,4000,0,-0.015550214,0.4607864,-9.20951,-0.0023200407,0.007500937,-0.016892169,59.257618,156.9064,0.0047884034,1442826,-532,391,2795,8757
69778610,4012,0,0.38777274,1.3052137,-8.862538,0.0016633676,-0.0059670312,-0.043782152,59.202217,156.9064,0.0047884034,1442826,-1132,106,3062,8737
69882598,3985,0,0.49953768,-0.2578824,-10.167748,0.0041500377,-0.020389918,-0.03567317,59.232685,156.9064,0.0047884034,1442826,105,-196,2444,8748
69982615,4017,0,0.22015607,-1.1904757,-10.120845,-6.881822e-05,-0.0054550986,-0.03084564,59.238228,156.9064,0.0047884034,1442826,183,-486,1075,8750
