timestamp,integral_dt,error_count,x,y,z,x_integral,y_integral,z_integral,temperature,range_m_s2,scaling,device_id,x_raw,y_raw,z_raw,temperature_raw
55789885,4007,0,0.10306076,0.4330367,-9.442592,0.0015951501,0.0040142937,-0.040713064,42.260387,156.9064,0.0047884034,1442850,293,-384,-2562,2621
55890649,4002,0,0.29179943,0.8243382,-9.934798,-0.0019388485,-0.0072787264,-0.038246315,42.238228,156.9064,0.0047884034,1442850,-169,33,-2012,2613
55990647,3995,0,0.11755834,0.9787467,-9.603658,0.0056848372,0.0103150215,-0.03588302,42.218838,156.9064,0.0047884034,1442850,-164,-798,-2404,2606
56094646,4000,0,-0.38680124,-0.3071937,-9.461691,0.0044474397,0.016330361,-0.03766294,42.243767,156.9064,0.0047884034,1442850,-344,-1589,-2726,2615
56195477,4001,0,-0.43276334,-0.831872,-9.557974,0.005734532,0.013162814,-0.044810444,42.240997,156.9064,0.0047884034,1442850,-404,-773,-2169,2614
56295470,3943,0,-0.027267177,-0.2877911,-9.860022,-0.00047837477,0.0068539353,-0.04051298,42.240997,156.9064,0.0047884034,1442850,-98,-117,-1626,2614
56399475,4005,0,0.33476612,1.056366,-9.780197,0.0007609055,0.00544958,-0.03919483,42.25485,156.9064,0.0047884034,1442850,126,-471,-1880,2619
56500294,4017,0,-0.019678496,0.59923273,-9.542632,-0.0050242925,-0.0048579387,-0.037358973,42.28809,156.9064,0.0047884034,1442850,303,430,-2088,2631
56600277,4007,0,-0.02045557,-0.5216481,-9.797611,0.004360517,0.012784689,-0.04537861,42.30748,156.9064,0.0047884034,1442850,-328,-509,-1379,2638
56704270,3993,0,-1.0928403,-1.0489364,-9.742993,-0.0010041145,-0.0062213065,-0.044323035,42.2687,156.9064,0.0047884034,1442850,-182,319,-1549,2624
56805071,4001,0,-0.21395022,-0.051884234,-9.565878,-0.011686864,-0.0075556,-0.029898852,42.29363,156.9064,0.0047884034,1442850,984,385,-2195,2633
56905070,4000,0,-0.98687303,0.7980012,-9.760136,-0.010911497,-0.018390836,-0.02118178,42.29086,156.9064,0.0047884034,1442850,404,1574,-2350,2632
57009071,3963,0,0.48369232,0.7996536,-9.985926,0.0037706401,0.014571837,-0.04148724,42.31302,156.9064,0.0047884034,1442850,-851,-207,351,2640
57109847,3951,0,-0.87730855,-0.40887243,-9.753355,0.002160815,-0.018366873,-0.034172177,42.31579,156.9064,0.0047884034,1442850,-405,878,-1582,2641
57209886,4039,0,-1.1704377,0.23697783,-9.040112,-0.0064465827,-0.0144176055,-0.0464184,42.285316,156.9064,0.0047884034,1442850,-609,-213,-3200,2630
57309852,4005,0,1.5530518,0.2858936,-9.472864,0.0011823,0.009515199,-0.044891585,42.279778,156.9064,0.0047884034,1442850,973,47,-1484,2628
57414709,4026,0,1.0397162,0.34301078,-10.277886,0.018663088,0.008620227,-0.04110075,42.31302,156.9064,0.0047884034,1442850,464,360,-682,2640
57514670,3994,0,0.06388603,1.1389824,-10.447003,0.018398087,0.0066424627,-0.053933315,42.28809,156.9064,0.0047884034,1442850,-1148,-27,-1991,2631
57614670,3980,0,1.9047805,0.32072818,-9.723334,-0.018291177,-0.0012541821,-0.04922177,42.33795,156.9064,0.0047884034,1442850,2891,-674,-2859,2649
57719491,4013,0,0.18721241,-0.5556311,-10.769879,-0.028970422,-0.006738396,-0.045105804,42.299168,156.9064,0.0047884034,1442850,887,183,-2823,2635
57823478,4000,0,0.83561474,0.76582366,-10.343052,-0.011615384,-0.000645098,-0.046369016,42.31025,156.9064,0.0047884034,1442850,1784,210,-901,2639
57923478,3974,0,0.34899357,1.8324928,-10.664285,0.02407998,0.008537687,-0.055113427,42.3241,156.9064,0.0047884034,1442850,-322,722,-1299,2644
58024277,3981,0,1.4830849,0.58906597,-10.1691675,-0.0009036055,-0.01232986,-0.042328794,42.29086,156.9064,0.0047884034,1442850,1175,-96,-1687,2632
58128298,4021,0,-0.92985284,-0.636093,-9.986868,0.009060137,0.0070508737,-0.028101727,42.33241,156.9064,0.0047884034,1442850,-1128,-753,-1781,2647
58228270,3968,0,-0.16066954,-0.59450257,-9.74193,-0.0018022822,0.0038794111,-0.02684699,42.32133,156.9064,0.0047884034,1442850,-323,35,-1535,2643
58329046,3999,0,-0.1467251,0.3237519,-9.776038,-0.0245455,0.003201479,-0.03661482,42.34903,156.9064,0.0047884034,1442850,922,-257,-522,2653
58433084,4038,0,-0.056269184,0.3014536,-10.227423,-0.00032607932,-0.00950379,-0.0070006354,42.34072,156.9064,0.0047884034,1442850,-1055,948,849,2650
58533046,3993,0,1.0635203,-0.12261279,-10.373715,-0.015258236,-0.0018733554,-0.051830966,42.33795,156.9064,0.0047884034,1442850,1299,1451,1665,2649
58633870,3994,0,0.4900713,-0.6266425,-9.845267,-0.00046148943,-0.0047091627,-0.054695703,42.33518,156.9064,0.0047884034,1442850,1542,-205,-2828,2648
58737877,3978,0,0.6073564,1.4452653,-9.812505,0.009064296,-0.008288474,-0.04737062,42.36842,156.9064,0.0047884034,1442850,1117,-384,-3160,2660
58841902,4032,0,0.73662233,0.83299685,-10.137746,0.00083832536,-0.020500943,-0.046092656,42.354572,156.9064,0.0047884034,1442850,1373,360,-3185,2655
58942718,4048,0,0.10417021,-0.46565774,-11.322854,0.0031668665,-0.0119639635,-0.023504341,42.36011,156.9064,0.0047884034,1442850,-1230,467,560,2657
59042680,4010,0,-0.7457521,-0.8210725,-10.139645,0.026271615,-0.0002628545,-0.036247194,42.34349,156.9064,0.0047884034,1442850,-1696,126,-3347,2651
59146670,3993,0,-0.30404282,0.6108354,-10.002847,-0.022837024,0.0061779493,-0.033954237,42.36565,156.9064,0.0047884034,1442850,881,233,-2080,2659
59247478,4000,0,-0.70768,0.9843151,-10.068523,-0.011982205,0.010248133,-0.050083447,42.33795,156.9064,0.0047884034,1442850,-224,-37,-2412,2649
59347478,3943,0,-0.47435665,0.27515677,-10.095203,-0.00302194,-0.00125412,-0.042296894,42.38504,156.9064,0.0047884034,1442850,-207,-92,-2504,2666
59451478,3968,0,0.4907855,-1.1762955,-10.826011,0.014784162,-0.013808568,-0.036168277,42.36011,156.9064,0.0047884034,1442850,722,257,-1968,2657
59552270,3959,0,-0.7909283,-0.49762133,-10.358802,-0.00907417,0.018935725,-0.048806526,42.3795,156.9064,0.0047884034,1442850,-317,-1354,-3837,2664
59652246,4000,0,-0.21885645,0.52235556,-10.661657,-0.017526995,0.010202279,-0.037075512,42.39889,156.9064,0.0047884034,1442850,534,-1546,-1697,2671
59756246,4000,0,0.7763222,1.2123168,-10.922539,0.0035191826,-0.018119313,-0.035730086,42.38781,156.9064,0.0047884034,1442850,1651,791,-1033,2667
59857070,4000,0,-0.2958037,-0.21660529,-10.246088,-0.00045225024,0.009795437,-0.064888954,42.373962,156.9064,0.0047884034,1442850,-812,-807,-4313,2662
59957077,4001,0,-0.73217964,-1.2719265,-10.422766,-0.03889505,0.0020683361,-0.031238392,42.42105,156.9064,0.0047884034,1442850,459,-502,-3315,2679
60061076,4006,0,0.18324938,0.8855054,-10.103553,0.0022685702,-0.011683517,-0.04097569,42.38227,156.9064,0.0047884034,1442850,938,463,-1259,2665
60161871,3995,0,0.30007485,1.124717,-9.770242,-0.0015910678,-0.01135588,-0.046041287,42.40443,156.9064,0.0047884034,1442850,798,770,-2904,2673
60261892,4022,0,0.43403074,0.36656743,-10.312055,-0.01059436,-0.014124246,-0.03663919,42.41828,156.9064,0.0047884034,1442850,396,1226,-561,2678
60361870,3993,0,0.21867219,-0.94995403,-10.191907,-0.017188622,-0.009337615,-0.040991277,42.43767,156.9064,0.0047884034,1442850,1185,623,-1191,2685
60466683,4013,0,-1.0387813,0.39075786,-9.195549,0.014497014,0.013653841,-0.036780924,42.40443,156.9064,0.0047884034,1442850,-1203,-975,-1906,2673
60566713,4043,0,-0.73991865,1.8975803,-9.73754,0.017585238,0.0019200272,-0.047618784,42.41828,156.9064,0.0047884034,1442850,-2287,-88,-1893,2678
60666670,3997,0,-0.2118269,1.3935883,-9.446355,0.018944189,0.0030335907,-0.038155556,42.409973,156.9064,0.0047884034,1442850,-711,725,-1770,2675
60767478,3994,0,0.2813224,-0.3943881,-10.502693,-0.014193226,-0.0037864556,-0.06324995,42.434902,156.9064,0.0047884034,1442850,535,-498,79,2684
60871478,3973,0,-0.4249172,-0.6952879,-10.02201,0.02666661,0.0073642395,-0.033793893,42.38227,156.9064,0.0047884034,1442850,-1452,188,802,2665
60971484,3993,0,0.094484836,0.77269524,-9.312655,-0.005296481,0.012935632,-0.054513875,42.429363,156.9064,0.0047884034,1442850,1061,-1029,-2209,2682
61072247,4000,0,0.54676765,1.394643,-9.40787,-0.011837627,-0.00054183183,-0.05390147,42.434902,156.9064,0.0047884034,1442850,1347,-644,-3363,2684
61176313,4043,0,-0.20013435,-0.47149453,-9.402222,0.0047768066,0.0038096367,-0.044534512,42.38781,156.9064,0.0047884034,1442850,-1139,234,-1892,2667
61276246,3935,0,0.6746621,-1.1316646,-9.780614,0.0058491575,-0.0006629446,-0.045619845,42.41828,156.9064,0.0047884034,1442850,846,86,-2129,2678
61377084,3946,0,0.3979264,0.19542366,-10.429345,0.0009156638,0.0025608311,-0.034001045,42.426594,156.9064,0.0047884034,1442850,1567,765,1191,2681
61481078,3954,0,-0.05930294,2.1486447,-8.606683,-0.0008535267,0.0052570566,-0.03252251,42.429363,156.9064,0.0047884034,1442850,172,704,-3773,2682
61581095,4017,0,0.06940931,1.0297692,-9.885239,0.01395438,0.0065231775,-0.048736468,42.41828,156.9064,0.0047884034,1442850,-606,-5,-806,2678
61681917,4047,0,-0.7173127,-0.76233625,-9.94855,0.017592844,-0.008982841,-0.035393916,42.448753,156.9064,0.0047884034,1442850,-1795,-386,-1558,2689
61785870,3993,0,-0.49607465,-0.3757997,-8.773344,-0.00084096426,0.0066809985,-0.046363205,42.415512,156.9064,0.0047884034,1442850,-1057,-348,-2326,2677
61885870,3987,0,-0.2473747,1.1188445,-9.279074,0.0033478546,0.00029531727,-0.008081118,42.454292,156.9064,0.0047884034,1442850,-937,630,326,2691
61986670,3993,0,-0.86890244,1.2181917,-9.361971,0.0028804666,0.0036432156,-0.02890952,42.468143,156.9064,0.0047884034,1442850,-1382,-544,-2317,2696
62090671,3983,0,0.30946416,-0.18970664,-10.740313,0.012352733,-0.011273703,-0.052984603,42.42105,156.9064,0.0047884034,1442850,-474,662,-276,2679
62194709,4039,0,-0.04246007,-0.80560756,-9.762213,-0.012335091,0.009880461,-0.027504865,42.476456,156.9064,0.0047884034,1442850,179,-739,-660,2699
62295447,4000,0,-0.33968943,1.1397656,-9.6244755,-0.021842165,0.0062728273,-0.046575107,42.462605,156.9064,0.0047884034,1442850,-33,-471,-865,2694
62395466,4020,0,0.4259277,0.9619239,-7.6426353,-0.018986056,-0.0036761523,-0.043445297,42.443214,156.9064,0.0047884034,1442850,740,933,-1779,2687
62499446,3967,0,1.2557611,-0.2831079,-6.7800956,0.01172659,-0.004733743,-0.037307378,42.454292,156.9064,0.0047884034,1442850,1034,-631,-1881,2691
62599507,4037,0,-2.2736177,-0.18623714,-6.581786,0.020132162,4.0823594e-05,-0.036795694,42.468143,156.9064,0.0047884034,1442850,-2404,-77,-2076,2696
62700307,4037,0,0.20401448,0.7509922,-7.8299813,-0.03504286,-0.0021282062,-0.029178396,42.45706,156.9064,0.0047884034,1442850,2516,-986,-5128,2692
62804290,4020,0,0.45553955,-0.39548457,-8.15027,-0.020128697,0.003596466,-0.029288284,42.459835,156.9064,0.0047884034,1442850,1339,-634,1188,2693
62905118,4034,0,0.41556984,-0.14979784,-9.626624,0.001785493,-0.00060037477,-0.02921588,42.537395,156.9064,0.0047884034,1442850,-124,667,2001,2721
63005078,4000,0,0.5210617,-0.25096142,-10.892896,0.0007800199,-0.00032794045,-0.058043882,42.470913,156.9064,0.0047884034,1442850,1373,523,2225,2697
63109078,4000,0,0.10999723,2.014886,-9.35006,0.012840698,0.009271902,-0.0445043,42.481995,156.9064,0.0047884034,1442850,-424,153,-3444,2701
63213871,3990,0,-0.2763022,0.08149889,-10.164942,-0.011910165,0.0044949423,-0.03244761,42.506924,156.9064,0.0047884034,1442850,-762,-217,-1418,2710
63317870,4000,0,-0.16592386,-1.4222125,-11.234695,0.026247451,-0.016370146,-0.014231896,42.512466,156.9064,0.0047884034,1442850,-280,1034,-2843,2712
63417902,4025,0,-0.64076424,-0.51044947,-10.357302,-0.0052980194,0.007158208,-0.02109986,42.495846,156.9064,0.0047884034,1442850,-396,451,-244,2706
63522653,3958,0,-0.19913897,2.0597067,-9.995107,0.023950025,-0.0020197737,-0.03856288,42.512466,156.9064,0.0047884034,1442850,-252,234,-2330,2712
63622673,4026,0,-0.5127783,1.9810532,-10.124994,0.026853213,-0.01562823,-0.022545313,42.518005,156.9064,0.0047884034,1442850,-1607,1341,-2551,2714
63722646,3999,0,0.44950536,-0.28758845,-10.298802,-0.015593023,-0.0053114095,-0.06274996,42.512466,156.9064,0.0047884034,1442850,489,151,219,2712
63822649,4002,0,0.4402329,-1.1940428,-10.040502,-0.031494576,-0.0040343823,-0.050694644,42.520775,156.9064,0.0047884034,1442850,2265,-798,-5294,2715
63927476,4006,0,-0.35072076,0.787881,-9.598933,-0.011917122,0.01988952,-0.05525549,42.526314,156.9064,0.0047884034,1442850,418,-783,-748,2717
64027513,4006,0,0.3661574,1.8477255,-8.879524,-0.00014174706,-0.0045640017,-0.0401676,42.529087,156.9064,0.0047884034,1442850,892,1100,-3551,2718
64131484,4007,0,0.86991936,-0.055492096,-9.84321,-0.031795487,-0.025594473,-0.019511562,42.487534,156.9064,0.0047884034,1442850,2167,-463,-3595,2703
64232334,4064,0,-0.2078848,-0.95468175,-10.266569,-0.01141399,0.0076939543,-0.04901565,42.504154,156.9064,0.0047884034,1442850,258,205,-1671,2709
64336270,4000,0,-0.10123125,0.4611651,-9.776694,0.014623426,0.010600573,-0.023192234,42.523544,156.9064,0.0047884034,1442850,-1138,292,379,2716
64436270,4000,0,-0.059081707,2.0425286,-9.395049,0.024649477,0.006146785,-0.0670612,42.531857,156.9064,0.0047884034,1442850,122,-248,-4819,2719
64541124,4046,0,-0.2830466,-0.07804871,-10.202038,0.0013140207,-0.0009514978,-0.032804932,42.56233,156.9064,0.0047884034,1442850,-1126,305,600,2730
64641084,4006,0,0.106456384,-1.0687299,-10.617674,-0.010199484,-0.00634591,-0.058865774,42.537395,156.9064,0.0047884034,1442850,101,-1034,-3255,2721
64741847,4001,0,-1.9090922,-0.76789355,-10.143298,-0.011950975,0.012175076,-0.03861227,42.565098,156.9064,0.0047884034,1442850,-2099,-327,-472,2731
64841847,3972,0,-0.10653139,0.6453745,-9.135983,0.011349172,0.0031935265,-0.050784454,42.565098,156.9064,0.0047884034,1442850,-250,-1392,-4202,2731
64945880,4033,0,0.3797307,0.7014821,-9.49933,-0.012238244,-0.008066677,-0.023109492,42.548477,156.9064,0.0047884034,1442850,1654,-922,-3628,2725
65045891,4044,0,0.43559542,-0.48249704,-10.417381,-0.006712977,-0.011742558,-0.038010668,42.556786,156.9064,0.0047884034,1442850,1270,-330,1103,2728
65146676,3983,0,-0.15811923,-0.99466485,-10.579533,-0.0066714063,-0.003964743,-0.049050756,42.556786,156.9064,0.0047884034,1442850,520,-469,-2848,2728
65250670,4000,0,-0.8532966,1.136321,-8.932418,0.021911604,0.01741991,-0.042468563,42.540165,156.9064,0.0047884034,1442850,-1308,-220,-3396,2722
65350677,4007,0,0.09804578,1.4531093,-8.392841,-0.0069705797,0.0046532624,-0.053210385,42.565098,156.9064,0.0047884034,1442850,1021,-1025,-5426,2731
66165047,3959,0,0.27766237,1.2443069,-8.409889,0.005690041,0.0006186338,-0.029476333,42.587257,156.9064,0.0047884034,1442850,1414,270,-6178,2739
66269046,3961,0,0.691055,1.0668961,-9.494886,-0.025106253,-0.014482857,-0.024079246,42.6205,156.9064,0.0047884034,1442850,2302,406,-4530,2751
66369870,3985,0,-0.013991226,-0.9097582,-10.332412,-0.01838427,-0.0013418559,-0.020036453,42.6482,156.9064,0.0047884034,1442850,-747,-141,973,2761
66469876,3968,0,-0.18801512,-1.2648835,-9.4282055,-0.0028455737,0.0072739166,-0.020489333,42.59834,156.9064,0.0047884034,1442850,-78,547,-2225,2743
66573912,4036,0,-1.1590583,0.9377624,-9.826182,0.0017312551,0.026700482,-0.029321235,42.626038,156.9064,0.0047884034,1442850,-1284,-41,1013,2753
66674684,4006,0,-0.31697598,1.5193223,-9.241491,-0.0145626385,-0.0053308737,-0.05094192,42.59834,156.9064,0.0047884034,1442850,143,-1333,-3614,2743
66774682,4004,0,-0.7439004,1.2785354,-9.416412,0.017908974,0.003842294,-0.022069681,42.63158,156.9064,0.0047884034,1442850,-2428,868,-118,2755
66878678,3994,0,0.60464776,-0.6302398,-10.755111,0.006537048,-0.017475031,-0.010351654,42.61496,156.9064,0.0047884034,1442850,392,2168,1894,2749
66979470,3999,0,-0.30609003,-0.7889022,-9.638748,0.012342371,-0.0025811438,-0.056836702,42.609417,156.9064,0.0047884034,1442850,464,-961,-3933,2747
67079470,4000,0,-0.5087502,0.6076402,-9.550948,-0.0009569526,0.019478846,-0.03691572,42.628807,156.9064,0.0047884034,1442850,-151,41,850,2754
67183490,3966,0,-0.4898179,1.3073483,-9.954632,-0.01135555,0.0116937645,-0.012679119,42.63158,156.9064,0.0047884034,1442850,-577,29,965,2755
67284247,3986,0,-0.12259594,-0.36723343,-8.964318,-0.020701276,-0.013619646,-0.04262153,42.65097,156.9064,0.0047884034,1442850,776,-474,-5384,2762
67384246,3994,0,-0.19887352,-1.3663272,-10.081344,-0.00067602657,0.009569343,-0.04197517,42.66759,156.9064,0.0047884034,1442850,-1117,-549,-50,2768
67484247,3994,0,-0.7535632,-0.9516682,-10.254168,-0.011356303,0.009859414,-0.032888018,42.68144,156.9064,0.0047884034,1442850,152,668,-2960,2773
67589108,4038,0,0.1434095,1.9548343,-9.156918,0.01711918,0.0059680343,-0.054085575,42.63989,156.9064,0.0047884034,1442850,1070,-46,-4651,2758
67689070,4000,0,0.36985448,1.6237518,-9.7068205,-0.007003041,0.0016085738,-0.074296355,42.6759,156.9064,0.0047884034,1442850,44,87,-843,2771
67789077,3993,0,0.68093276,0.84500146,-10.564503,0.020614848,-0.010214659,-0.02671573,42.66759,156.9064,0.0047884034,1442850,-159,2233,1067,2768
67893070,3987,0,0.1279378,-1.2180654,-9.517114,-0.0036032659,-0.00073796837,-0.016771514,42.6482,156.9064,0.0047884034,1442850,932,1079,-1372,2761
67993910,4040,0,0.095175184,-0.2986821,-10.261935,-0.0098343715,0.009667184,-0.062213756,42.68144,156.9064,0.0047884034,1442850,700,-1350,-449,2773
68093870,4000,0,-0.39193693,1.3896642,-10.108106,-0.011137501,0.01283966,-0.026441136,42.66205,156.9064,0.0047884034,1442850,-447,-311,2009,2766
68193911,4041,0,0.16263884,1.8743547,-9.290049,-0.027348224,-0.014434772,-0.0063081644,42.69529,156.9064,0.0047884034,1442850,1518,790,-4316,2778
68298697,3982,0,-0.021191958,-1.0223824,-10.166743,0.0060355477,-0.005656017,-0.06929986,42.68421,156.9064,0.0047884034,1442850,-310,39,-3144,2774
68398728,4040,0,0.21478216,-1.1357386,-10.140976,0.01264352,-0.008272834,-0.025859073,42.69529,156.9064,0.0047884034,1442850,398,905,895,2778
68502695,3977,0,0.62140965,1.2965302,-9.276264,-0.0065620537,0.0025246511,-0.04494231,42.71191,156.9064,0.0047884034,1442850,1908,1258,-1854,2784
68603447,3963,0,1.1695671,2.126837,-10.1753025,0.0052722157,-0.00051349425,-0.05303054,42.700832,156.9064,0.0047884034,1442850,1424,499,85,2780
68703446,3999,0,-0.21869707,0.60606474,-10.615835,-0.007552735,-0.009604845,-0.030558458,42.72853,156.9064,0.0047884034,1442850,-114,1706,274,2790
68807459,4012,0,-1.6664042,-1.9519848,-9.605448,0.014263948,0.022580381,-0.025370225,42.74792,156.9064,0.0047884034,1442850,-2729,-750,-767,2797
68908270,3994,0,-0.43355685,-0.40226,-9.309007,-0.0035466817,0.0044700727,-0.084775165,42.700832,156.9064,0.0047884034,1442850,277,-1812,-4020,2780
69012276,4000,0,0.4428416,1.0717111,-9.267118,-0.02080368,-0.004082553,-0.058288626,42.734074,156.9064,0.0047884034,1442850,1469,-1480,-1381,2792
69112270,4000,0,1.3344089,1.0450151,-9.448985,-0.0122723775,-0.0050791423,-0.01570475,42.736843,156.9064,0.0047884034,1442850,1449,-70,-457,2793
69217071,3994,0,0.48701358,-1.7360309,-9.4639635,0.0058224285,-0.0068139117,-0.028625611,42.68421,156.9064,0.0047884034,1442850,1054,-449,-3460,2774
69317115,4021,0,-0.33202234,-0.9758343,-9.529387,0.010794234,0.009063395,-0.03242019,42.734074,156.9064,0.0047884034,1442850,66,636,-1857,2792
69417076,3998,0,-0.7546621,0.5180172,-9.529762,0.026442941,0.0045912163,-0.05993034,42.7036,156.9064,0.0047884034,1442850,-1473,-812,-2296,2781
69517876,4006,0,0.17833145,1.8922129,-9.255342,0.011434797,0.008880826,-0.04031126,42.756233,156.9064,0.0047884034,1442850,-326,1206,-3268,2800
69621950,4079,0,0.4944578,0.3014192,-9.374441,-0.0054947007,-0.011559265,-0.01965952,42.753464,156.9064,0.0047884034,1442850,211,722,-3296,2799
69721870,4000,0,0.14994103,-1.1780691,-9.693886,-0.014031093,-0.010083216,-0.05985504,42.720222,156.9064,0.0047884034,1442850,763,-1037,-3334,2787
69822652,4005,0,0.21745788,-0.9465135,-10.120768,-0.024017535,-0.0013202298,-0.013766359,42.722992,156.9064,0.0047884034,1442850,2371,1623,-1821,2788
69926646,3994,0,0.10492885,1.0797752,-8.159955,0.008687584,0.014276825,-0.034797005,42.74792,156.9064,0.0047884034,1442850,548,-205,-6427,2797
70026647,4001,0,0.07051166,1.1834416,-9.227896,0.018629307,0.0037213077,-0.0665391,42.74792,156.9064,0.0047884034,1442850,-126,-266,-2699,2797
70127481,4835,0,0.3807424,0.89747566,-10.491407,0.019027092,-0.014440687,-0.05552442,42.775623,156.9064,0.0047884034,1442850,-163,589,-665,2807
70231470,3958,0,0.16195999,-1.6411098,-9.705129,-0.013716552,-0.0017156582,-0.044008322,42.786705,156.9064,0.0047884034,1442850,1783,-636,-2699,2811
70331470,3957,0,-0.8900637,-0.39641958,-10.360275,-0.00064256205,-0.00033897336,-0.044595614,42.814404,156.9064,0.0047884034,1442850,-873,-861,-1474,2821
70432285,3970,0,-1.1752939,0.7238681,-9.806651,-0.018113023,0.021113222,-0.02262782,42.76454,156.9064,0.0047884034,1442850,-1104,-1187,305,2803
70536284,3985,0,-0.6412658,1.9014795,-10.144994,0.029460097,-0.00035645533,-0.055094436,42.775623,156.9064,0.0047884034,1442850,-2318,1529,-1960,2807
70640277,3999,0,-0.0967232,-1.234278,-10.043582,-8.5873646e-05,-0.0019002226,-0.023847938,42.78393,156.9064,0.0047884034,1442850,-90,-851,-3273,2810
70741071,4787,0,-0.9477742,-0.71546644,-9.664742,-0.0120380595,0.019068446,-0.05972697,42.789474,156.9064,0.0047884034,1442850,-941,162,-2658,2812
70841070,4000,0,-1.0473984,0.37664646,-9.591423,-0.020842046,0.013008883,-0.054818917,42.76731,156.9064,0.0047884034,1442850,558,-359,-2239,2804
70945070,3965,0,-0.64342374,1.7581794,-9.093729,0.038355276,0.011548713,-0.033724558,42.833794,156.9064,0.0047884034,1442850,-1946,667,-2221,2828
71045847,3958,0,0.45124814,0.5322985,-10.358049,-0.007071673,-0.0042172354,-0.06922555,42.814404,156.9064,0.0047884034,1442850,-63,706,-1711,2821
71145846,3999,0,0.8223213,-1.1310844,-10.203819,-0.011299036,-0.019347988,-0.039373763,42.811634,156.9064,0.0047884034,1442850,2004,1010,-2646,2820
71249846,3999,0,-0.9345043,-0.5446129,-9.253758,-0.029858839,0.015108157,-0.05497647,42.789474,156.9064,0.0047884034,1442850,1645,-1142,-4946,2812
71349846,3993,0,-0.40439314,0.38719043,-9.785322,0.011143834,0.011009,-0.017434606,42.828255,156.9064,0.0047884034,1442850,-1538,457,-577,2826
71450670,4000,0,0.06259572,1.2021157,-9.215429,0.018178988,0.0025516127,-0.050501484,42.833794,156.9064,0.0047884034,1442850,-760,-336,-998,2828
71554676,4006,0,1.3280015,-0.16800885,-10.657531,-0.0077981297,-0.019343486,-0.01950328,42.839336,156.9064,0.0047884034,1442850,1803,698,1026,2830
71658670,3929,0,-0.3891991,-1.3237447,-9.071664,-0.0071441513,0.012872019,-0.046101727,42.808865,156.9064,0.0047884034,1442850,-99,-1005,-5406,2819
71759470,3915,0,-0.6525086,0.76502216,-9.467493,0.0081926035,-0.0039632195,-0.007178635,42.842106,156.9064,0.0047884034,1442850,51,1261,-1810,2831
71859524,4054,0,-0.27429998,1.3875341,-9.244558,0.0010429213,0.011615507,-0.04188426,42.853184,156.9064,0.0047884034,1442850,-867,-1725,-2079,2835
71963470,3993,0,0.8588837,1.0916867,-10.62423,0.005217302,-0.016838687,-0.043272153,42.867035,156.9064,0.0047884034,1442850,114,879,2224,2840
72064278,4000,0,1.0349531,-1.0448098,-9.902449,0.01227073,-0.011011906,-0.036419418,42.847645,156.9064,0.0047884034,1442850,1055,408,-2471,2833
72164278,4000,0,0.5022558,-1.5356213,-10.963291,-0.010759174,-0.0063820044,-0.045537688,42.853184,156.9064,0.0047884034,1442850,1605,-841,-1188,2835
72268278,4000,0,-0.42810497,0.8610032,-9.163675,0.020669544,0.017008327,-0.02965184,42.861496,156.9064,0.0047884034,1442850,-442,-824,-965,2838
72369046,3993,0,-0.8076992,2.023082,-9.341369,0.033573665,0.005381882,-0.050341047,42.850414,156.9064,0.0047884034,1442850,-2002,145,-4463,2834
72469077,4024,0,-0.3329506,1.6151626,-10.267539,0.014304607,-0.0069583254,-0.053131256,42.861496,156.9064,0.0047884034,1442850,-989,1918,94,2838
72573053,4007,0,0.30233502,-1.233905,-9.642511,-0.00060177967,-0.008455673,-0.053011425,42.855957,156.9064,0.0047884034,1442850,1300,162,-5094,2836
72677870,3994,0,-0.57517475,-0.008142709,-9.400773,-0.009411575,0.0139397085,-0.036774464,42.850414,156.9064,0.0047884034,1442850,-818,-1623,-443,2834
72777914,4044,0,-0.8641509,1.6854427,-8.889958,0.022385508,0.01225525,-0.03377153,42.878117,156.9064,0.0047884034,1442850,-983,-885,-2606,2844
72877878,4000,0,-1.0307612,2.256155,-9.869502,0.0079836715,0.015494274,-0.04407735,42.880886,156.9064,0.0047884034,1442850,-2741,654,-801,2845
72982686,4015,0,0.70253265,-1.0609672,-10.194606,-0.0026232563,-0.013659901,-0.046915963,42.878117,156.9064,0.0047884034,1442850,1340,-634,-3083,2844
73082712,4039,0,-0.37898165,-0.8374861,-11.006144,-0.0030528451,-0.0047041327,-0.03735784,42.878117,156.9064,0.0047884034,1442850,-267,471,-335,2844
73182695,4025,0,-0.25954065,-0.7914432,-9.885032,-0.02230157,0.00765028,-0.03134859,42.891968,156.9064,0.0047884034,1442850,724,-1628,-922,2849
73287528,4038,0,-0.4153899,2.3819535,-9.302661,0.017457804,0.018444004,-0.035732485,42.878117,156.9064,0.0047884034,1442850,-1374,936,-3177,2844
73391495,4025,0,1.0847409,0.055126827,-9.957062,0.02459324,-0.006653649,-0.042809702,42.886425,156.9064,0.0047884034,1442850,846,860,-3957,2847
73491486,4016,0,-0.09534126,-0.99796194,-10.883818,-0.004090311,-0.008090118,-0.04508508,42.903046,156.9064,0.0047884034,1442850,-57,-431,-976,2853
73592273,4027,0,-0.9209893,-0.66290784,-10.118023,-0.01919994,-0.0036928144,-0.026106857,42.905815,156.9064,0.0047884034,1442850,-264,99,-789,2854
73696247,4000,0,-0.6436959,1.8561227,-9.331863,0.019611437,0.013114252,-0.052985914,42.900276,156.9064,0.0047884034,1442850,-1960,394,-3015,2852
73796246,4000,0,-0.8512247,1.7559098,-9.801891,0.01704372,0.007843433,-0.03745921,42.90859,156.9064,0.0047884034,1442850,-1384,45,-1057,2855
73896264,3988,0,-0.13788307,0.5878535,-9.073556,0.00014268968,-0.014082182,-0.03623681,42.897507,156.9064,0.0047884034,1442850,-277,170,-4355,2851
74001070,3993,0,0.090735845,-1.3370427,-10.291165,-0.017094925,-0.0014560479,-0.0471359,42.891968,156.9064,0.0047884034,1442850,1036,-1344,-293,2849
74105071,4001,0,-1.5432844,0.60239667,-9.658603,-0.006774366,0.022206588,-0.051664732,42.922436,156.9064,0.0047884034,1442850,-1652,-1625,-14,2860
74205079,4000,0,-0.76357746,1.6853243,-9.279911,-0.022655353,-0.0007679935,-0.04768546,42.919666,156.9064,0.0047884034,1442850,352,-63,-4927,2859
74305891,4013,0,0.8840503,1.1727128,-8.966776,0.011253364,0.0018296842,-0.03043589,42.903046,156.9064,0.0047884034,1442850,-53,1516,-2092,2853
74409919,4041,0,1.0441788,-1.3075582,-10.518906,-0.02868763,-0.019679368,-0.03045825,42.914127,156.9064,0.0047884034,1442850,2432,1752,-541,2857
74509878,4001,0,0.1629326,-1.3945918,-9.910002,-0.009979757,-0.003476834,-0.011686306,42.916897,156.9064,0.0047884034,1442850,1858,-1233,-2877,2858
74610677,4007,0,-0.422281,0.54313356,-9.51294,0.0015627118,0.0049011623,-0.039679844,42.92798,156.9064,0.0047884034,1442850,-672,-305,-293,2862
74714670,3995,0,-0.6149622,1.3052887,-9.723273,-0.00057942607,-0.00388359,-0.020561555,42.950138,156.9064,0.0047884034,1442850,-1678,329,176,2870
74814670,3957,0,0.39384374,-0.20286004,-9.588836,-0.009528274,-0.00016080122,-0.029809847,42.939056,156.9064,0.0047884034,1442850,650,-1265,-3150,2866
74915446,3981,0,-0.1671914,-0.9958219,-10.801366,-0.023580924,-0.009817667,-0.04531449,42.919666,156.9064,0.0047884034,1442850,-385,621,368,2859
75019488,4035,0,-0.37717208,-0.5071031,-9.654164,0.008688527,0.012785522,-0.03957006,42.933517,156.9064,0.0047884034,1442850,-885,-23,-1168,2864
75119447,3934,0,-0.9427665,1.0007144,-9.256472,0.026265107,-0.00313274,-0.044745784,42.930748,156.9064,0.0047884034,1442850,-393,579,-4632,2863
75220270,3963,0,-0.0104027,1.8560004,-9.340318,0.01985208,0.0072446857,-0.015282068,42.92521,156.9064,0.0047884034,1442850,-1445,578,-1688,2861
75324270,3978,0,0.12820493,-0.13408315,-10.399455,-0.0040174,-0.022893129,-0.038134903,42.939056,156.9064,0.0047884034,1442850,-281,1317,-2427,2866
75428270,3985,0,-0.62412125,-0.89080477,-9.359781,0.008363842,0.0045152684,-0.04671953,42.936287,156.9064,0.0047884034,1442850,-983,-402,-4450,2865
75529070,3981,0,-1.3263503,0.6045298,-10.250809,0.0026347237,0.015382313,-0.029474348,42.94737,156.9064,0.0047884034,1442850,-2088,339,584,2869
75629082,3972,0,-0.83030415,1.1436192,-9.083359,-0.0019937854,0.015767679,-0.035417296,42.98615,156.9064,0.0047884034,1442850,-727,-1507,-3003,2883
75733070,3993,0,0.3601241,0.98649234,-10.575826,0.0009348399,-0.0024232534,-0.066131786,42.955677,156.9064,0.0047884034,1442850,-267,393,1104,2872
75833885,4007,0,0.16075987,-1.1379594,-9.669257,-0.0016489316,-0.016681854,-0.03116281,42.96399,156.9064,0.0047884034,1442850,1084,-142,-4920,2875
75933878,4000,0,-0.008433027,-1.1895088,-9.438793,-0.0030619875,0.002930212,-0.047726016,42.96676,156.9064,0.0047884034,1442850,1532,573,-1564,2876
76037889,3999,0,-0.048015412,1.0639452,-9.89611,-0.021417286,-0.004984976,-0.017342389,42.96953,156.9064,0.0047884034,1442850,957,-24,-24,2877
76137878,3994,0,0.29087323,1.9167697,-9.067869,-0.003794369,-0.0009371578,-0.028460838,42.991688,156.9064,0.0047884034,1442850,1225,-907,-2767,2885
76238670,4000,0,0.31932494,0.8343497,-9.959458,-0.011113779,-0.010530348,-0.053628176,43.0,156.9064,0.0047884034,1442850,-291,572,-1359,2888
76342657,3979,0,-1.0309868,-1.6013893,-10.141356,0.00825853,0.0023188458,-0.027124722,43.00554,156.9064,0.0047884034,1442850,-2516,243,26,2890
76446676,3965,0,-0.15804228,0.8115365,-10.159886,0.01869788,-0.007779032,-0.034562718,42.975067,156.9064,0.0047884034,1442850,197,1233,-1221,2879
76547478,3960,0,0.12889275,1.7974981,-9.681061,-0.0012516574,0.006380586,-0.026026277,42.94183,156.9064,0.0047884034,1442850,310,852,-96,2867
76647567,4083,0,0.84669656,1.6451865,-8.708409,-0.006681497,-0.008178713,-0.04630601,42.99723,156.9064,0.0047884034,1442850,1239,-217,-4853,2887
76752271,3950,0,-0.4277419,-1.1552444,-10.430516,-0.038096502,-0.01620733,-0.058357272,43.01939,156.9064,0.0047884034,1442850,620,189,-1005,2895
76856298,3996,0,-1.166483,-0.5917478,-9.714602,0.0035711555,0.018431844,-0.050659798,42.99446,156.9064,0.0047884034,1442850,-1621,-241,136,2886
76956270,4000,0,0.14313985,0.9662071,-8.148219,0.012303429,0.001433814,-0.03742141,43.0,156.9064,0.0047884034,1442850,747,458,-5621,2888
77060270,3989,0,1.1365451,1.9781548,-9.520376,-0.018832194,-0.019171499,-0.01838798,43.02493,156.9064,0.0047884034,1442850,2523,1796,-3680,2897
77161071,4001,0,1.3563094,0.049936984,-10.768292,-0.010617973,-0.012602399,-0.00073653646,43.01662,156.9064,0.0047884034,1442850,1829,152,2224,2894
77261053,3973,0,-0.11150063,-1.21866,-10.150703,-0.0010722172,-0.00730062,-0.021750573,43.03324,156.9064,0.0047884034,1442850,845,-721,-3591,2900
77365047,3986,0,-1.0512958,0.02282688,-10.135663,0.013943241,0.011967934,-0.04833605,43.044323,156.9064,0.0047884034,1442850,-1247,-135,-773,2904
77465870,3972,0,-1.6850708,1.4882003,-10.022258,0.023751926,0.011376555,-0.014645537,43.00277,156.9064,0.0047884034,1442850,-3291,163,246,2889
77565870,4000,0,-0.1731435,1.4088519,-8.885909,0.004716465,0.0075286226,-0.0433186,43.05817,156.9064,0.0047884034,1442850,-201,-1716,-5002,2909
77665876,4006,0,-0.16022074,1.0833898,-9.011865,0.018798277,0.0019046139,-0.064955175,43.05817,156.9064,0.0047884034,1442850,-443,-360,-4128,2909
77769907,4030,0,0.24787933,-1.5054568,-10.169351,0.013719487,-0.012139886,-0.034880217,43.047092,156.9064,0.0047884034,1442850,512,-208,-2960,2905
77874676,3981,0,-0.2509817,0.28240484,-9.890679,-0.0069332793,0.0067671523,-0.054282647,43.03324,156.9064,0.0047884034,1442850,1682,-1011,-2377,2900
77974710,4028,0,-0.0167731,1.4602686,-10.051432,-0.014782365,0.00538602,-0.04460914,43.066483,156.9064,0.0047884034,1442850,-358,285,848,2912
78075535,4051,0,0.4378115,1.4267794,-8.998156,-0.0115962885,-0.017855976,-0.0025047073,43.05263,156.9064,0.0047884034,1442850,2004,-3,-4947,2907
78179478,3968,0,0.03612278,-1.0268415,-9.853004,-0.027941037,-0.008281586,-0.05507686,43.063713,156.9064,0.0047884034,1442850,1204,409,-4794,2911
78279484,4006,0,-0.41369748,-1.2455378,-10.365522,-0.0018953267,0.002105451,-0.00048690662,43.047092,156.9064,0.0047884034,1442850,-667,331,1224,2905
78380247,4001,0,-1.0538281,-0.14418687,-9.516667,0.01256745,0.009775678,-0.051917814,43.096954,156.9064,0.0047884034,1442850,-1702,-1248,-1655,2923
78484247,4001,0,0.37203324,2.3114834,-10.295568,0.0008857404,-0.0042532943,-0.047051255,43.05817,156.9064,0.0047884034,1442850,795,72,501,2909
78588246,4000,0,0.5706998,0.15025109,-9.973257,-0.0166211,-0.005146183,-0.044926777,43.05263,156.9064,0.0047884034,1442850,828,73,-1822,2907
78689077,4001,0,-0.28548038,-1.0711565,-10.668819,-0.01009647,-0.012027267,-0.049168855,43.066483,156.9064,0.0047884034,1442850,727,252,-1314,2912
78793070,4000,0,-0.23564102,0.045729503,-9.121852,0.019560846,0.0089009,-0.054114766,43.066483,156.9064,0.0047884034,1442850,32,-952,-2601,2912
78893076,4003,0,-0.14251165,1.5929343,-9.273516,0.016644312,0.012126051,-0.049606673,43.07202,156.9064,0.0047884034,1442850,-1392,490,-1666,2914
78993083,4006,0,0.22861318,1.8920861,-9.029021,0.008518861,0.0041481857,-0.049252037,43.096954,156.9064,0.0047884034,1442850,966,39,-4867,2923
80112276,3969,0,0.15624075,-0.43419394,-9.54927,0.0068441876,-0.008770644,-0.04192098,43.132965,156.9064,0.0047884034,1442850,302,609,-4032,2936
80216270,3994,0,-0.32211253,-0.82423174,-10.688058,-0.0012858915,-0.0018988166,-0.041821714,43.135735,156.9064,0.0047884034,1442850,457,-658,-751,2937
80317084,4814,0,0.22689025,0.9344056,-8.843076,-0.0036844593,0.010944116,-0.036509734,43.141273,156.9064,0.0047884034,1442850,1054,-127,-764,2939
80417110,4032,0,-0.2567785,1.6312265,-8.837266,0.032402847,0.007613672,-0.019980125,43.146812,156.9064,0.0047884034,1442850,-1144,373,-1690,2941
80521078,3982,0,0.960658,0.0277451,-10.196664,0.005913016,-0.008366557,-0.05580599,43.155125,156.9064,0.0047884034,1442850,959,-275,-2133,2944
80621871,3963,0,0.10862016,-1.4938934,-10.280565,0.001930864,-0.0031645403,-0.039072577,43.152355,156.9064,0.0047884034,1442850,591,1322,-1734,2943
80721876,4006,0,-0.023172136,-1.0083424,-9.542909,0.0010675155,-0.00766479,-0.037850432,43.138504,156.9064,0.0047884034,1442850,857,-702,-3582,2938
80825870,3993,0,0.3255692,1.4056915,-8.592016,-0.013331926,-0.007409474,-0.050546303,43.171745,156.9064,0.0047884034,1442850,1518,-910,-5424,2950
80925870,3997,0,0.573906,1.6346159,-10.009675,-0.025783341,-0.0036546723,-0.046124693,43.124653,156.9064,0.0047884034,1442850,1881,-102,672,2933
81026646,3999,0,-0.023170687,0.100972354,-10.058945,0.0008271131,-0.0137158055,-0.028473124,43.168976,156.9064,0.0047884034,1442850,132,372,-2840,2949
81130646,4000,0,-0.17866237,-1.2930845,-9.281635,0.025115583,0.0025703209,-0.04226568,43.177284,156.9064,0.0047884034,1442850,-758,-1029,-3790,2952
81230712,4059,0,-1.1913872,-0.22845973,-9.771376,0.01391335,0.020875294,-0.06154166,43.121883,156.9064,0.0047884034,1442850,-927,-64,-2731,2932
81331559,4089,0,0.08885368,1.0287699,-9.611483,-0.0037392413,0.009197318,-0.04671567,43.202217,156.9064,0.0047884034,1442850,330,-1139,-948,2961
81435517,4047,0,0.33802122,0.9420157,-9.365974,-0.024998073,-0.0042992085,-0.06784161,43.157894,156.9064,0.0047884034,1442850,2006,-640,-3618,2945
81535470,4000,0,1.00882,0.18995616,-10.750379,-0.028047089,-0.013717568,-0.025732653,43.185596,156.9064,0.0047884034,1442850,2216,1164,-73,2955
81636277,4000,0,-0.24748224,-1.3996488,-9.509638,0.01230365,0.0035815423,-0.036868885,43.155125,156.9064,0.0047884034,1442850,-439,-853,-2129,2944
81736270,3993,0,-1.1488681,-0.8161472,-9.609925,0.027017208,0.01922628,-0.03409703,43.166206,156.9064,0.0047884034,1442850,-1925,295,-3293,2948
81840291,3984,0,-0.29363734,1.47846,-9.315147,0.0036793156,-0.0038127713,-0.02095553,43.210526,156.9064,0.0047884034,1442850,191,-60,-2306,2964
81941078,3987,0,0.44835126,1.171201,-9.331317,-0.015264245,0.0056975614,-0.064243466,43.23546,156.9064,0.0047884034,1442850,472,-460,-2723,2973
82041078,3963,0,1.7294188,0.5119686,-10.592015,-0.016019411,-0.01805312,-0.046878677,43.204987,156.9064,0.0047884034,1442850,1862,1974,-154,2962
82145087,3969,0,-0.56990135,-1.5560529,-10.090569,-0.016022215,0.008026598,-0.05185896,43.180054,156.9064,0.0047884034,1442850,-437,-927,-38,2953
82245078,4000,0,-1.2802132,-0.084782265,-10.146744,-0.014795285,-0.0007235869,-0.024695603,43.174515,156.9064,0.0047884034,1442850,153,1092,-2050,2951
82345847,4000,0,-0.37298343,0.84031516,-8.323899,-0.008914427,0.019634038,-0.030075017,43.216064,156.9064,0.0047884034,1442850,-457,-2057,-4150,2966
82449870,4000,0,-0.07616605,1.0763347,-9.078903,0.005320676,-0.009785775,-0.015048162,43.191135,156.9064,0.0047884034,1442850,-420,1018,-3994,2957
82549872,4002,0,-0.090955235,-0.5121182,-9.702937,0.0054364614,-0.0067628473,-0.04481209,43.202217,156.9064,0.0047884034,1442850,-201,-518,-2659,2961
82650709,4031,0,0.2303678,-1.837975,-10.484009,-0.02748172,-0.009081905,-0.035596453,43.221607,156.9064,0.0047884034,1442850,2205,-46,-2530,2968
82754678,3994,0,-1.0928586,0.1733748,-9.65215,-0.016184842,0.022519903,-0.05339925,43.199448,156.9064,0.0047884034,1442850,1050,-1342,-3756,2960
82854678,3997,0,-0.41624555,0.84597313,-9.766714,0.0059311856,0.021790083,-0.014567512,43.210526,156.9064,0.0047884034,1442850,-487,-1029,287,2964
82955470,4000,0,-0.7382933,1.9826893,-10.412382,-0.017594475,0.0071560377,-0.029395582,43.177284,156.9064,0.0047884034,1442850,-504,763,-803,2952
83059483,4013,0,-0.53583926,0.04637236,-10.219653,0.014505681,0.01074488,-0.05672627,43.218838,156.9064,0.0047884034,1442850,-852,778,-1596,2967
83159477,3961,0,0.09713164,-1.1883955,-10.130834,0.000832409,-0.0097048525,-0.0051467093,43.210526,156.9064,0.0047884034,1442850,263,1130,-1593,2964
83260270,3948,0,-1.6543394,-0.4767467,-9.792732,-0.010507034,0.016499367,-0.042969577,43.229916,156.9064,0.0047884034,1442850,-1461,-398,-2263,2971
83360246,3999,0,-0.6004428,0.36359823,-10.201319,-0.012573664,-0.0037335495,-0.026658963,43.25485,156.9064,0.0047884034,1442850,-607,-287,1132,2980
83464278,4032,0,-0.45956817,1.6984864,-9.733563,0.0065544937,0.0051040826,-0.038752884,43.246536,156.9064,0.0047884034,1442850,-271,249,-2331,2977
83565070,3994,0,-0.2999603,-0.3029987,-9.664701,-0.016884344,0.005047557,-0.035894483,43.243767,156.9064,0.0047884034,1442850,225,-653,-2238,2976
83665070,3987,0,0.35874593,-0.7675814,-10.88108,-0.018040173,-0.010343893,-0.050149597,43.260387,156.9064,0.0047884034,1442850,1552,25,-687,2982
83769076,4006,0,-1.3239369,-0.20265013,-9.395702,-0.002083786,0.009250317,-0.02118507,43.29363,156.9064,0.0047884034,1442850,-179,-182,-4572,2994
83873870,4000,0,-0.09697165,2.058039,-8.82174,0.031502422,0.011851889,-0.03122307,43.285316,156.9064,0.0047884034,1442850,-2062,335,-2035,2991
83973870,4000,0,-0.15062997,1.5650067,-9.7106285,0.018022234,0.0013195411,-0.03456887,43.279778,156.9064,0.0047884034,1442850,-989,1239,-1392,2989
84077870,3993,0,0.068200745,-0.5871512,-10.136832,0.022808474,-0.0016554934,-0.060754962,43.265926,156.9064,0.0047884034,1442850,-509,-413,-1181,2984
84177876,3971,0,0.05784997,-1.3195107,-10.018195,0.0129263615,-0.00075523875,-0.035146702,43.277008,156.9064,0.0047884034,1442850,817,39,-2686,2988
84278712,3975,0,-0.8184273,0.005388103,-9.298187,0.020096693,0.01982372,-0.028856575,43.265926,156.9064,0.0047884034,1442850,-669,-31,-2983,2984
84382686,4001,0,0.05169055,2.4188492,-9.585764,0.030396,-0.0017341081,-0.032409966,43.318558,156.9064,0.0047884034,1442850,-470,-162,-1818,3003
84486687,4009,0,0.3535183,-0.067408755,-10.706744,-0.007395881,-0.011217006,-0.026020728,43.282547,156.9064,0.0047884034,1442850,-535,810,49,2990
84587446,4000,0,1.0500937,-1.6410207,-9.664699,-0.019790666,-0.0035926546,-0.022732126,43.29363,156.9064,0.0047884034,1442850,2990,125,-2167,2994
84687447,3988,0,-0.27537072,-1.0576663,-10.770666,-0.0030393554,-0.010747204,-0.016965298,43.282547,156.9064,0.0047884034,1442850,696,245,-392,2990
84791447,3995,0,-0.6128436,0.9281853,-9.5316,-0.02230916,0.025726233,-0.041211404,43.27424,156.9064,0.0047884034,1442850,186,-744,115,2987
84892279,4009,0,0.4475202,1.576238,-8.900392,-0.023112498,-0.013534797,-0.0090550175,43.279778,156.9064,0.0047884034,1442850,2093,-32,-3598,2989
84992296,4019,0,0.32255936,0.75330895,-10.000896,0.01159659,-0.011516911,-0.04914487,43.28809,156.9064,0.0047884034,1442850,810,165,-4517,2992
85096276,4006,0,-0.3966234,-1.0105311,-10.13211,-0.011738166,0.010993081,-0.023777714,43.30748,156.9064,0.0047884034,1442850,9,-118,-22,2999
85197071,3994,0,-0.2827121,-0.6667703,-9.846262,-0.013342758,-0.0011575222,-0.023809832,43.29363,156.9064,0.0047884034,1442850,1458,610,-3331,2994
85297071,3995,0,-0.114957,0.8060088,-9.437539,0.0101220375,0.0053474028,-0.034807596,43.32687,156.9064,0.0047884034,1442850,514,-1355,-3322,3006
85401083,3975,0,0.18908036,1.4557321,-9.996925,0.008273254,-0.013518652,-0.023596572,43.299168,156.9064,0.0047884034,1442850,615,165,-3917,2996
85501871,3963,0,0.055076554,0.038987298,-10.688026,-0.008004271,-0.006806133,-0.0870213,43.33241,156.9064,0.0047884034,1442850,-938,506,131,3008
85601910,4015,0,0.2702112,-1.5721222,-10.051861,0.008114628,-0.0096613495,-0.026352717,43.32964,156.9064,0.0047884034,1442850,-150,408,168,3007
85701870,3993,0,-1.1351639,-1.5148672,-9.970766,0.01146007,0.017698955,-0.03489827,43.36288,156.9064,0.0047884034,1442850,-1437,-80,-2741,3019
85805876,4006,0,-0.6553214,1.3812217,-8.832109,0.008367541,0.029112976,-0.04827352,43.34349,156.9064,0.0047884034,1442850,-691,-20,-3137,3012
85906646,3999,0,0.08819467,1.4693098,-8.786699,0.0012759401,-0.0008238321,-0.02065695,43.35734,156.9064,0.0047884034,1442850,-13,-900,-3623,3017
86006647,3999,0,0.05167411,0.81852263,-9.450411,0.007751495,-0.006604906,-0.042053975,43.3518,156.9064,0.0047884034,1442850,105,-835,-2694,3015
86110657,4011,0,-0.6571222,-1.5598197,-9.967189,-0.012529857,0.0017340394,-0.031134196,43.35734,156.9064,0.0047884034,1442850,-1223,182,-551,3017
86211476,4000,0,-0.84377587,-1.4802573,-10.888658,-0.012832101,0.009388418,-0.03250411,43.37673,156.9064,0.0047884034,1442850,-24,72,235,3024
86311511,3988,0,-0.76110834,-0.19067545,-9.465461,-0.01818516,-0.008434664,-0.03514244,43.35734,156.9064,0.0047884034,1442850,70,-456,-3513,3017
86415470,4000,0,-1.0246401,1.6232285,-9.673798,-0.01920432,0.010272231,-0.039351102,43.33795,156.9064,0.0047884034,1442850,-771,-551,-113,3010
86516277,3999,0,0.048828173,0.97291595,-9.659009,-0.018331805,0.0014626049,-0.036279384,43.3518,156.9064,0.0047884034,1442850,20,249,-892,3015
86616277,3999,0,0.5119688,-0.3725642,-10.043771,-0.042731635,-0.016021455,-0.05396439,43.38781,156.9064,0.0047884034,1442850,2312,1052,-2622,3028
86720278,3993,0,-0.9585478,-1.4186186,-9.151396,-0.015020156,0.0025925338,-0.045787983,43.396122,156.9064,0.0047884034,1442850,693,-1022,-5038,3031
86821071,4001,0,-1.0609303,0.66784745,-9.822736,-0.012836107,-0.0003786114,-0.011631496,43.36842,156.9064,0.0047884034,1442850,-18,-609,-2226,3021
86921070,3963,0,0.1735822,1.482081,-8.957723,-0.018816607,0.0021759807,-0.021069396,43.37119,156.9064,0.0047884034,1442850,1082,584,-1528,3022
87025071,4001,0,-0.022706278,0.0018789656,-10.329511,-0.008962201,-0.017649932,-0.027027354,43.36011,156.9064,0.0047884034,1442850,324,-452,-1776,3018
87125849,4002,0,0.69138527,-1.3431269,-9.448801,-0.008004638,-0.0105014155,-0.0422585,43.37673,156.9064,0.0047884034,1442850,1508,595,-4653,3024
87225870,4000,0,-0.7136982,-1.4613711,-9.779955,-0.013155837,0.0074082795,-0.03479301,43.36842,156.9064,0.0047884034,1442850,499,151,-2313,3021
87325871,4001,0,-0.446331,0.011778371,-9.135953,-0.0027443427,0.013647135,-0.037411056,43.39889,156.9064,0.0047884034,1442850,1603,-955,-4428,3032
87429911,4035,0,0.14759858,1.7366924,-9.364445,-0.030855993,0.010006567,-0.06403475,43.390583,156.9064,0.0047884034,1442850,824,-120,-1239,3029
87530708,4032,0,0.43978873,0.90209985,-10.60542,-0.0019562962,-0.006471818,-0.04126871,43.432133,156.9064,0.0047884034,1442850,-158,-642,1379,3044
87630670,3993,0,0.5755776,-0.2006644,-10.661245,-0.0027006823,-0.005233711,-0.07580218,43.40166,156.9064,0.0047884034,1442850,-86,32,302,3033
87734677,3961,0,-0.4034803,-1.0296972,-10.210836,0.010864744,-0.002405887,-0.024459396,43.38504,156.9064,0.0047884034,1442850,-276,1390,-1298,3027
87835471,4001,0,-1.5349429,0.96862996,-9.168412,0.03955739,0.017807571,-0.035340074,43.434902,156.9064,0.0047884034,1442850,-2235,413,-4669,3045
87935473,3990,0,-0.28798452,1.1282235,-9.503451,0.012747143,0.0046954663,-0.034754228,43.44044,156.9064,0.0047884034,1442850,-257,-1076,-3263,3047
88039470,4000,0,0.5416679,1.0891242,-9.976443,0.009984584,-0.008812019,-0.02657988,43.423824,156.9064,0.0047884034,1442850,-370,2363,-1235,3041
88140252,4006,0,-0.93516004,-1.2315348,-9.583298,-0.009451792,-0.00026361877,-0.03195271,43.39889,156.9064,0.0047884034,1442850,-964,821,-3397,3032
88240253,3956,0,0.43968242,-1.7534934,-10.455047,-0.017465565,-0.01446502,-0.019581517,43.432133,156.9064,0.0047884034,1442850,1886,817,-676,3044
88344264,3997,0,-0.93729615,0.21745977,-10.394528,-0.016440257,-0.0008364584,-0.027301477,43.42105,156.9064,0.0047884034,1442850,-538,-23,582,3040
88445071,3961,0,-0.18649189,2.1070771,-9.447792,0.009308951,0.005592991,-0.045961093,43.415512,156.9064,0.0047884034,1442850,-840,374,-2089,3038
88545112,4042,0,-0.030347718,1.3874238,-9.580166,0.0043323664,-0.008824075,-0.012938957,43.423824,156.9064,0.0047884034,1442850,-973,538,-1239,3041
88649092,4008,0,-0.012886783,-1.0427084,-10.604969,0.025589194,-0.011761542,-0.027996508,43.42105,156.9064,0.0047884034,1442850,-966,994,881,3040
88749878,4000,0,-1.0965209,-1.24131,-9.808153,0.0005381473,0.020071916,-0.033089217,43.490303,156.9064,0.0047884034,1442850,-1023,191,-2153,3065
88849883,4005,0,-0.19242735,-0.6342806,-10.013291,-0.015034103,-0.012970313,-0.009103003,43.443214,156.9064,0.0047884034,1442850,1208,151,-1124,3048
88949878,4000,0,-0.107617885,1.548215,-9.060209,0.04150476,0.010831427,-0.04383546,43.462605,156.9064,0.0047884034,1442850,-742,179,-5128,3055
89053878,3966,0,0.034281988,1.3932463,-9.090062,0.018021304,0.000562801,-0.030749936,43.459835,156.9064,0.0047884034,1442850,-1536,-51,-2907,3054
89154670,3962,0,0.18011525,-0.43561918,-9.479126,-0.0143057555,-0.008265778,-0.041287627,43.473682,156.9064,0.0047884034,1442850,184,7,-2872,3059
89254670,3999,0,0.14720672,-1.658532,-9.950899,0.0050860187,-0.01894344,-0.030007917,43.484764,156.9064,0.0047884034,1442850,-397,300,-1937,3063
89358671,4001,0,-0.56192505,0.040668137,-9.3842745,-9.5542055e-06,0.012000646,-0.053387932,43.493076,156.9064,0.0047884034,1442850,346,-577,-1806,3066
89459446,3993,0,-0.2395984,1.2854646,-9.035859,-0.008872291,0.012809798,-0.055366084,43.445984,156.9064,0.0047884034,1442850,951,-521,-3323,3049
89559446,3981,0,0.60056835,1.776899,-9.336763,-0.0022268868,-0.0050569596,-0.051318847,43.468143,156.9064,0.0047884034,1442850,1097,14,-2791,3057
89663453,4007,0,1.1492194,-0.38386393,-10.13792,0.014627153,-0.017155591,-0.022899952,43.459835,156.9064,0.0047884034,1442850,777,889,-2168,3054
89764290,4020,0,-0.6134685,-1.9693681,-10.003778,0.006754725,-0.00804933,-0.047673687,43.481995,156.9064,0.0047884034,1442850,615,-422,-4077,3062
89868270,3984,0,-1.0798512,0.43283498,-9.705361,0.015134286,0.01610054,-0.05587262,43.479225,156.9064,0.0047884034,1442850,-1046,-628,-4788,3061
89968270,4000,0,-0.94917935,0.4924704,-9.141917,-0.034570154,0.014336284,-0.060618185,43.473682,156.9064,0.0047884034,1442850,-198,-2646,-2676,3059
90073120,4037,0,-0.6071437,0.89254415,-9.231333,-0.0011679046,0.0005515143,-0.057863876,43.487534,156.9064,0.0047884034,1442850,-1095,-1315,-980,3064
90173071,3994,0,1.1922541,0.30027184,-10.469501,-0.008268862,-0.0061719697,-0.053769596,43.493076,156.9064,0.0047884034,1442850,1314,4,101,3066
90273072,3977,0,-0.35934934,-1.7356597,-9.6322775,-0.0054997765,-0.0040627327,-0.03697195,43.515236,156.9064,0.0047884034,1442850,382,-1683,-1667,3074
90377071,3961,0,-0.75317633,-0.04108535,-9.723516,0.00010280078,-0.00043754652,-0.01872737,43.509697,156.9064,0.0047884034,1442850,-1251,718,-49,3072
90477878,3960,0,-0.30138934,1.4225926,-9.274016,-0.012479937,0.011838382,-0.042879775,43.484764,156.9064,0.0047884034,1442850,300,49,-3034,3063
90577899,4015,0,0.27351746,2.6933224,-9.29097,0.015507635,-0.005059225,-0.024427846,43.484764,156.9064,0.0047884034,1442850,-488,846,-2507,3063
90681878,4000,0,0.3274514,0.58690864,-10.263953,0.030895505,-0.009496283,-0.021291312,43.531857,156.9064,0.0047884034,1442850,-567,723,-1607,3080
90782670,3986,0,-0.54343504,-1.5574875,-10.580207,-0.00216024,-0.008113056,-0.042362824,43.537395,156.9064,0.0047884034,1442850,-2068,636,951,3082
90882670,3991,0,0.7848992,-2.0507445,-9.727657,-0.00808957,0.003077695,-0.017345335,43.515236,156.9064,0.0047884034,1442850,1388,-103,456,3074
90986670,4000,0,-0.105285436,0.17066942,-9.807592,0.0043515703,0.015534429,-0.030206382,43.490303,156.9064,0.0047884034,1442850,430,-1398,-259,3065
91087484,4006,0,-0.47715268,1.9724456,-9.471096,0.0025955564,0.007543023,-0.058389403,43.520775,156.9064,0.0047884034,1442850,-1350,-297,-763,3076
91187484,3979,0,-0.20085177,1.3350874,-9.536483,0.0059595313,0.00092521403,-0.047220513,43.556786,156.9064,0.0047884034,1442850,-237,-883,-2480,3089
91291496,4018,0,0.47532815,-0.88348716,-9.925825,-0.015030857,0.0026101875,-0.036819458,43.554016,156.9064,0.0047884034,1442850,1034,779,-1307,3088
91392293,4023,0,-0.7642196,-1.2773136,-10.174559,0.0050996672,-0.00491606,-0.03715396,43.554016,156.9064,0.0047884034,1442850,-204,224,-1076,3088
91492289,4016,0,-0.65755993,-0.42815545,-9.36534,-0.036819138,0.01531631,-0.06692526,43.540165,156.9064,0.0047884034,1442850,1946,-2013,-5128,3083
91596295,4019,0,0.4351037,2.177444,-9.522125,-0.008133413,0.0045137694,-0.030791914,43.567867,156.9064,0.0047884034,1442850,810,456,-1745,3093
91697084,4037,0,0.44847542,1.635665,-9.201854,-0.006440713,-0.0027960888,-0.040855095,43.542934,156.9064,0.0047884034,1442850,-590,1490,-2724,3084
91801117,4071,0,0.23538193,-1.4069276,-9.252052,0.006992789,-0.007822135,-0.034231484,43.542934,156.9064,0.0047884034,1442850,634,-873,-4861,3084
91901046,3987,0,-1.1307443,-0.78511655,-10.475796,-0.029166581,0.018050872,-0.053550303,43.565098,156.9064,0.0047884034,1442850,-12,-528,211,3092
92001046,3974,0,-0.09724371,-0.31046987,-9.607303,0.02411859,0.010380497,-0.0293191,43.573406,156.9064,0.0047884034,1442850,187,-1714,-1786,3095
92105877,4006,0,-0.09099536,1.8542242,-9.103614,0.0017569163,0.0012599011,-0.028525922,43.567867,156.9064,0.0047884034,1442850,-936,857,-1239,3093
92205914,4044,0,0.13527095,0.88332057,-10.337068,0.0025444257,8.758856e-05,-0.047669314,43.534626,156.9064,0.0047884034,1442850,-1015,1029,633,3081
92309870,3993,0,-1.1777564,-1.3364754,-9.931085,-0.024065183,-0.0053264718,-0.055713616,43.556786,156.9064,0.0047884034,1442850,-692,-243,-3984,3089
92410671,4000,0,-0.34683153,-1.3438126,-9.65642,-0.0015720286,-0.00070017483,-0.017707195,43.559555,156.9064,0.0047884034,1442850,50,-1613,-2777,3090
92510671,3961,0,-1.1080551,0.82322603,-10.136096,0.030659862,0.010638269,-0.037988678,43.584488,156.9064,0.0047884034,1442850,-2120,393,-1350,3099
92614672,3985,0,0.9289979,2.3709707,-10.055635,-0.008677208,0.009356154,-0.06631765,43.60111,156.9064,0.0047884034,1442850,74,531,621,3105
92715478,3971,0,0.68079656,1.2819397,-9.5543165,0.026839782,0.0055314307,-0.05111383,43.6205,156.9064,0.0047884034,1442850,202,731,-1516,3112
92815478,3952,0,0.1783608,-0.72482276,-10.089049,-0.021295683,-0.008207238,-0.039177045,43.612186,156.9064,0.0047884034,1442850,1359,1143,-3223,3109
92915491,4013,0,0.29634345,-1.4032596,-9.828052,-0.023253478,-0.0015851879,-0.05027321,43.65651,156.9064,0.0047884034,1442850,1985,-221,-4377,3125
93020258,4005,0,-1.3891169,0.71356505,-9.117783,0.008776792,0.020367384,-0.024002632,43.61773,156.9064,0.0047884034,1442850,-1158,-335,-4441,3111
93120246,3994,0,-0.057234913,1.6291994,-9.68079,-0.0086900825,-0.008728788,-0.011303911,43.645428,156.9064,0.0047884034,1442850,144,-538,-2640,3121
93220246,3999,0,0.24992126,2.1829283,-9.983679,0.017283991,-0.0018111877,-0.0528005,43.609417,156.9064,0.0047884034,1442850,-320,1215,-3397,3108
93325070,4824,0,0.64818704,-0.6181722,-10.668432,-0.008409979,-0.009472658,-0.063044064,43.63712,156.9064,0.0047884034,1442850,450,1762,-1019,3118
93429078,4001,0,-0.26921454,-1.2049867,-9.946702,-0.014156216,0.012703095,-0.08003976,43.63712,156.9064,0.0047884034,1442850,1333,-1840,-1734,3118
93529078,3983,0,-0.8916499,0.51483494,-9.735114,0.026746687,0.0028981045,-0.026963152,43.65651,156.9064,0.0047884034,1442850,-979,-1273,-1640,3125
93633078,3963,0,-0.51375854,2.6777055,-9.822094,0.016394254,-0.0008726921,-0.029310469,43.63435,156.9064,0.0047884034,1442850,-2224,1537,181,3117
93733916,4015,0,-0.00533104,0.30884093,-9.407426,-0.00016054162,0.0010384265,-0.0211253,43.64266,156.9064,0.0047884034,1442850,-460,1325,-998,3120
93833911,4041,0,0.58591557,-0.48388967,-10.428278,-0.011947745,-0.0111001525,-0.05048403,43.65097,156.9064,0.0047884034,1442850,1258,1281,1208,3123
93933870,4000,0,-0.7070921,-1.4387447,-9.813872,-0.00346665,0.012249485,-0.022417918,43.68975,156.9064,0.0047884034,1442850,373,-1615,-2429,3137
94038670,3999,0,-1.3938478,1.0193477,-9.5603485,-0.001763843,0.018277202,-0.02423925,43.64266,156.9064,0.0047884034,1442850,-2113,-665,-680,3120
94138670,3992,0,0.05415691,1.7107201,-9.563719,-0.01567179,0.008788313,-0.048903205,43.664818,156.9064,0.0047884034,1442850,865,-558,-1200,3128
94238695,4018,0,0.011024342,1.3571017,-9.697221,0.008651219,0.0023550352,-0.04168783,43.65651,156.9064,0.0047884034,1442850,-1137,694,-928,3125
94343483,3976,0,0.084658414,-1.0753316,-10.007797,-0.00074545713,-0.006375995,-0.039221313,43.65374,156.9064,0.0047884034,1442850,1099,-419,-3152,3124
94447489,4019,0,-0.49264747,0.27444232,-9.870669,0.008652762,0.00936377,-0.06610371,43.7036,156.9064,0.0047884034,1442850,403,-376,-1642,3142
94547470,3993,0,-0.69815165,0.6503151,-9.2026825,-0.038531955,0.0033219308,-0.044605777,43.68975,156.9064,0.0047884034,1442850,1018,-1970,-2910,3137
94651489,4019,0,0.23073924,1.863543,-9.313213,0.009083719,-0.008554651,-0.025876014,43.69806,156.9064,0.0047884034,1442850,216,892,-4150,3140
94752271,3994,0,0.39585638,-0.41645506,-9.750976,-0.0024204552,-0.017693074,-0.026063113,43.68698,156.9064,0.0047884034,1442850,-391,-786,-1584,3136
94852270,4000,0,0.81798995,-1.0925324,-10.525646,0.012223358,-0.0055312514,-0.048407268,43.717453,156.9064,0.0047884034,1442850,-61,490,953,3147
94952278,4008,0,-0.6917169,-1.9568452,-10.279933,-0.0004379833,0.0005984963,-0.009925071,43.739613,156.9064,0.0047884034,1442850,-1179,406,86,3155
95057102,3998,0,-1.5207428,0.86447555,-10.035711,-0.017063372,0.017963799,-0.040107187,43.722992,156.9064,0.0047884034,1442850,-902,455,1026,3149
95161098,4020,0,0.28522044,1.6835198,-9.176582,0.0010519661,0.013166346,-0.05680407,43.700832,156.9064,0.0047884034,1442850,1057,-784,-4120,3141
95971470,3902,0,0.45806804,-1.7874452,-9.663304,0.013791218,-0.011365075,-0.01118361,43.742382,156.9064,0.0047884034,1442850,1132,-264,-2918,3156
96075483,4013,0,0.53664935,0.38148752,-9.912092,-0.009201811,-0.005449462,-0.005470058,43.74515,156.9064,0.0047884034,1442850,1852,938,207,3157
96175470,3999,0,0.034095954,1.982213,-8.888632,0.014778939,0.00858365,-0.052369956,43.74792,156.9064,0.0047884034,1442850,129,111,-5347,3158
96275483,4006,0,0.07981317,1.604655,-8.860216,-0.00032060477,-0.012589054,-0.042626396,43.76454,156.9064,0.0047884034,1442850,803,287,-5166,3164
96380276,4006,0,-0.25943127,-1.1275705,-9.67164,-0.0028645764,-0.011511522,-0.05940449,43.778393,156.9064,0.0047884034,1442850,-130,-724,-4511,3169
96480282,4012,0,-0.53577495,-2.0550568,-10.483971,-0.008708777,-0.0037840242,-0.031299815,43.74792,156.9064,0.0047884034,1442850,251,-1803,-889,3158
96580296,4026,0,-0.8403595,-0.33834803,-9.740005,-0.018578893,0.013120531,-0.06114905,43.781162,156.9064,0.0047884034,1442850,357,243,-2349,3170
96685050,3992,0,-0.44911715,1.7941985,-9.300647,-0.006611926,0.028242005,-0.028617267,43.786705,156.9064,0.0047884034,1442850,-1281,123,-517,3172
96785071,4001,0,0.57617944,2.1430569,-9.832477,-0.020993602,-0.0050757173,-0.036925264,43.800552,156.9064,0.0047884034,1442850,1681,552,-2630,3177
96885077,4007,0,0.5320083,0.57896835,-10.849714,0.008771515,-0.01878241,-0.0561493,43.786705,156.9064,0.0047884034,1442850,-135,-232,-324,3172
96989095,4025,0,-0.041489545,-1.4940094,-10.198165,0.0049720183,-0.0020333226,-0.047319077,43.76731,156.9064,0.0047884034,1442850,478,-1181,-2023,3165
97089908,4038,0,-0.31421077,-0.60941803,-10.118688,-0.022556454,0.002727894,-0.073999666,43.803326,156.9064,0.0047884034,1442850,1112,-728,-795,3178
97189870,3986,0,-0.07195539,0.9434302,-9.834466,0.01833979,-0.0030156965,-0.010509813,43.811634,156.9064,0.0047884034,1442850,157,975,2435,3181
97293895,4018,0,1.1493443,1.5911324,-8.923083,-0.024027273,-0.0072040074,-0.030054387,43.800552,156.9064,0.0047884034,1442850,2071,283,-3009,3177
97394710,4033,0,0.5940462,0.67165834,-10.65499,-0.0028536748,-0.0072850864,-0.047296956,43.803326,156.9064,0.0047884034,1442850,889,254,-633,3178
97494678,3994,0,0.106101036,-0.87705845,-10.352828,-0.0003221952,-0.012058098,-0.04368512,43.814404,156.9064,0.0047884034,1442850,-208,1436,-1899,3182
97598684,4006,0,-0.30796042,-0.3147,-9.340699,-0.00060395827,-9.37602e-05,-0.029233526,43.828255,156.9064,0.0047884034,1442850,-268,311,-2853,3187
97699447,3994,0,-0.31677353,1.1998411,-9.366232,-0.0057408065,0.0084548015,-0.04927033,43.817173,156.9064,0.0047884034,1442850,82,333,-1484,3183
97799447,3970,0,0.50292814,1.6934038,-8.955708,-0.024874324,-0.000868225,-0.065826945,43.831024,156.9064,0.0047884034,1442850,2229,-1221,-3391,3188
97899472,4025,0,1.9518768,1.5182271,-10.270502,-0.032246523,-0.01135252,-0.030171826,43.822716,156.9064,0.0047884034,1442850,3000,1019,-522,3185
98004270,3949,0,-0.18685433,-1.3946089,-9.501683,-0.010593449,-0.004699101,-0.06802054,43.825485,156.9064,0.0047884034,1442850,-103,-242,-3299,3186
98108292,3985,0,-0.37801713,-0.20223902,-10.049407,-0.017300315,0.0002393974,-0.029722573,43.828255,156.9064,0.0047884034,1442850,476,1356,297,3187
98208270,4000,0,-0.2116236,1.0666654,-9.456385,-0.016004268,-0.00013973692,-0.04515142,43.875347,156.9064,0.0047884034,1442850,674,-624,-2520,3204
98312270,3994,0,-1.2245005,1.1678562,-9.178815,0.010358963,0.012887046,-0.025593337,43.842106,156.9064,0.0047884034,1442850,-2483,-42,-1091,3192
98413071,3995,0,-0.053998414,-0.4093914,-9.924413,-0.005065168,-0.0056511816,-0.06045594,43.842106,156.9064,0.0047884034,1442850,-516,133,-984,3192
98513077,4007,0,0.19804835,-1.3670498,-9.23912,-0.021610463,0.0010169023,-0.04217124,43.867035,156.9064,0.0047884034,1442850,1161,-842,-3095,3201
98617071,4001,0,-1.1825656,0.055896793,-9.843534,-0.007992549,0.014720477,-0.04116155,43.842106,156.9064,0.0047884034,1442850,-921,-316,-93,3192
98717870,3993,0,-0.83388656,1.7179899,-9.718466,0.0024555968,0.014042703,-0.031371757,43.847645,156.9064,0.0047884034,1442850,-1820,762,-1006,3194
98817870,3993,0,-1.7882065,1.9834834,-9.676334,-0.0041778656,0.005887475,-0.051776785,43.853184,156.9064,0.0047884034,1442850,-2452,-128,-510,3196
98917870,3999,0,-0.2196767,1.4343249,-9.2914505,0.009464486,-0.0018788209,-0.039093472,43.850414,156.9064,0.0047884034,1442850,-182,-49,-3039,3195
99022685,4039,0,0.06546868,-1.2605715,-9.951607,-0.00830839,-0.013737948,-0.056950163,43.875347,156.9064,0.0047884034,1442850,829,249,-3738,3204
99122671,4024,0,-0.51643836,-0.7870397,-10.169059,-0.008898426,0.004805977,-0.050741706,43.875347,156.9064,0.0047884034,1442850,306,75,-217,3204
99222677,4001,0,-0.5176527,0.6492399,-9.8642645,-0.016903173,0.0051618284,-0.05218524,43.900276,156.9064,0.0047884034,1442850,809,-616,-751,3213
99327530,4860,0,-0.1706254,1.687546,-9.282851,0.023254123,0.007882008,-0.047002994,43.853184,156.9064,0.0047884034,1442850,-2488,118,-3548,3196
99431470,3993,0,0.6103378,-0.21483342,-10.659649,0.0016539553,-0.022443969,-0.014847903,43.900276,156.9064,0.0047884034,1442850,842,2304,-1656,3213
99531470,3974,0,0.84005195,-1.5319877,-10.161671,-0.01812971,-0.0060823383,-0.037478738,43.911358,156.9064,0.0047884034,1442850,1609,9,-1039,3217
99635534,4064,0,-1.387905,-0.1748397,-9.5364485,-0.025356587,0.016207116,-0.07075956,43.8892,156.9064,0.0047884034,1442850,-103,-1650,-3076,3209
99736288,4004,0,-0.6958707,0.9352375,-9.522837,0.011975071,0.007557496,-0.04146857,43.955677,156.9064,0.0047884034,1442850,-1143,-1005,-2078,3233
99836277,3993,0,0.3288336,1.2310331,-8.515123,0.008120013,-5.296734e-05,-0.03377178,43.914127,156.9064,0.0047884034,1442850,1440,-563,-4931,3218
