timestamp,integral_dt,error_count,x,y,z,x_integral,y_integral,z_integral,temperature,range_m_s2,scaling,device_id,x_raw,y_raw,z_raw,temperature_raw
26649131,4329,0,0.4469344,0.12465228,-10.038081,0.0027422283,-0.0055669304,-0.04341843,39.75,78.0,0.0023928226,1114658,797,291,-3556,3
26752953,5252,0,-0.41851726,0.88704324,-9.896729,0.0034484009,0.007698933,-0.049458943,39.875,78.0,0.0023928226,1114658,-1056,469,-3402,0
26850692,4283,0,-0.03772769,1.1461582,-9.888031,0.003313322,-0.004270901,-0.0461682,39.75,78.0,0.0023928226,1114658,966,597,-2975,6407
26955608,4092,0,0.30522627,1.0603437,-10.034923,0.005455646,0.01300168,-0.045675617,39.875,78.0,0.0023928226,1114658,-344,641,-3971,2049
27057480,4228,0,-0.78512263,-1.8816648,-10.163786,0.008070158,0.017667405,-0.036896292,39.625,78.0,0.0023928226,1114658,-2448,966,-3344,2048
27158251,4199,0,-1.1668108,-3.2550094,-9.9347925,-0.0026375926,-0.014647631,-0.045514934,39.75,78.0,0.0023928226,1114658,458,360,-4893,8192
27261158,4206,0,-0.8941306,-3.214626,-10.442474,-0.00095762685,0.0034820435,-0.037746374,39.625,78.0,0.0023928226,1114658,-1282,528,-3418,3
27363012,5250,0,-0.52140987,-1.2097937,-10.144845,0.0064043053,0.022324381,-0.0497299,39.75,78.0,0.0023928226,1114658,-1617,1763,-2260,2049
27463802,4200,0,0.66658866,1.7868596,-9.474986,0.011562904,0.019518638,-0.0379754,39.875,78.0,0.0023928226,1114658,55,820,-3751,6415
27566746,4245,0,-0.3744395,-1.1183845,-10.108289,-0.009972453,-0.005002443,-0.04761457,39.875,78.0,0.0023928226,1114658,1662,523,-2459,7817
27669602,4201,0,1.5765017,0.43712,-9.552683,0.0021883994,-0.0012038398,-0.037322044,39.75,78.0,0.0023928226,1114658,292,-1226,-5731,6412
27768344,4243,0,-1.0618479,-1.1441804,-10.24296,0.011950556,0.008095153,-0.04363546,39.75,78.0,0.0023928226,1114658,-164,2200,-2787,6413
27873302,4158,0,-0.1443134,-0.09139041,-9.771695,0.016056983,0.027459834,-0.043104142,39.875,78.0,0.0023928226,1114658,-2177,1948,-2908,3
27970956,4186,0,-0.74925756,0.5897899,-10.270698,0.008118484,0.0073083933,-0.036155656,39.75,78.0,0.0023928226,1114658,1134,3488,-1584,8193
28071752,4178,0,1.0475563,0.9980481,-9.691549,0.007712939,0.029226316,-0.05136431,39.75,78.0,0.0023928226,1114658,-1601,-78,-2669,6411
28176762,4210,0,1.4705739,1.3456844,-9.122836,-0.0109806005,0.013267142,-0.033204094,39.75,78.0,0.0023928226,1114658,547,-2226,-4333,2048
28277585,4233,0,1.0281096,0.6920586,-9.646667,-0.021844001,0.019382596,-0.03643475,39.625,78.0,0.0023928226,1114658,-1598,-3198,-4553,2049
28380490,4177,0,-0.47997835,0.14227927,-9.291767,-0.019693902,-0.013492309,-0.04768335,39.75,78.0,0.0023928226,1114658,2060,-459,-5354,16927
28484423,4063,0,1.0127443,-0.028537527,-8.767479,-0.008678415,0.00429555,-0.034916922,39.625,78.0,0.0023928226,1114658,-669,-1978,-6439,6410
28585202,4048,0,-0.10139485,-0.5915109,-8.937559,0.016285291,-0.018504772,-0.02608336,39.625,78.0,0.0023928226,1114658,-424,2808,-2360,6418
28686002,5250,0,-0.70501673,0.16139527,-9.306621,-0.08324377,-0.011304785,-0.030178223,39.875,78.0,0.0023928226,1114658,1517,-3347,-3490,6418
28786802,4057,0,-0.1167128,0.22112437,-9.262766,-0.010306929,-0.011555806,-0.015697414,39.875,78.0,0.0023928226,1114658,2688,101,-2363,6407
28887602,4075,0,-3.4467082,-0.1400325,-8.319101,-0.007346569,-0.004086935,-0.035780817,39.75,78.0,0.0023928226,1114658,-1670,5404,-8464,2049
28988402,4072,0,2.3032649,0.6272616,-10.779298,-0.042804614,-0.0022464702,-0.03291687,39.875,78.0,0.0023928226,1114658,1191,-7212,-1173,7860
29094454,4203,0,-1.1885997,0.4358131,-10.771664,-0.047312886,0.004475831,-0.048953906,39.875,78.0,0.0023928226,1114658,1465,1220,-1584,8193
29194202,4200,0,1.2735207,0.02302682,-9.811458,0.037696235,0.009084585,-0.047816247,39.75,78.0,0.0023928226,1114658,935,-499,-5500,6411
29296080,5277,0,2.22035,-0.38921887,-10.180305,0.022755235,-0.006801809,-0.025333364,39.875,78.0,0.0023928226,1114658,-798,-4039,-2485,2049
29396852,4201,0,-3.4072099,-0.2930562,-8.615974,-0.029052803,0.00482893,-0.05028928,39.875,78.0,0.0023928226,1114658,-181,6024,-6858,7874
29496603,4201,0,0.7675064,0.16419245,-10.687383,0.037845735,-0.0056326943,-0.062592834,39.75,78.0,0.0023928226,1114658,-102,468,-1230,8193
29602723,4272,0,0.48419747,0.4183056,-10.744415,0.012551806,-0.0023691154,-0.047449145,39.75,78.0,0.0023928226,1114658,-227,575,-2632,6419
29701385,4197,0,-0.66242653,0.62492496,-10.153903,0.03821814,-0.005348027,-0.0425148,39.75,78.0,0.0023928226,1114658,1478,462,-5327,2048
29802201,4207,0,0.4888177,-0.32596728,-10.433263,-0.013608934,-0.0056009656,-0.027035857,39.875,78.0,0.0023928226,1114658,-1669,-1356,568,3
29906102,5201,0,0.93091464,0.8351128,-10.751572,0.030146828,0.0011044752,-0.064456195,39.875,78.0,0.0023928226,1114658,1306,-802,-2690,8193
30006902,4178,0,-1.4198968,1.0837115,-9.959415,-0.022235818,0.0011645827,-0.043547936,39.875,78.0,0.0023928226,1114658,2482,1217,-5752,3
30105601,5208,0,0.78809947,-0.5621231,-10.600025,0.018069811,-0.009515268,-0.04978677,39.75,78.0,0.0023928226,1114658,1182,-2866,-3541,3
30208502,4150,0,-0.32269758,-1.1562324,-9.666489,0.037410237,-0.011646083,-0.031422388,39.875,78.0,0.0023928226,1114658,829,2243,-3943,8192
30311518,4316,0,0.3375272,0.9923144,-9.653014,0.03076042,-0.008783551,-0.022277359,39.875,78.0,0.0023928226,1114658,3706,1166,-1672,6414
30412337,4335,0,-0.8490393,1.3638891,-10.494902,0.037545457,-0.0029200455,-0.050117645,39.875,78.0,0.0023928226,1114658,1795,4072,-3125,6424
30513116,4314,0,-1.3410171,0.23989047,-10.582605,0.009997002,-0.0021104508,-0.07129439,39.875,78.0,0.0023928226,1114658,809,6298,-4927,6422
30612800,5284,0,0.20777445,0.21594058,-11.351018,0.03725582,-0.005654098,-0.082351804,39.875,78.0,0.0023928226,1114658,3927,1868,-3321,0
30714746,4345,0,-1.1819714,-0.3008206,-9.5891695,-0.0017907585,0.009649425,-0.051813878,39.875,78.0,0.0023928226,1114658,1163,3533,-11564,6440
30820652,4200,0,-1.2053784,1.0483778,-9.863007,0.008184264,0.009615961,-0.045913596,39.75,78.0,0.0023928226,1114658,1610,4363,-4626,16927
30919351,4194,0,0.37463912,0.7537234,-9.58305,0.0025325124,-0.0012874431,-0.04392806,39.875,78.0,0.0023928226,1114658,622,2622,-10609,3
31020159,4207,0,0.54604316,-0.56575745,-12.0919485,-0.036579836,-0.016438166,-0.046582606,39.75,78.0,0.0023928226,1114658,1736,-2613,-796,3
31123092,4240,0,-0.1329965,-1.9812721,-10.931876,-0.03185932,-0.00264233,-0.052921314,39.875,78.0,0.0023928226,1114658,-2396,-3560,-1733,2049
31223859,4200,0,-1.2947173,0.38424385,-10.886151,0.04020307,0.0013311793,-0.0671066,39.875,78.0,0.0023928226,1114658,766,4187,-3210,2048
31324652,4167,0,-0.72124344,2.1562223,-9.425459,-0.013512655,0.021298239,-0.036896676,39.875,78.0,0.0023928226,1114658,552,5239,-7076,6442
31425451,4199,0,0.6335022,0.259511,-10.694537,-0.03691221,-0.01408022,-0.00812136,40.0,78.0,0.0023928226,1114658,-941,-1468,-1689,8193
31528351,4192,0,0.6303466,-1.4069498,-10.681891,-0.012015407,-0.0064496663,-0.031687666,39.875,78.0,0.0023928226,1114658,167,-3446,-3575,6426
31629155,4204,0,-0.43456784,-0.67894346,-8.732492,-0.022530934,0.01253015,-0.024472628,39.875,78.0,0.0023928226,1114658,-1508,-744,-6011,6430
31731002,5251,0,-0.037816796,0.8849611,-8.701926,0.03332927,0.00179245,-0.06602716,39.875,78.0,0.0023928226,1114658,437,2293,-5199,6444
31831802,4161,0,0.28377572,-0.0016799283,-9.584527,-0.015796073,-0.009767188,-0.009626134,39.875,78.0,0.0023928226,1114658,-1656,-3204,-3823,7919
31936802,4200,0,0.34420845,-1.0493517,-10.259881,0.019967755,-0.015839892,-0.053348083,39.875,78.0,0.0023928226,1114658,1470,-1012,-1415,2048
32041893,4291,0,-0.6712698,1.2461393,-9.9224205,0.03641424,0.010090946,-0.06118154,39.875,78.0,0.0023928226,1114658,1638,4139,-716,6438
32142753,4352,0,0.79245216,1.4202759,-11.183361,-0.0005177532,-0.01603323,-0.03137926,39.875,78.0,0.0023928226,1114658,3009,-3447,1741,6436
32243516,4315,0,-0.30053893,-0.19614597,-10.136185,-0.0390317,-0.008690745,-0.0232789,39.75,78.0,0.0023928226,1114658,1884,397,-1379,6429
32345255,4143,0,0.17329277,-0.98977757,-10.659037,0.02447304,-0.009532206,-0.043028217,39.875,78.0,0.0023928226,1114658,1011,-358,-1892,6431
32443952,4200,0,0.19229129,-0.3465473,-10.407084,-0.014328072,-0.011046984,-0.018361215,39.875,78.0,0.0023928226,1114658,241,-1904,-1779,8193
32546852,4081,0,-0.069469474,1.4027085,-8.698128,0.03687121,0.009272995,-0.06525325,39.875,78.0,0.0023928226,1114658,665,3520,-6362,6423
32651852,4190,0,-0.7221169,-0.100111954,-10.454647,0.009814297,0.011073589,-0.050719555,40.0,78.0,0.0023928226,1114658,219,5755,-1907,3
32752651,4190,0,0.33720315,-0.45087844,-11.81489,0.010745565,-0.014749466,-0.047944136,39.875,78.0,0.0023928226,1114658,2187,1356,1700,2049
32856623,4206,0,0.8891757,0.46727845,-11.149403,0.025485937,-0.008644445,-0.030817615,39.875,78.0,0.0023928226,1114658,187,-1839,3414,2049
32957402,4162,0,0.4020931,0.8604864,-9.74701,-0.003978243,-0.0021729108,0.008862612,39.875,78.0,0.0023928226,1114658,-2468,-1504,-3671,2049
33058202,4164,0,-0.146471,0.39727995,-10.979823,-0.030294534,-0.009952746,-0.07072743,40.0,78.0,0.0023928226,1114658,2406,-856,-2298,6432
33159002,4186,0,-0.48095366,-1.166589,-10.460498,-0.026649682,-0.008117352,0.008729134,39.875,78.0,0.0023928226,1114658,-3055,1191,283,6435
33259802,4172,0,-1.545396,0.21508473,-9.2856455,0.001911384,0.0044417577,-0.090093985,39.75,78.0,0.0023928226,1114658,2421,4336,-3541,6436
33361651,5249,0,-1.3855299,0.3095065,-9.418299,-0.03134333,0.010362859,-0.04758726,39.875,78.0,0.0023928226,1114658,-2740,3240,-5437,3
33462451,4200,0,-1.546516,-0.12780313,-9.980088,-0.03940268,0.0063683996,-0.028098948,39.75,78.0,0.0023928226,1114658,-1171,3150,-5168,8193
33565351,4184,0,-0.5457874,-0.5367358,-8.940905,0.020991817,0.00817111,-0.045467805,40.0,78.0,0.0023928226,1114658,1241,4263,-6204,3
33666157,4168,0,-1.242614,0.7966444,-8.388907,0.030368572,0.0064886454,-0.029483633,39.875,78.0,0.0023928226,1114658,737,4626,-4694,3
33766952,4110,0,0.7957087,0.5417287,-8.34927,-0.030523596,0.0026929802,-0.04438599,40.0,78.0,0.0023928226,1114658,-1833,-3473,-3428,3
33868802,5218,0,-3.3318274,-0.7354755,-7.835609,-0.0424233,0.007066014,-0.06464837,40.0,78.0,0.0023928226,1114658,-655,3805,-4570,8193
33969611,4209,0,-0.66209257,-0.5719516,-8.51626,0.028935732,0.005045611,-0.03932961,39.875,78.0,0.0023928226,1114658,34,3858,-5830,8192
34072502,4180,0,1.3068799,1.2133071,-8.160963,0.02800027,0.008717568,-0.038761865,39.875,78.0,0.0023928226,1114658,761,-3348,-2885,2048
35301116,4315,0,-0.80092746,1.4243759,-10.32531,-0.00046161545,-0.00791134,-0.044088654,40.0,78.0,0.0023928226,1114658,2744,4121,396,6457
35406002,4086,0,-0.6693265,-1.5893011,-9.412755,0.014119602,0.0005733499,-0.035096776,40.0,78.0,0.0023928226,1114658,561,3180,-6235,6452
35507868,4216,0,-0.6575465,-0.50601983,-9.484977,0.029558266,0.024639448,-0.05946685,40.0,78.0,0.0023928226,1114658,-2431,4394,-8316,6455
35608652,4188,0,-0.31325176,1.5759159,-10.2804575,0.025983108,0.016207585,-0.085627705,40.0,78.0,0.0023928226,1114658,699,3318,-4089,2
35711552,6257,0,0.471962,1.8904454,-10.7189665,-0.0019182414,-0.003431306,-0.06397339,39.875,78.0,0.0023928226,1114658,1713,-1142,-1345,8193
35813402,5218,0,0.06931414,-0.8984259,-10.730614,-0.024637833,-0.010462695,-0.05432395,40.0,78.0,0.0023928226,1114658,682,727,-4178,6461
35914202,4200,0,-1.2279001,-1.4135113,-11.153233,-0.012401418,-0.0020342392,-0.04869287,40.125,78.0,0.0023928226,1114658,2160,4296,-3686,6452
36017188,4287,0,0.30445936,0.33753398,-10.82947,0.016854076,0.013878068,-0.04176944,39.875,78.0,0.0023928226,1114658,-1222,-3677,-1682,6447
36117918,4216,0,-0.080935456,1.4278927,-10.485297,-0.028479753,-0.0011621268,-0.008628964,40.0,78.0,0.0023928226,1114658,1423,-2427,590,6460
36218709,4207,0,-0.6979724,0.49530703,-9.113665,-0.025349721,0.007927489,-0.03501944,40.125,78.0,0.0023928226,1114658,-60,1858,-9878,6459
36320567,5265,0,-0.59923387,-0.924372,-11.707253,0.025046248,-0.011845295,-0.08029404,40.125,78.0,0.0023928226,1114658,2150,3029,-2044,16928
36421352,4198,0,-0.074361056,-0.41904864,-11.459749,-0.010117898,0.013534672,-0.061134078,40.0,78.0,0.0023928226,1114658,-411,-1144,-2144,8043
36524330,4279,0,-1.2238348,0.89273614,-8.923963,-0.028609984,0.015292399,-0.024237247,40.0,78.0,0.0023928226,1114658,-305,3856,-5052,6462
36622952,4185,0,0.7753659,1.3003544,-9.513657,-0.048574626,0.0045311176,-0.029416319,40.125,78.0,0.0023928226,1114658,-444,-5816,-4767,0
36724814,5262,0,0.49820307,0.44381282,-10.6640415,-0.011484616,-0.015392332,-0.018620482,40.0,78.0,0.0023928226,1114658,195,-892,2514,3
36825625,4224,0,0.9220673,-0.4430633,-9.676333,0.014337069,0.0016143465,-0.059053145,40.0,78.0,0.0023928226,1114658,1742,248,-6216,3
36926402,4154,0,-1.3957338,-0.8193506,-10.015993,-0.030722558,0.007870886,-0.05113618,40.0,78.0,0.0023928226,1114658,420,3602,140,0
37031516,4314,0,-1.4996274,1.5736895,-8.235706,-0.026963575,0.018428626,-0.039108884,40.125,78.0,0.0023928226,1114658,-485,3319,-5864,6467
37133251,4159,0,1.8703655,1.4387586,-10.729269,0.003828784,-0.013939382,-0.03932882,40.0,78.0,0.0023928226,1114658,3037,-4226,2310,6469
37234060,4149,0,-0.43964508,-0.64036536,-10.082014,0.021006992,-0.010590751,-0.049297445,40.0,78.0,0.0023928226,1114658,599,1837,-1248,8192
37334853,4107,0,0.8542367,-1.2184429,-10.056956,-0.029311925,0.007144413,-0.025345337,40.125,78.0,0.0023928226,1114658,-1874,-4265,-1413,6475
37539602,5251,0,-0.31328258,1.9691216,-9.007236,0.020762116,-0.0045374655,-0.027932255,40.0,78.0,0.0023928226,1114658,1621,3314,-1636,6466
37640402,4110,0,0.6318866,-0.046260796,-9.647076,-0.029269675,-0.0031664139,-0.040118303,40.0,78.0,0.0023928226,1114658,1504,-4305,-5255,6465
37741202,4086,0,1.2475144,-0.92093045,-10.976221,0.013017819,-0.009536123,-0.056650832,40.0,78.0,0.0023928226,1114658,2771,-2896,-2028,6471
37842002,4086,0,-1.8313063,-0.9651302,-9.898847,0.0030107347,-0.0048725414,-0.037484933,40.0,78.0,0.0023928226,1114658,1157,4065,-3444,6479
37943873,5173,0,0.59904796,1.156072,-9.184687,-0.03738756,0.008277496,-0.024167359,40.125,78.0,0.0023928226,1114658,734,-4355,-3229,2048
38043602,4090,0,-0.16403496,1.9766793,-8.854713,0.033203937,0.008668781,-0.026021192,40.125,78.0,0.0023928226,1114658,2564,2080,-3862,8193
38145452,4172,0,-1.4440701,0.9039399,-8.987645,0.005297941,0.0050107003,-0.061677646,40.125,78.0,0.0023928226,1114658,1096,6949,-7352,8193
38248356,4172,0,-0.8735344,-1.0438633,-9.915134,-0.04824065,0.012756883,-0.05612653,40.125,78.0,0.0023928226,1114658,701,1201,-5402,6470
38349171,4220,0,0.6110654,-1.1787606,-9.688197,0.001797457,0.0046150195,-0.049918164,40.0,78.0,0.0023928226,1114658,-1772,-3162,-6138,6477
38451002,5251,0,-0.4395655,1.251634,-8.78382,0.029323343,0.015471112,-0.079081714,40.125,78.0,0.0023928226,1114658,-1941,3876,-5606,3
38550752,4178,0,-0.8731482,2.1850731,-8.222395,-0.009787933,0.0025294726,-0.03546827,40.0,78.0,0.0023928226,1114658,888,2884,-8496,6483
38656801,5249,0,-0.23427293,-0.30042344,-10.827161,0.046150878,-0.018588072,-0.0627876,40.0,78.0,0.0023928226,1114658,2805,2977,-2275,3
38761916,4310,0,0.9249178,-1.0011499,-9.388492,-0.031556465,0.007074251,-0.011691894,40.125,78.0,0.0023928226,1114658,-1401,-5422,-3157,6474
38860527,4158,0,0.29750204,0.64833033,-9.576927,0.022362992,-0.004546324,-0.017908113,40.0,78.0,0.0023928226,1114658,-600,-1460,-2362,3
38961327,4154,0,1.0397875,1.1156532,-10.09136,0.011708645,-0.024302892,-0.019378152,40.125,78.0,0.0023928226,1114658,1088,-4990,-1542,8193
39065252,4109,0,1.278591,-0.9885506,-8.393552,-0.026368318,-0.0019950066,-0.014996395,40.125,78.0,0.0023928226,1114658,477,-2987,-8066,6480
39168162,4210,0,-1.7993691,-0.9630905,-9.692776,-0.00726183,0.0145717375,-0.058141243,40.125,78.0,0.0023928226,1114658,301,6066,-7490,8192
39268951,4200,0,-0.936645,0.30182782,-8.698496,0.0016645622,0.01754226,-0.08063811,40.125,78.0,0.0023928226,1114658,-957,5452,-6026,3
39369752,4192,0,-1.2791177,1.1235179,-8.343258,0.021475129,0.016623732,-0.06938455,40.0,78.0,0.0023928226,1114658,900,5386,-8133,3
39472651,4200,0,-0.03238922,0.8470348,-10.101,0.041978706,-0.00987821,-0.06729542,40.0,78.0,0.0023928226,1114658,1898,2009,-4802,3
39576602,4199,0,0.12471846,-1.0041493,-10.8896265,-0.0060711373,-0.0022717293,-0.028176269,40.125,78.0,0.0023928226,1114658,-239,1087,-4124,2049
39675310,4208,0,-0.42886582,-0.94809145,-9.600594,-0.030624747,0.011674969,-0.025960017,40.25,78.0,0.0023928226,1114658,-984,-1036,-1162,3
39779284,5282,0,-1.7636092,1.0784634,-8.568131,-0.009511583,0.025666142,-0.06304487,40.125,78.0,0.0023928226,1114658,-964,4920,-6691,2049
39876901,6178,0,1.0323089,1.3075178,-9.261452,-0.030558845,0.0023425452,-0.015985105,40.0,78.0,0.0023928226,1114658,-839,-3587,-4937,2
39979802,4193,0,-0.7111722,0.5580249,-8.820967,-0.025147894,0.007525146,-0.047108818,40.0,78.0,0.0023928226,1114658,-276,1601,-6328,6493
40083752,4178,0,-1.1733043,-0.98100454,-10.15755,0.021488072,0.010087313,-0.08257182,40.0,78.0,0.0023928226,1114658,-411,6096,-5791,2049
40186716,4264,0,-1.0749313,1.020452,-10.737841,0.038556587,0.015740266,-0.07764873,40.0,78.0,0.0023928226,1114658,3111,4296,223,6490
40286401,4200,0,-0.067778304,1.4512136,-9.24466,-0.004635382,0.021691095,-0.09845716,40.0,78.0,0.0023928226,1114658,-1746,1330,-8431,6485
40388317,4266,0,0.89727473,0.7413866,-10.739955,0.024056945,-0.0036227957,-0.05816152,40.125,78.0,0.0023928226,1114658,1283,-8,-1835,6490
40486952,4107,0,0.40369853,0.25099593,-10.692985,0.03749972,-0.005487133,-0.042853247,40.125,78.0,0.0023928226,1114658,939,2159,-3883,8193
40588801,5249,0,0.80879855,-1.4045533,-10.820812,-0.021200102,-0.00062008295,-0.055530027,40.125,78.0,0.0023928226,1114658,-1943,-3871,-5589,2048
40689611,4210,0,-1.6462324,-0.56787395,-10.351634,-0.029734809,0.008478602,-0.018115554,40.125,78.0,0.0023928226,1114658,-77,2421,1014,6498
40794741,6414,0,-1.4695035,1.5251459,-8.500491,0.025042722,0.016396124,-0.08585954,40.125,78.0,0.0023928226,1114658,2777,5089,-7110,6504
40893320,4169,0,-0.48376322,0.71500003,-8.791895,-0.0010125813,0.011301029,-0.063354306,40.25,78.0,0.0023928226,1114658,-45,2678,-8442,3
40994127,4226,0,-0.67015517,-0.74891573,-9.22795,-0.019478036,0.007406804,-0.052936662,40.25,78.0,0.0023928226,1114658,-1264,2099,-8045,3
41095952,4200,0,-1.3125694,-0.83806235,-10.084389,-0.010400729,0.0221446,-0.06202384,40.25,78.0,0.0023928226,1114658,-941,2991,-5649,8193
41198852,4153,0,-0.37848324,1.5372089,-9.653011,0.011432139,0.009598959,-0.039731234,40.125,78.0,0.0023928226,1114658,745,2294,-1509,8154
41301794,4243,0,0.9428393,1.2046394,-9.788068,0.037495606,-0.010449646,-0.04808422,40.125,78.0,0.0023928226,1114658,3279,-215,-3138,2049
41403605,5254,0,0.3587345,-0.73316133,-11.045988,0.03169134,-0.012000947,-0.063207366,40.125,78.0,0.0023928226,1114658,752,586,-2110,2048
41508602,4200,0,-0.9448705,0.11594152,-9.313377,0.0052631707,0.006056528,-0.007573768,40.125,78.0,0.0023928226,1114658,749,2130,-2455,6502
41609402,4200,0,-0.7245032,1.0431576,-8.872899,0.020304412,-0.0036314442,-0.014819284,40.125,78.0,0.0023928226,1114658,-804,1868,-5432,8192
41711271,5269,0,-0.3526077,1.1708007,-9.367436,0.043571774,-0.0052901977,-0.05477656,40.125,78.0,0.0023928226,1114658,-77,5826,-4643,3
41812090,4231,0,0.7642103,-0.61769694,-11.0014715,0.03559287,-0.0142714,-0.057730436,40.125,78.0,0.0023928226,1114658,1291,-1076,-1269,3
41912889,4237,0,0.54159784,-1.3260013,-10.80651,0.016009692,-0.006330337,-0.052499764,40.25,78.0,0.0023928226,1114658,65,-2221,45,3
42013666,4212,0,0.38054577,-0.12974776,-10.004477,-0.0035219258,-0.0032556818,-0.027828667,40.25,78.0,0.0023928226,1114658,-1372,-2157,-1698,3
42115551,5300,0,0.072850935,1.6392083,-9.339754,-0.022275284,0.011278988,-0.045046516,40.25,78.0,0.0023928226,1114658,-561,-238,-3670,8179
42216312,4211,0,-0.036116254,0.7250973,-9.664959,-0.006614228,0.00014070093,-0.040290847,40.125,78.0,0.0023928226,1114658,2831,-564,-5173,6513
42321302,4186,0,0.6391363,-1.0536035,-9.738894,0.008747461,-0.0021648016,-0.02847324,40.125,78.0,0.0023928226,1114658,161,-1355,-5110,8193
42423159,5236,0,0.46985194,-0.58161086,-9.485925,0.0111941,0.0070974976,-0.041327447,40.125,78.0,0.0023928226,1114658,-680,-2535,-1132,0
42519752,5248,0,-0.15139961,0.7464778,-9.71206,0.039934248,0.003002429,-0.0532451,40.125,78.0,0.0023928226,1114658,147,1125,-2839,6511
42622717,5315,0,-0.24632002,1.2676445,-10.162547,-0.021091374,0.0087723285,-0.024803007,40.25,78.0,0.0023928226,1114658,-1365,-6030,-762,6511
42725552,4200,0,-0.3717701,0.024894368,-10.022494,0.0066943495,0.0036580458,-0.055349175,40.125,78.0,0.0023928226,1114658,850,2531,-6069,6499
42828461,4169,0,-0.38935706,-1.1091985,-11.014702,0.029432336,-0.014537084,-0.03463114,40.125,78.0,0.0023928226,1114658,2903,2507,-2998,8193
42930348,5204,0,0.6306719,0.42483127,-10.0614195,0.02290606,-0.0058386964,-0.037759867,40.125,78.0,0.0023928226,1114658,-167,-1771,-1589,3
43030052,4115,0,1.030012,1.5883715,-9.749332,0.018543167,-0.001379535,-0.019925838,40.125,78.0,0.0023928226,1114658,-820,-3903,488,6511
43129982,5430,0,0.47831056,0.41134182,-9.545007,-0.009570951,-0.012880417,-0.045024205,40.0,78.0,0.0023928226,1114658,-931,-4316,-2024,6509
43234803,4101,0,-0.47937146,-1.1136498,-10.02451,-0.0044062473,0.008644334,-0.08450336,40.0,78.0,0.0023928226,1114658,993,5262,-5712,6514
43335616,4070,0,-1.5169855,-0.7187544,-10.410753,0.031736378,0.0034638464,-0.06176107,40.25,78.0,0.0023928226,1114658,684,5955,-3680,6516
43432355,4354,0,-0.34538236,-1.0464834,-9.325404,-0.037271105,0.020061351,-0.044266026,40.25,78.0,0.0023928226,1114658,-913,-909,-4394,6504
43535102,4167,0,-0.65456223,1.5026977,-9.84451,0.04262381,0.01978263,-0.04941513,40.25,78.0,0.0023928226,1114658,-840,5129,-1390,6523
43636953,5203,0,1.1856301,1.5469617,-9.687653,0.03920674,-0.0077035734,-0.05998064,40.125,78.0,0.0023928226,1114658,3680,2111,-462,8193
43741969,4218,0,0.23171741,-1.6443102,-9.889221,-0.041257452,0.0052524987,-0.030727293,40.25,78.0,0.0023928226,1114658,750,-934,-6776,6502
43842825,5323,0,-1.9804643,-1.314106,-11.247833,-0.039962146,0.01216106,-0.050968383,40.125,78.0,0.0023928226,1114658,-1859,-107,-3907,0
43943594,4242,0,-1.7856826,0.8659919,-9.035918,-0.011967767,0.015837641,-0.050103214,40.125,78.0,0.0023928226,1114658,365,4425,-5176,6513
44045402,4200,0,-1.1705086,1.6505377,-9.614766,0.021186542,0.0017271419,-0.047141887,40.125,78.0,0.0023928226,1114658,1844,6182,-3108,8192
44146202,4200,0,-1.968332,1.1759089,-10.159829,0.015011929,-0.0043511386,-0.05392669,40.125,78.0,0.0023928226,1114658,2463,7882,-2427,8233
44247002,4150,0,-0.67310196,-0.5727553,-10.583234,0.045574673,-0.01230419,-0.053368453,40.25,78.0,0.0023928226,1114658,2512,4692,-6569,6512
44349952,4251,0,0.30747634,-1.0676594,-10.420948,-0.006719746,-0.003997641,-0.040274423,40.0,78.0,0.0023928226,1114658,-176,-2448,520,8193
44451752,5251,0,-0.61230844,0.31748286,-8.58163,-0.019237235,0.005579991,-0.045681022,40.25,78.0,0.0023928226,1114658,-857,-4139,-5341,2048
44552552,4166,0,-1.1063182,1.0518336,-9.270295,-0.023313921,0.009544506,-0.034146048,40.125,78.0,0.0023928226,1114658,621,1501,-7918,2049
44653352,4184,0,-0.595742,0.1466484,-9.407256,-0.03863941,0.0030808637,-0.052560203,40.125,78.0,0.0023928226,1114658,-639,911,-6240,6510
44754163,4153,0,-0.5835189,-1.5357817,-10.130597,-0.011328431,0.013005553,-0.061755955,40.0,78.0,0.0023928226,1114658,-1250,3238,-4640,8192
44855004,4218,0,-1.5150858,-0.40342128,-10.71635,0.0044685546,0.015066439,-0.07702345,40.125,78.0,0.0023928226,1114658,469,6388,-2217,2048
44961116,4314,0,-0.1327809,1.1143173,-8.826626,-0.0475917,-0.0061389143,-0.0031709617,40.0,78.0,0.0023928226,1114658,-3009,-2035,-4294,6511
45063910,4208,0,-0.58455294,0.9167458,-8.971652,-0.0027619756,0.015045338,-0.06338284,40.25,78.0,0.0023928226,1114658,2124,3973,-11520,2
45162771,4370,0,-1.6711661,-0.9117327,-9.461815,-0.015009057,-0.0068615586,-0.054180365,40.25,78.0,0.0023928226,1114658,455,6617,-6072,6507
45266552,5250,0,-0.15079755,-1.3112829,-11.411911,0.016855177,-0.010358905,-0.07667778,40.25,78.0,0.0023928226,1114658,1199,-1230,-6148,2049
45367351,4189,0,-0.09030568,0.07594603,-10.340023,0.00834184,0.0012640719,-0.038973555,40.125,78.0,0.0023928226,1114658,-1120,-1090,-1428,8192
45468157,4206,0,0.32968175,1.4811416,-10.069776,-0.020853255,0.00045372875,-0.038416903,40.125,78.0,0.0023928226,1114658,318,-3183,-5462,8272
45568952,4200,0,-0.015464754,0.3337214,-9.3706,-0.010910675,0.003650117,-0.044933487,40.25,78.0,0.0023928226,1114658,-912,1412,-4837,8193
45671852,4200,0,0.606154,-0.87693906,-10.098607,0.009303547,0.01036955,-0.08400923,40.25,78.0,0.0023928226,1114658,496,412,-6817,2
45773701,4198,0,0.11247129,-0.71518165,-10.962341,-0.0035962465,0.013876589,-0.050145257,40.25,78.0,0.0023928226,1114658,-81,-1496,-97,8192
45876602,4200,0,-1.3175431,1.4847807,-9.516294,-0.0021547137,0.015452776,-0.03472468,40.25,78.0,0.0023928226,1114658,1089,4990,-1685,8289
45978501,5299,0,0.7312549,1.7507029,-10.669637,0.042201683,-0.024593225,-0.07041905,40.25,78.0,0.0023928226,1114658,4608,2088,-1999,2049
46079252,4201,0,1.1185068,-0.535092,-10.89668,0.016508667,-0.027114145,-0.014726076,40.25,78.0,0.0023928226,1114658,996,-3527,-1558,2049
46182161,4203,0,-1.07684,-1.4512063,-9.579761,-0.032804288,0.014147916,-0.029121604,40.25,78.0,0.0023928226,1114658,-1968,1677,-4686,8192
46282979,4224,0,-0.65582997,-0.57239157,-9.152204,-0.028158491,0.021680363,-0.054741427,40.125,78.0,0.0023928226,1114658,-1580,2137,-2729,0
46383755,6303,0,-0.51778054,0.7792094,-8.820309,-0.019419452,0.025382984,-0.05925662,40.125,78.0,0.0023928226,1114658,-526,3926,-6451,2049
46485601,5208,0,-0.69069856,1.7975217,-9.855852,0.016454548,0.011249424,-0.07837057,40.25,78.0,0.0023928226,1114658,1386,4930,-5768,3
46584320,4175,0,-0.56447995,1.0494405,-9.994616,0.014295469,0.0016148033,-0.0621383,40.25,78.0,0.0023928226,1114658,1914,4486,-5785,8192
46687201,4199,0,0.41005364,-0.49557284,-11.101336,0.04633737,-0.008821579,-0.04203823,40.125,78.0,0.0023928226,1114658,3461,405,1332,6537
46788001,4199,0,0.1669222,-0.029815342,-10.79614,0.025555084,-0.0086521655,-0.028320158,40.375,78.0,0.0023928226,1114658,2705,175,1972,8192
46889950,5349,0,1.0703259,1.7122586,-9.759675,0.017876834,-0.0038664541,-0.03667367,40.25,78.0,0.0023928226,1114658,1837,-2665,-2993,6546
46990716,4264,0,0.98040456,1.2796594,-9.837815,-0.0064148065,-0.0104021635,-0.021492539,40.25,78.0,0.0023928226,1114658,-679,-3861,-3047,6546
47091502,4250,0,1.2758462,-0.9579939,-9.904732,-0.030246694,-0.01901249,-0.014917299,40.25,78.0,0.0023928226,1114658,141,-4328,-6432,6548
47195493,4292,0,-1.5081711,-0.7444377,-10.017913,-0.002417743,0.010802602,-0.05807788,40.25,78.0,0.0023928226,1114658,1239,5658,-4122,6551
47294101,5249,0,-1.2655871,-0.067828566,-9.613294,-0.032714937,0.025690142,-0.056446403,40.25,78.0,0.0023928226,1114658,-989,1988,-3923,3
47399102,4188,0,0.117063396,2.1536837,-10.013054,0.045659583,-0.0051985113,-0.028096244,40.25,78.0,0.0023928226,1114658,2174,735,-2089,3
47497900,4299,0,0.7768254,0.97196496,-10.618074,0.036788598,-0.017432911,-0.05143955,40.125,78.0,0.0023928226,1114658,2397,287,-3202,8320
47601751,5249,0,1.7097442,-1.2399915,-10.393532,-0.010019713,-0.012967148,-0.03301218,40.125,78.0,0.0023928226,1114658,386,-5226,-2940,6559
47702551,4200,0,-0.10173098,-1.1628399,-9.759154,-0.0213463,0.0123312045,-0.028066244,40.25,78.0,0.0023928226,1114658,-1876,-2420,-5027,8192
47803352,4193,0,0.31685403,-0.3231913,-9.296885,-0.03992637,0.008796654,-0.029122954,40.375,78.0,0.0023928226,1114658,-2578,-3383,-5112,0
47904159,4207,0,0.2873426,1.1499184,-8.65527,-0.031973362,0.013601423,-0.031988107,40.25,78.0,0.0023928226,1114658,-1597,-1541,-5053,6564
48006002,5250,0,-0.316735,0.42443117,-9.193497,-0.034273736,0.008000278,-0.07507959,40.25,78.0,0.0023928226,1114658,-1997,885,-8050,2049
48106802,4078,0,-0.7260519,-0.87671715,-10.118541,-0.0072927233,0.0049165427,-0.062287465,40.25,78.0,0.0023928226,1114658,-946,4700,-6640,8322
48207602,4020,0,-0.59938115,-0.7335083,-9.511109,-0.008040775,0.015303305,-0.066704005,40.375,78.0,0.0023928226,1114658,69,2586,-8166,6553
48312602,4200,0,1.2998457,1.5268853,-9.742861,0.016881617,-0.0072521907,-0.016024495,40.375,78.0,0.0023928226,1114658,-1283,-2979,533,6565
48413402,4186,0,1.0529752,0.816103,-9.712189,-0.021000296,-0.021816794,-0.015550612,40.375,78.0,0.0023928226,1114658,-1829,-3773,-904,2049
48514202,4200,0,-0.04686928,-0.3146223,-9.811507,-0.0063968976,-0.01857201,-0.010236844,40.375,78.0,0.0023928226,1114658,1089,779,-5409,6565
48613956,4205,0,0.26835528,-1.5262407,-9.473229,-0.012952541,-0.013718243,-0.0055129356,40.375,78.0,0.0023928226,1114658,1314,-1760,-7244,6569
48714755,4181,0,-1.6646274,-1.2522981,-9.377251,-0.0013567251,0.0044445833,-0.034519903,40.25,78.0,0.0023928226,1114658,-1174,5277,-6040,3
48820814,5220,0,0.7034311,2.1535819,-10.550194,-0.018439554,0.0047804443,-0.049941875,40.25,78.0,0.0023928226,1114658,-764,-2963,1585,16929
48925923,4321,0,-0.33025455,0.36786693,-10.156181,0.047499392,0.0014630422,-0.07048016,40.25,78.0,0.0023928226,1114658,2140,5278,-7039,6577
49026716,4315,0,0.17813568,-0.94056296,-11.033715,0.038215637,-0.007003524,-0.07970554,40.375,78.0,0.0023928226,1114658,1958,2909,-4174,6559
49127500,4286,0,0.064958476,-0.670334,-11.028305,0.026381604,-0.0035840892,-0.046840306,40.5,78.0,0.0023928226,1114658,2905,-815,1213,8357
49226101,6300,0,-1.8226087,-0.63587064,-9.495142,-0.01640371,0.023526002,-0.07725951,40.375,78.0,0.0023928226,1114658,105,6604,-1134,3
49330052,4136,0,1.214216,1.8662617,-9.765644,0.048170753,0.002256745,-0.037654363,40.25,78.0,0.0023928226,1114658,1942,39,-3463,2049
49431901,5185,0,0.12145628,0.7312858,-9.979124,0.042166706,-0.0068525723,-0.0735703,40.375,78.0,0.0023928226,1114658,2344,218,-2389,3
49531652,4160,0,0.008552636,-0.6444351,-10.422868,0.03058537,-0.0043800725,-0.075021826,40.375,78.0,0.0023928226,1114658,1047,2550,-8565,6570
49634551,4199,0,0.23271374,-0.5934859,-10.613365,0.035243716,-0.0038776505,-0.056189474,40.375,78.0,0.0023928226,1114658,1239,1669,-254,6566
49735352,4194,0,-1.2751137,1.5850208,-9.399514,0.04100448,0.0012320258,-0.029657759,40.375,78.0,0.0023928226,1114658,-179,5066,-3195,2049
49835102,5186,0,-0.34985518,1.9334763,-9.164806,-0.0015490411,0.021858068,-0.038545523,40.375,78.0,0.0023928226,1114658,-576,5061,-6282,3
49940101,4185,0,1.449262,0.96177167,-11.816763,0.037337583,-0.025280561,-0.05881171,40.375,78.0,0.0023928226,1114658,3339,-1011,3263,2049
50040901,4170,0,0.20322749,-0.98102325,-11.284653,0.015963918,-0.010675834,-0.027067859,40.375,78.0,0.0023928226,1114658,2913,118,-2040,2049
50141701,4167,0,-0.12462837,-0.31926754,-9.3351345,0.0043776655,0.013594313,-0.057297148,40.25,78.0,0.0023928226,1114658,-346,734,-5513,8192
50240402,4064,0,-1.433449,0.4652892,-8.96953,-0.017372089,0.007476896,-0.03072013,40.25,78.0,0.0023928226,1114658,-242,1629,-4899,6573
50346452,4200,0,-0.006535038,1.1877087,-9.612149,0.041268557,-0.003692511,-0.04389956,40.25,78.0,0.0023928226,1114658,837,3465,-5684,3
50446202,4200,0,-0.7852255,-0.050501667,-9.354451,-0.018764675,0.0026611546,-0.05977255,40.25,78.0,0.0023928226,1114658,1243,3798,-8185,6577
50548066,4214,0,-0.9071021,-1.253366,-10.082083,-0.0028112254,0.015143817,-0.061506435,40.375,78.0,0.0023928226,1114658,-2042,2688,-5797,2049
50650952,6301,0,0.22552735,-0.10057457,-10.032266,-0.020330174,0.017654195,-0.027902892,40.25,78.0,0.0023928226,1114658,-3327,-1064,-3936,8193
50747594,6342,0,-1.5964605,1.4437084,-9.426425,0.016009679,0.02093286,-0.07321835,40.375,78.0,0.0023928226,1114658,1104,5456,-2438,8192
50851516,4214,0,0.124754205,2.2812712,-10.730509,0.035916768,-0.0068580653,-0.0819141,40.375,78.0,0.0023928226,1114658,3654,4374,-2349,6581
50954401,4199,0,-0.6051276,-0.7354768,-10.350223,0.04611743,-0.008145333,-0.063851714,40.25,78.0,0.0023928226,1114658,731,4708,-5677,2049
51055203,4200,0,-1.0833883,-1.3474627,-10.526598,-0.012076121,0.004480005,-0.053710207,40.375,78.0,0.0023928226,1114658,1187,2900,-5348,6583
51157166,5364,0,-2.327379,-0.029651001,-9.081489,-0.008569599,0.025563197,-0.02994666,40.375,78.0,0.0023928226,1114658,-1682,5811,-3132,6585
51257900,4249,0,-0.55217373,0.6458584,-8.434425,-0.032862768,0.01942114,-0.044471875,40.375,78.0,0.0023928226,1114658,-2483,-45,-5634,8401
51358751,4287,0,1.072166,1.3728542,-10.646278,-0.010586926,-0.021509655,-0.022918854,40.375,78.0,0.0023928226,1114658,1581,-4458,1899,6581
51461552,4162,0,1.6350693,-0.60824174,-10.471851,0.008814307,-0.009859058,-0.04385472,40.25,78.0,0.0023928226,1114658,718,-2372,-5237,2049
51562352,4190,0,-1.3050128,-1.968703,-11.129171,0.03086863,-0.004431424,-0.043775644,40.375,78.0,0.0023928226,1114658,1033,5150,1202,8192
51664316,5364,0,-1.5424433,-0.46062574,-8.767187,-0.007266423,0.016217085,-0.058444194,40.375,78.0,0.0023928226,1114658,-2871,4862,-5836,6595
51765116,4310,0,-1.0905678,1.8474458,-8.969551,-0.027392635,0.01676055,-0.05301007,40.375,78.0,0.0023928226,1114658,857,1992,-7029,6592
51867902,4185,0,-1.741632,0.46542144,-8.3455105,-0.010005162,-0.0029508404,-0.028919723,40.375,78.0,0.0023928226,1114658,1813,5171,-7756,3
51968702,4200,0,1.064167,-1.0631268,-10.106807,-0.03142871,-0.011965547,-0.050976533,40.5,78.0,0.0023928226,1114658,8,-2332,-3233,2
52069504,4202,0,0.6414749,-1.5233666,-11.09359,-0.015946047,-0.0066006216,-0.038059637,40.375,78.0,0.0023928226,1114658,1558,-3607,-1023,2
52175552,4201,0,-1.280293,1.6299406,-9.192702,-0.033155512,0.022237182,-0.041890908,40.625,78.0,0.0023928226,1114658,181,3157,-4230,8192
52280552,4157,0,-1.6556292,1.5090637,-9.067922,0.040617913,-0.0038733524,-0.059632294,40.375,78.0,0.0023928226,1114658,1146,6169,-8443,2048
52382401,5228,0,-1.119467,-0.590419,-10.404184,0.021775661,-0.003828665,-0.097812705,40.25,78.0,0.0023928226,1114658,2588,4716,-7588,2049
52482174,4203,0,-1.4874734,-1.2722844,-9.9638605,-0.023129137,0.0102297515,-0.08341717,40.375,78.0,0.0023928226,1114658,-666,4471,-4168,6607
52584001,4199,0,-1.5040535,0.3723109,-9.315713,-0.022978954,0.019072471,-0.05108974,40.5,78.0,0.0023928226,1114658,-567,3629,-1973,2
52684808,4206,0,-1.1543918,1.0385027,-9.2321615,-0.028891759,0.019472549,-0.042235676,40.375,78.0,0.0023928226,1114658,-250,1753,-4078,2048
52785602,4200,0,-1.0656861,1.9243898,-9.428,-0.012622312,0.00797022,-0.044904135,40.375,78.0,0.0023928226,1114658,1554,4398,-5603,2
52890718,4317,0,0.5780845,-0.6141724,-9.772842,0.011768737,-0.016031198,-0.044332165,40.25,78.0,0.0023928226,1114658,2448,-299,-2784,6601
52991516,4315,0,0.38965547,-0.30508828,-10.493337,0.02228915,-0.0011925397,-0.03943645,40.375,78.0,0.0023928226,1114658,433,259,-248,6605
53090102,4172,0,0.04910088,0.12238594,-9.273418,0.016299589,0.019620437,-0.034592807,40.375,78.0,0.0023928226,1114658,-326,159,-4619,6599
53191973,5257,0,0.6991648,1.2503802,-9.264886,-0.012103109,0.00380689,-0.049479373,40.375,78.0,0.0023928226,1114658,211,-3262,-2383,8193
53292799,4248,0,1.0224657,0.6143116,-9.59288,-0.016982738,-0.0052567245,-0.031590693,40.375,78.0,0.0023928226,1114658,60,-5240,-5002,0
53397752,4200,0,0.15661986,-0.91211474,-10.679895,0.033421498,-0.0023836778,-0.065600015,40.375,78.0,0.0023928226,1114658,2479,3166,-5109,3
53498592,4240,0,0.57485515,-0.6236985,-11.273975,0.023650821,-0.009949991,-0.03476275,40.375,78.0,0.0023928226,1114658,2194,-1603,4403,2049
53597252,4160,0,-0.6006325,1.2163281,-10.361488,0.045898568,0.008671946,-0.037416577,40.375,78.0,0.0023928226,1114658,2016,2938,621,6603
53699102,5158,0,0.75492334,1.98696,-10.240049,0.016492305,-0.0064727557,-0.039987516,40.375,78.0,0.0023928226,1114658,3862,-810,1094,3
53803052,4200,0,-0.31060869,-0.6311395,-9.2799,-0.041810244,0.003015829,-0.031970102,40.5,78.0,0.0023928226,1114658,-680,1367,-4545,0
53904901,5249,0,-0.87891394,-1.4101008,-9.227351,0.013362205,0.005301171,-0.061895926,40.375,78.0,0.0023928226,1114658,-37,5217,-7361,3
54007811,4209,0,0.3898057,-0.006597777,-10.442807,0.02752379,-0.0029084564,-0.04953207,40.375,78.0,0.0023928226,1114658,-374,-569,-2677,3
54110744,4232,0,-0.13746253,1.5181499,-9.837019,-0.042867742,0.014942906,-0.035178367,40.375,78.0,0.0023928226,1114658,-1048,-1885,-1140,6609
54212595,5269,0,-0.5863404,0.49859813,-9.999432,0.0013645126,-0.0017910486,-0.052116446,40.625,78.0,0.0023928226,1114658,626,3703,-2826,2049
54313351,4152,0,-1.245716,-1.0701584,-10.528272,0.010134366,0.0027710865,-0.053313214,40.375,78.0,0.0023928226,1114658,1833,5415,-5611,2
54418351,4194,0,0.20982252,0.16626675,-9.880674,-0.0037756253,-5.575452e-05,-0.02816315,40.5,78.0,0.0023928226,1114658,-745,-874,-1230,2
54520316,5364,0,0.3046282,1.1507112,-8.79016,-0.03922358,0.005136432,-0.036066707,40.5,78.0,0.0023928226,1114658,1024,-4275,-6618,6607
54621116,4314,0,-0.1325705,-0.0495577,-9.384063,-0.013725217,0.00022023279,-0.037849907,40.5,78.0,0.0023928226,1114658,947,137,-5939,6607
54721868,4267,0,0.39246196,-1.3393028,-9.63059,-0.039057504,0.00021288595,-0.038289756,40.5,78.0,0.0023928226,1114658,61,-2858,-5728,8193
54825801,4250,0,-0.1643957,0.17109,-9.7919855,0.010192024,0.01765985,-0.04566428,40.625,78.0,0.0023928226,1114658,-939,2066,-1639,2
54925502,4200,0,-1.0685185,1.0915654,-9.440994,0.012899923,0.009285063,-0.036076337,40.5,78.0,0.0023928226,1114658,502,3792,-700,2
55027380,4197,0,-0.5503089,1.2480149,-9.321325,0.036173858,-0.009750458,-0.04375971,40.375,78.0,0.0023928226,1114658,-140,3835,-4113,2
55128159,4198,0,-0.32360452,-0.2813589,-10.165025,0.033741016,-0.0018606995,-0.06253617,40.375,78.0,0.0023928226,1114658,987,4834,-5922,2
55232104,5235,0,0.8236386,-1.8936831,-9.713329,0.03682315,-0.011032297,-0.04265193,40.375,78.0,0.0023928226,1114658,770,-262,-1043,2
55332928,4225,0,0.636547,1.1997814,-10.089549,0.018846335,0.014751998,-0.05604855,40.375,78.0,0.0023928226,1114658,947,-1821,-3713,2049
55433702,4200,0,0.70981234,1.5988917,-9.923588,0.026305415,0.0066865953,-0.06411853,40.375,78.0,0.0023928226,1114658,393,-463,101,2048
55534502,4196,0,-0.47305718,1.3167917,-9.798948,0.03836141,-0.0045733945,-0.041375708,40.5,78.0,0.0023928226,1114658,-487,5266,-2638,6614
55636352,5251,0,-0.97941583,-0.66666716,-10.049376,0.022264574,0.0064747212,-0.08712025,40.375,78.0,0.0023928226,1114658,1751,5314,-7815,6612
55739251,5249,0,-1.0699887,-1.1007668,-9.722099,0.010763579,0.015790824,-0.044885557,40.375,78.0,0.0023928226,1114658,-1781,3613,-3290,8192
55840051,4199,0,-0.18182862,0.84565425,-9.006412,0.0017246526,0.017347233,-0.040093724,40.375,78.0,0.0023928226,1114658,-1912,2508,-4048,2049
55938776,4224,0,-0.19339746,2.1498096,-9.956969,0.028336108,0.0074529178,-0.05602383,40.375,78.0,0.0023928226,1114658,2605,3255,-332,8193
56041652,4200,0,-0.57886857,0.9015389,-9.42508,0.026770117,0.0033836626,-0.073888205,40.5,78.0,0.0023928226,1114658,144,3600,-9626,6620
56147702,4184,0,0.16075987,-0.7847371,-10.660855,-0.0014614695,0.0034764793,-0.071314074,40.5,78.0,0.0023928226,1114658,1271,-2780,-4265,8504
56248502,4134,0,-1.0893317,0.29773235,-9.487,0.020629777,0.004825738,-0.017291758,40.5,78.0,0.0023928226,1114658,-908,4272,-4614,2048
56349302,4152,0,0.7928306,0.987307,-8.602026,-0.03888217,0.017815556,-0.0536078,40.5,78.0,0.0023928226,1114658,3,-2246,-7123,6637
56455370,4211,0,-0.7623638,0.25479928,-10.182822,0.016809655,0.004530357,-0.07410687,40.625,78.0,0.0023928226,1114658,-51,6184,-7056,2049
56556187,4235,0,-0.7317961,-1.4005734,-10.658996,-0.042579934,-0.0059891236,-0.037242096,40.375,78.0,0.0023928226,1114658,589,801,161,8192
56656952,4153,0,0.03639573,-0.78195745,-10.775999,0.022209974,-5.519797e-05,-0.020621682,40.5,78.0,0.0023928226,1114658,506,-1812,-158,2
56758802,5250,0,-1.4239501,1.2307831,-9.458304,0.04520643,0.015197258,-0.083717324,40.375,78.0,0.0023928226,1114658,-483,5849,-5213,6636
56861701,4199,0,-0.557866,1.5738537,-9.218425,0.040139478,-0.0037210272,-0.047278587,40.5,78.0,0.0023928226,1114658,949,5638,-8307,2
56964601,6299,0,-0.36174917,-0.7761381,-9.596752,-0.010413642,0.0013576698,-0.09162191,40.5,78.0,0.0023928226,1114658,1377,5354,-3211,2049
57066453,5251,0,0.18573602,-1.4910998,-9.163666,-0.048261367,-0.00049606594,-0.017107876,40.5,78.0,0.0023928226,1114658,-1197,-3709,-7052,2048
57167264,4191,0,0.86029106,0.22877136,-9.575028,0.0043720976,0.007979672,-0.033784993,40.5,78.0,0.0023928226,1114658,-562,-3472,-2611,2049
57265991,4197,0,-1.2127388,1.7826421,-9.2303095,0.021909712,0.015123319,-0.06513008,40.5,78.0,0.0023928226,1114658,389,6046,-6104,6634
57367801,5243,0,-0.98731995,1.3825113,-8.744155,-0.039447278,0.009003877,-0.030714212,40.5,78.0,0.0023928226,1114658,-1242,1201,-4363,8193
57468601,4199,0,1.6741083,-0.22126764,-10.833055,0.007333696,-0.0071606548,-0.052353144,40.5,78.0,0.0023928226,1114658,1577,-5442,-4004,6643
57575702,4150,0,-0.5984884,-0.42982194,-9.730141,-0.03690803,0.020760508,-0.039051533,40.5,78.0,0.0023928226,1114658,-1044,-1221,-5509,3
57679652,4128,0,0.6586948,1.2821308,-8.715466,-0.019515423,0.0030998136,-0.008307146,40.375,78.0,0.0023928226,1114658,-2564,-3870,-4949,6633
57780454,4158,0,1.4977715,1.2438744,-9.598672,0.025600012,0.003878869,-0.06215097,40.5,78.0,0.0023928226,1114658,1474,-1471,-3882,16930
57881252,4153,0,-0.13683547,-0.106227435,-10.315134,0.03797908,-0.008389924,-0.07175941,40.375,78.0,0.0023928226,1114658,905,4160,-7363,6640
57983102,5210,0,-0.7698334,-1.2186099,-10.2551565,-0.02141962,-0.003223317,-0.043289408,40.5,78.0,0.0023928226,1114658,1594,2904,-1101,0
58082870,4125,0,0.054341875,-0.8374555,-9.583819,-0.02550451,-0.007729749,0.0061249686,40.375,78.0,0.0023928226,1114658,-2608,-3474,-2621,0
58184702,4172,0,1.1695908,1.1281484,-8.868117,0.0036479526,-0.0014845928,-0.016001983,40.375,78.0,0.0023928226,1114658,-514,-3229,-4663,6649
58285502,4200,0,0.39126676,1.6178279,-9.510202,0.032734703,0.007711504,-0.06362226,40.625,78.0,0.0023928226,1114658,1690,3041,-4336,6650
58388442,6340,0,-0.4921202,-0.7967304,-10.193673,0.027694847,-0.007355249,-0.090303965,40.5,78.0,0.0023928226,1114658,1769,2845,-2100,2049
58490251,5135,0,-0.42669177,-0.948716,-10.002171,0.015798716,0.003159612,-0.0404144,40.375,78.0,0.0023928226,1114658,-402,2391,-3078,3
58590002,4110,0,-1.593024,0.18248135,-8.929484,0.009469486,0.007694894,-0.025554063,40.5,78.0,0.0023928226,1114658,-2072,4426,-6239,8539
58691852,4200,0,-1.0456336,2.0841262,-9.117591,0.019281896,0.023267146,-0.06226889,40.375,78.0,0.0023928226,1114658,-1393,5873,-7827,8193
58792652,4201,0,-1.0647225,1.9174112,-9.9100895,0.017891793,0.0071113543,-0.07399242,40.5,78.0,0.0023928226,1114658,107,5797,-4937,6633
58895587,4236,0,0.25388217,-0.22976339,-10.928369,0.04181296,-0.0076336446,-0.050868377,40.5,78.0,0.0023928226,1114658,994,3043,-2593,6659
58995301,4199,0,-1.2677706,-1.337702,-9.116549,0.017789254,-0.0011067267,-0.047005948,40.375,78.0,0.0023928226,1114658,-1107,4245,-6485,2
59100339,4237,0,0.8601899,0.72019386,-10.233214,0.021930141,0.008194586,-0.05334673,40.625,78.0,0.0023928226,1114658,1467,-514,-1160,6640
59196901,4199,0,-1.6753005,0.7473301,-8.197938,-0.015769295,0.02034595,-0.054737397,40.5,78.0,0.0023928226,1114658,-1583,3605,-5375,2
59709302,5251,0,0.040284287,1.3610439,-8.995008,-0.039871097,0.01817427,-0.040816866,40.625,78.0,0.0023928226,1114658,-2661,-1120,-2832,2
59810104,4177,0,1.4832395,0.754502,-10.76719,-0.015112222,-0.01713872,-0.052435815,40.625,78.0,0.0023928226,1114658,539,-4917,-1984,2
59910901,4167,0,-0.46317342,-0.32114032,-10.833722,0.03753733,-0.01600492,-0.043141525,40.5,78.0,0.0023928226,1114658,1561,5590,-1438,2
60010723,5321,0,0.63374436,-1.7628341,-10.1758795,-0.04710592,-0.0045762914,-0.036428522,40.5,78.0,0.0023928226,1114658,-1685,-3950,-1132,6650
60111469,4217,0,0.7780044,-0.29993537,-10.549108,0.004631543,-0.0054804757,-0.04631292,40.375,78.0,0.0023928226,1114658,2081,-3667,926,2049
60216461,5259,0,-0.011314911,2.0282674,-9.242865,0.052537758,0.00685613,-0.055287343,40.625,78.0,0.0023928226,1114658,241,3479,-2630,8193
60317252,4116,0,-0.26828378,0.1550223,-9.039521,-0.033421285,0.0022142346,-0.040831834,40.5,78.0,0.0023928226,1114658,-2239,-223,-5105,6664
60418052,4122,0,0.26524794,-0.21845351,-10.707139,0.048849057,-0.0015661007,-0.070612594,40.5,78.0,0.0023928226,1114658,901,3855,-4925,6672
60518852,4160,0,0.022551773,-1.6760725,-9.796544,-0.05193673,-0.0020137534,-0.035801746,40.5,78.0,0.0023928226,1114658,-1058,-2852,-1054,6665
60620701,5179,0,-1.158978,0.041977037,-9.603964,0.048495125,0.007098239,-0.035516687,40.625,78.0,0.0023928226,1114658,399,5163,-1674,16930
60721502,4200,0,-1.6823156,1.7814755,-9.1006775,-0.013002125,0.027973859,-0.050774526,40.625,78.0,0.0023928226,1114658,-412,4109,-5225,6654
60822302,4200,0,1.5330143,1.4512062,-10.4884615,0.015011274,-0.014489148,-0.034578085,40.625,78.0,0.0023928226,1114658,2909,-3577,536,6664
60923102,4190,0,-0.50437576,0.4741062,-10.48102,0.028700974,-0.008871737,-0.029581798,40.625,78.0,0.0023928226,1114658,713,5291,-4112,0
61024962,5260,0,0.81832737,-1.9904417,-9.862076,-0.045880105,0.0006105248,-0.05991709,40.625,78.0,0.0023928226,1114658,-2612,-4880,-7235,2
61127851,5128,0,0.65352416,-0.6094032,-9.572245,-0.0020565894,-0.00094471074,-0.023246977,40.5,78.0,0.0023928226,1114658,-1158,-4018,-3177,6662
61227602,4078,0,-1.2316364,1.1037971,-9.085858,-0.020758478,0.01632261,-0.036422037,40.5,78.0,0.0023928226,1114658,-1166,2168,-6259,6674
61329457,4206,0,1.0158194,0.822001,-9.874252,-0.025946887,-0.01825762,-0.014436207,40.625,78.0,0.0023928226,1114658,-854,-5631,-4198,8193
61430252,4200,0,0.3170417,0.57858634,-9.920039,0.049913976,-0.0032775395,-0.061096054,40.625,78.0,0.0023928226,1114658,618,4666,-6569,6671
61538401,5222,0,-0.023424236,-0.94080526,-10.817231,0.019792926,0.0007766759,-0.042512946,40.5,78.0,0.0023928226,1114658,665,-1742,86,2
61639201,4199,0,-2.693015,1.8541006,-10.599311,0.022981666,0.01401833,-0.04232261,40.625,78.0,0.0023928226,1114658,165,5853,-1204,8193
61742101,4157,0,-0.9494027,0.92573386,-9.518901,-0.03291344,0.011148298,-0.05834763,40.5,78.0,0.0023928226,1114658,863,2438,-5615,2
61842902,4164,0,1.9343355,0.09111728,-11.155122,0.002098462,-0.029320503,-0.02129767,40.375,78.0,0.0023928226,1114658,2468,-4652,2162,0
61943702,6300,0,-1.2107936,-1.2426108,-9.872374,0.0069914013,-0.0007811417,-0.0735389,40.625,78.0,0.0023928226,1114658,217,4648,-4802,2
62045551,5235,0,-1.2466325,-0.60026985,-9.430636,-0.04961557,0.009630581,-0.065003,40.625,78.0,0.0023928226,1114658,-513,-230,-5139,2049
62145301,4128,0,0.8499011,0.598021,-10.118992,0.017302794,-0.007795882,-0.013891612,40.75,78.0,0.0023928226,1114658,-368,-4112,223,2
62249252,4128,0,0.46050912,1.4369915,-10.804807,0.015203114,-0.0033326494,-0.07457495,40.625,78.0,0.0023928226,1114658,3356,2833,162,2049
62347955,4203,0,0.17103705,0.1412167,-10.478965,-0.03513744,-0.03390873,-0.022417884,40.5,78.0,0.0023928226,1114658,2464,-2969,-2964,8193
62452951,4199,0,0.67728627,-0.50688815,-10.930288,0.0071825394,0.014285997,-0.053292897,40.5,78.0,0.0023928226,1114658,3267,-2772,1443,0
62553751,4199,0,-2.3009129,0.02815198,-8.685803,0.006111089,0.013757605,-0.015865937,40.75,78.0,0.0023928226,1114658,-1550,5104,-5120,2049
62650351,4193,0,-0.6429681,1.2537714,-9.177672,0.0364829,0.016353296,-0.056080885,40.75,78.0,0.0023928226,1114658,-47,3990,-4928,2
62754302,4168,0,-0.33873764,1.4978925,-9.04307,0.042983204,-0.003998405,-0.027513716,40.5,78.0,0.0023928226,1114658,-1909,3280,-6482,8192
62855102,4147,0,0.32530788,0.035220567,-10.35741,-0.039608106,-0.008923989,-0.04231432,40.5,78.0,0.0023928226,1114658,2078,-2210,-4230,8192
62960101,4199,0,-0.79620326,-1.6437052,-9.820554,-0.046610896,0.019704232,-0.04037836,40.5,78.0,0.0023928226,1114658,-1487,-1385,-6275,6684
63060902,4198,0,0.713592,0.34906617,-10.787348,0.018708605,-0.004545401,-0.014768468,40.75,78.0,0.0023928226,1114658,992,-1789,3080,16931
63162802,5300,0,-0.57207483,2.5044122,-9.442384,0.0433022,0.024528246,-0.08893986,40.625,78.0,0.0023928226,1114658,983,4428,-6458,0
63261451,4191,0,0.5694182,1.7051435,-9.926701,-0.035395294,0.0063005295,-0.027795376,40.625,78.0,0.0023928226,1114658,761,-2041,-1552,8193
63362251,4200,0,0.65506685,0.66804415,-10.638769,0.043252867,-0.019949364,-0.038961116,40.625,78.0,0.0023928226,1114658,2116,793,-3437,8192
63467279,4228,0,0.71825314,-1.9269816,-11.530653,-0.010330412,-0.020670082,-0.02155804,40.5,78.0,0.0023928226,1114658,-908,-3048,-13,6684
63568094,4243,0,-0.38713545,0.08946077,-9.656544,0.006674401,0.021370742,-0.07919194,40.625,78.0,0.0023928226,1114658,-531,974,-2712,2049
63669923,5272,0,-1.1103488,1.9828383,-8.923308,0.0042264014,0.008703072,-0.028941529,40.625,78.0,0.0023928226,1114658,898,4403,-3601,6697
63768601,4199,0,0.8835811,1.8024956,-9.4158325,-0.03378136,0.0017851563,-0.057470262,40.5,78.0,0.0023928226,1114658,-1161,-4418,-4030,8192
63873602,4200,0,-0.52462405,-0.99594724,-9.608541,-0.0260595,0.0034736483,-0.0365616,40.75,78.0,0.0023928226,1114658,-243,1793,-5914,8193
63974402,4198,0,1.4609776,-0.92583966,-11.250736,-0.00029990906,-0.012099283,-0.0077544646,40.75,78.0,0.0023928226,1114658,2413,-4687,1576,8192
64075201,4192,0,-1.710647,0.15541695,-9.22082,0.051670965,0.01524246,-0.05591391,40.625,78.0,0.0023928226,1114658,125,5927,-6953,6681
64174956,4160,0,-0.47720078,1.5065215,-8.820534,-0.022581985,0.011009433,-0.035066742,40.625,78.0,0.0023928226,1114658,-926,-528,-7079,8193
64275752,4200,0,0.8181413,1.2255076,-10.121254,0.03259819,-0.0071885632,-0.019418871,40.625,78.0,0.0023928226,1114658,2031,-573,-2913,0
64380751,4199,0,0.62342113,-1.057134,-10.814172,0.01830917,-0.0028044216,-0.056239538,40.625,78.0,0.0023928226,1114658,1723,136,493,16930
64479524,5322,0,0.10992002,-1.2796538,-10.270579,-0.040118445,0.0031763683,-0.025817916,40.625,78.0,0.0023928226,1114658,-456,-2745,-2584,6678
64584464,4140,0,-0.4439501,0.5206056,-8.952654,-0.03128597,0.026701113,-0.032864094,40.625,78.0,0.0023928226,1114658,-3422,-540,-4146,8193
64684366,5414,0,-0.15107416,2.439372,-10.664942,0.04402503,-0.011449656,-0.05419509,40.75,78.0,0.0023928226,1114658,2478,3547,719,6684
64789202,4111,0,1.1683931,-0.63638633,-10.827038,0.013566042,-0.010270443,-0.05529744,40.75,78.0,0.0023928226,1114658,2008,1141,-171,8654
64890002,4033,0,-0.26647264,-1.3328848,-11.309499,-0.032437503,-0.0034107435,-0.04195152,40.75,78.0,0.0023928226,1114658,-446,-628,1490,6694
64993991,4235,0,0.8083236,1.1297461,-10.231906,0.016225655,0.007277685,-0.05697497,40.625,78.0,0.0023928226,1114658,1792,-4415,-1073,6687
65094763,4211,0,-1.5338771,2.0023272,-10.059999,-0.036517758,0.016574707,-0.06270194,40.625,78.0,0.0023928226,1114658,-964,1038,-6342,6701
65196602,5250,0,1.0377989,0.7996108,-8.668072,0.030483695,-0.025432343,-0.028669756,40.625,78.0,0.0023928226,1114658,2534,-506,-1000,2049
65294251,4199,0,1.6968222,-0.5997152,-10.470251,-0.019968363,-0.013695328,-0.03587846,40.625,78.0,0.0023928226,1114658,1662,-3593,-2173,6685
65400331,4229,0,-0.21534264,0.17267539,-10.577907,0.005170022,0.012748991,-0.055186626,40.625,78.0,0.0023928226,1114658,-519,-1538,-4415,6696
65501144,4214,0,-1.2544227,0.766492,-8.898248,-0.003418321,0.012559817,-0.022564955,40.625,78.0,0.0023928226,1114658,-2776,3278,-3861,6700
65601943,4242,0,-0.022054244,2.8169348,-10.219797,0.044780955,-0.0015204283,-0.040090844,40.625,78.0,0.0023928226,1114658,3759,1777,-1581,8677
65703761,5259,0,0.6384579,-0.25257808,-10.229103,-0.044377163,-0.008553139,-0.0596511,40.625,78.0,0.0023928226,1114658,-899,-2337,-1632,3
65804576,4193,0,0.75530785,-0.91475636,-10.020049,0.017832033,0.008902173,-0.054495845,40.625,78.0,0.0023928226,1114658,974,-1846,-7967,3
65905365,4208,0,-0.2656358,-1.0550973,-10.285283,-0.04101343,0.004973609,-0.023693351,40.75,78.0,0.0023928226,1114658,-2780,-3227,1254,6701
66006158,4189,0,-1.7216727,1.7268184,-9.450254,0.025648613,0.0076101837,-0.049236976,40.75,78.0,0.0023928226,1114658,1656,5324,-4698,6703
66109123,6284,0,1.7409592,1.6065593,-11.055335,-0.01314136,-0.014638188,-0.062609054,40.625,78.0,0.0023928226,1114658,2206,-1963,1806,6694
66209924,4272,0,0.018249823,-0.8448293,-10.3143,0.011815772,-0.0043777036,-0.070438325,40.75,78.0,0.0023928226,1114658,139,1996,-6684,6701
66311712,4197,0,0.62359995,-1.4245002,-10.403786,-0.026424158,0.008849142,-0.05302432,40.75,78.0,0.0023928226,1114658,1099,-3806,-5272,3
66412502,4186,0,-1.6594261,-0.8540926,-9.275174,-0.02237443,0.0076688873,-0.026775796,40.625,78.0,0.0023928226,1114658,-2763,4406,-4600,2048
66513311,4195,0,0.9460157,1.4148701,-10.765467,0.02015453,-0.00097064924,-0.029705547,40.75,78.0,0.0023928226,1114658,2312,-1854,962,2
66614101,4157,0,-0.8614687,1.1660476,-8.744524,-0.03559656,0.006657291,-0.04614361,40.625,78.0,0.0023928226,1114658,-1347,483,-5957,2
66719111,4210,0,1.7244346,-0.55093056,-10.479397,0.0076744156,-0.0056012045,-0.050424855,40.625,78.0,0.0023928226,1114658,1676,-3816,-3247,2
66818852,4160,0,-0.536193,-1.5190105,-10.869483,-0.040389672,-0.01304333,-0.02465878,40.625,78.0,0.0023928226,1114658,-879,-1813,-14,6706
66919652,4153,0,-1.7338055,-0.032316666,-9.560148,0.033195388,0.017966451,-0.05495106,40.625,78.0,0.0023928226,1114658,-507,5677,-7655,8691
67020485,4149,0,1.5972524,1.7098702,-10.157261,-0.02015074,-0.009199393,0.0012899756,40.625,78.0,0.0023928226,1114658,2814,-5048,2391,2048
67122308,5176,0,-0.54501665,1.6273878,-9.70359,0.012762364,0.0060015805,-0.066576906,40.875,78.0,0.0023928226,1114658,464,6978,-7857,6704
67225202,4043,0,1.1857157,-1.4414811,-10.515562,-0.047766056,-0.013703903,-0.021265548,40.625,78.0,0.0023928226,1114658,-306,-5732,-3089,6696
67326002,4051,0,0.8385574,-0.943902,-9.900166,0.027740743,0.0070941895,-0.054844167,40.625,78.0,0.0023928226,1114658,552,1290,-6774,6697
67426802,4047,0,-0.9050547,0.5380954,-10.007918,-0.042267215,0.0126212,-0.041102927,40.625,78.0,0.0023928226,1114658,923,-1531,-314,6710
67530770,4219,0,0.8652374,1.7318746,-9.248875,-0.017476486,0.0058700694,-0.04203222,40.75,78.0,0.0023928226,1114658,-1813,-5315,-4977,6705
67631551,4196,0,-0.33249748,1.6145794,-10.585756,0.0433684,-0.011427489,-0.045768194,40.625,78.0,0.0023928226,1114658,3139,4683,-1888,6697
67732359,4202,0,-0.27461696,-1.290959,-9.251368,-0.029704768,0.0091246255,-0.031186594,40.75,78.0,0.0023928226,1114658,-1113,-933,-7912,3
67834202,5251,0,1.2695367,-0.97790617,-10.745341,0.009125304,0.0028548096,-0.057012305,40.75,78.0,0.0023928226,1114658,-263,-3615,-385,6723
67937136,5285,0,0.58917075,1.2697601,-9.81968,0.040199786,-0.0053721345,-0.04250745,40.75,78.0,0.0023928226,1114658,1626,-1295,-1452,6707
68042102,4186,0,0.94701725,1.2912077,-11.121923,0.01664611,-0.021996858,-0.05193635,40.75,78.0,0.0023928226,1114658,3060,-2014,-81,6709
68142902,4184,0,-1.3549569,-0.058677815,-10.519278,0.031906106,-0.017872551,-0.051901206,40.75,78.0,0.0023928226,1114658,1438,7460,-3739,0
68244752,4172,0,-1.4151661,-1.6221561,-9.538106,-0.0067540654,0.009027662,-0.04769614,40.75,78.0,0.0023928226,1114658,7,4469,-5882,6722
68347656,6304,0,-1.2414275,0.09853044,-9.34325,-0.046989836,0.020633895,-0.071552105,40.75,78.0,0.0023928226,1114658,35,4432,-922,6714
68444316,4251,0,-0.46641818,0.9252231,-9.810459,0.024030214,-0.002375054,-0.047523968,40.75,78.0,0.0023928226,1114658,2406,-2635,21,6713
68550302,4195,0,0.40658897,-0.11904142,-8.216071,-0.027961,-0.0042445585,-0.034528013,40.625,78.0,0.0023928226,1114658,139,-853,-7519,2
68651102,4200,0,0.9505251,-0.8698072,-11.302427,-0.0039044586,-0.012368383,-0.04828743,40.75,78.0,0.0023928226,1114658,653,-1910,-1641,2
68751901,4194,0,0.2801164,-0.6971361,-10.13405,0.006459785,0.0023553409,-0.051193494,40.75,78.0,0.0023928226,1114658,-1131,-832,-3379,2
68857952,4201,0,2.0510702,1.8463769,-11.008311,-0.0017947612,0.0032409113,-0.045212734,40.75,78.0,0.0023928226,1114658,646,-5259,622,8727
68958772,4221,0,-0.18686892,1.464707,-9.904178,0.035532016,-0.008016671,-0.049928553,40.625,78.0,0.0023928226,1114658,679,4701,-3114,6729
69059575,4223,0,-1.1017423,0.12156122,-10.056601,0.008963299,-0.0014576952,-0.083318315,40.75,78.0,0.0023928226,1114658,1192,4485,-9187,6720
69158251,4199,0,0.36252993,-1.3310678,-10.749402,-0.049414843,-0.012297212,-0.02527615,40.625,78.0,0.0023928226,1114658,1704,-3694,-2335,8192
69259052,4200,0,0.5727871,-1.7264966,-10.2994375,-0.031464975,0.0035196925,0.0055206385,40.75,78.0,0.0023928226,1114658,-1046,-5039,-1283,2
69365144,4240,0,-0.3934955,1.308801,-8.540709,0.00286019,0.010133236,-0.030154886,40.75,78.0,0.0023928226,1114658,-3480,2784,-7301,6735
69463802,4200,0,0.17879453,1.3713043,-9.365112,-0.041518074,-0.0040564486,-0.025974136,40.75,78.0,0.0023928226,1114658,-383,-2849,-4496,6737
69568802,4198,0,-1.2741634,-1.1706439,-10.6473465,-0.022352163,-0.0020209933,-0.045804795,40.75,78.0,0.0023928226,1114658,1201,4779,-924,2
69669602,4200,0,0.13931242,-1.998279,-9.651356,-0.04379141,-0.00047988578,-0.010555137,40.625,78.0,0.0023928226,1114658,-1944,-3245,-5348,8192
69773580,4222,0,-0.055526942,0.3973162,-9.362253,-0.017087761,0.012912546,-0.017854348,40.75,78.0,0.0023928226,1114658,510,-144,-2393,8193
69876454,4121,0,0.05301908,1.3831788,-9.041962,-0.018775268,-0.005394599,-0.028316097,40.625,78.0,0.0023928226,1114658,867,-1119,-3100,2048
69975188,4236,0,1.2130795,0.8598766,-9.453202,0.01447149,0.0010394575,-0.06546697,40.75,78.0,0.0023928226,1114658,850,-821,-9693,8192
70075984,4232,0,-0.4905531,-1.2251956,-10.527282,-0.021758944,-0.012630803,-0.038704515,40.625,78.0,0.0023928226,1114658,1316,3282,-2377,8193
70176752,4190,0,0.6782319,-2.3435986,-9.853049,-0.03031436,0.0016725797,-0.0279999,40.75,78.0,0.0023928226,1114658,-2145,-4664,-3334,2048
70278718,5340,0,0.5045639,0.04786188,-11.040853,0.015630204,-0.0033689945,-0.043389227,40.75,78.0,0.0023928226,1114658,1692,-1428,1408,8742
70381502,5140,0,0.6502767,2.0532885,-9.041348,0.0305739,0.004810037,-0.056584388,40.625,78.0,0.0023928226,1114658,1439,-579,-5892,6734
71601606,4204,0,0.6982759,-0.53582704,-11.009223,0.028918434,-0.0065030972,-0.060895324,40.875,78.0,0.0023928226,1114658,3456,582,480,2
71702401,4199,0,-1.2942369,-1.0190128,-9.758943,0.009601133,0.012710152,-0.044746827,40.75,78.0,0.0023928226,1114658,-401,3804,-8835,2
71803202,4200,0,-0.735131,0.55927914,-9.582832,-0.03377844,0.013953498,-0.04241986,40.875,78.0,0.0023928226,1114658,938,2433,-993,0
71904001,4199,0,1.0699823,1.2059052,-9.287123,-0.022435835,0.0025355658,-0.0054925475,40.75,78.0,0.0023928226,1114658,-878,-4717,-2347,2
72003751,4169,0,0.7027671,1.914655,-10.345266,0.039734174,-0.0019907444,-0.076329075,40.875,78.0,0.0023928226,1114658,1771,-148,-5717,6741
72108769,4217,0,0.9497281,-1.4223782,-10.845372,-0.0045046196,-0.01445045,-0.04234971,40.875,78.0,0.0023928226,1114658,-828,-1015,-3317,6740
72207549,4288,0,-0.7990203,-1.2529461,-9.057684,0.002611117,0.008200911,-0.04845373,40.75,78.0,0.0023928226,1114658,-2051,2189,-8627,6754
72308380,5378,0,-1.5302277,0.39358217,-10.022295,-0.030800743,0.024668848,-0.05366328,40.875,78.0,0.0023928226,1114658,-308,2189,-1252,6746
72413252,4134,0,-1.2702609,2.382763,-8.459857,-0.011852889,0.025345378,-0.038156208,40.875,78.0,0.0023928226,1114658,1240,4136,-6953,8787
72514056,4080,0,0.37502015,0.9762732,-10.133956,-0.028841984,-0.003368575,-0.03410721,40.75,78.0,0.0023928226,1114658,-814,-3768,-5921,6747
72615902,5158,0,1.791647,-1.0461587,-11.525848,-0.0025681315,-0.020768803,-0.017389782,40.75,78.0,0.0023928226,1114658,1079,-4130,907,2049
72714712,4311,0,-0.79418117,-1.2168272,-10.161915,0.017777707,-0.008799012,-0.035320837,40.75,78.0,0.0023928226,1114658,30,3635,-5771,6756
72817511,4209,0,-1.6978751,0.53325725,-8.458351,-0.0047318134,0.0202365,-0.03873835,40.875,78.0,0.0023928226,1114658,-813,5487,-8210,2
72918311,4209,0,0.5240744,1.1171705,-8.612134,-0.04260769,0.01432109,-0.040382225,40.875,78.0,0.0023928226,1114658,-2037,-4041,-5954,2
73021201,4085,0,0.97653556,0.58661264,-10.271829,-0.018317858,-0.01886465,-0.041951798,40.875,78.0,0.0023928226,1114658,574,-3985,-2493,6741
73125171,4220,0,1.4613256,-1.2481942,-10.37981,-0.021060701,-0.02243073,-0.004068576,40.75,78.0,0.0023928226,1114658,-1136,-4597,-5828,6751
73225952,4200,0,0.78086233,-0.53082687,-10.029683,0.010784433,-0.0003322814,-0.03754948,40.75,78.0,0.0023928226,1114658,1760,-1499,252,8193
