timestamp,integral_dt,error_count,x,y,z,x_integral,y_integral,z_integral,temperature,range_m_s2,scaling,device_id,x_raw,y_raw,z_raw,temperature_raw
49076803,4000,0,-0.028589165,0.026437884,-9.985622,0.0015339447,0.0007636892,-0.038716488,51.972298,156.9064,0.0047884034,1442826,103,-27,2022,6127
49176803,3993,0,0.43955886,0.009353588,-10.04907,0.0021493551,-0.002032067,-0.04288272,51.972298,156.9064,0.0047884034,1442826,178,-90,2199,6127
49276803,4000,0,0.19808777,0.33477977,-9.37372,0.0017185854,0.0032327548,-0.038284786,51.98338,156.9064,0.0047884034,1442826,-62,-48,2244,6131
49380873,4059,0,-0.0071670203,0.01600614,-9.185243,0.0028015783,0.008545976,-0.03559926,52.02216,156.9064,0.0047884034,1442826,-477,-88,2276,6145
49480804,4000,0,-0.35745737,-0.7133651,-9.453097,0.0033987225,0.006263624,-0.03347952,52.047092,156.9064,0.0047884034,1442826,-309,-239,1925,6154
49584832,4029,0,0.29866984,0.3636696,-9.246744,0.007942882,0.009445032,-0.03749519,52.105263,156.9064,0.0047884034,1442826,-111,-186,2175,6175
49684804,4001,0,0.67941654,0.75886625,-9.593101,0.0044813477,0.0026946722,-0.04124313,52.09141,156.9064,0.0047884034,1442826,-122,-104,2162,6170
49784816,3996,0,0.67517036,0.76599956,-9.647273,-0.0033290796,-0.0036090212,-0.042179342,52.085873,156.9064,0.0047884034,1442826,587,317,2172,6168
49888803,3956,0,0.26684734,-0.27625048,-9.928881,0.0061786436,0.0052743466,-0.04179952,52.07756,156.9064,0.0047884034,1442826,-53,-323,1957,6165
49988831,4028,0,-0.5673112,-0.58093804,-10.149621,-0.001710864,-0.0030216498,-0.035752483,52.088642,156.9064,0.0047884034,1442826,-34,-89,2066,6169
50092803,4000,0,-0.36092764,-0.8331085,-10.188213,-0.007651561,-0.008351785,-0.0437131,52.105263,156.9064,0.0047884034,1442826,142,153,2091,6175
50192803,3999,0,-0.40120503,-0.53789103,-10.275429,-0.0018699083,-0.0052450793,-0.047125418,52.116344,156.9064,0.0047884034,1442826,373,-75,1919,6179
50292804,3990,0,-0.39899346,-0.38366425,-10.068061,0.0046859104,0.005091844,-0.038006797,52.144043,156.9064,0.0047884034,1442826,116,-415,2271,6189
50396810,3993,0,0.78974247,0.04516622,-9.6173725,-0.007731006,-0.0039752293,-0.050659545,52.135735,156.9064,0.0047884034,1442826,379,311,1787,6186
50496816,3990,0,0.6621628,-0.4966835,-10.107734,0.012275992,0.007479946,-0.03466601,52.105263,156.9064,0.0047884034,1442826,-693,-307,1443,6175
50600804,4000,0,1.0959964,-0.14179663,-10.07685,0.0109816985,0.01068055,-0.03470908,52.141273,156.9064,0.0047884034,1442826,-501,107,1192,6188
50700804,3994,0,0.69254386,0.06352405,-10.095275,-0.004354796,0.0106057115,-0.037184913,52.174515,156.9064,0.0047884034,1442826,-74,384,1403,6200
50800803,3999,0,-0.42823344,0.14704427,-9.603055,-0.009366604,-0.005331991,-0.039973177,52.171745,156.9064,0.0047884034,1442826,29,-305,1975,6199
50904804,4001,0,0.504082,0.17435598,-9.510908,-0.023863038,0.0011623139,-0.043184422,52.191135,156.9064,0.0047884034,1442826,840,997,2205,6206
51004835,4032,0,0.38853037,-0.18547274,-10.801927,-0.013084447,-0.0024806932,-0.04436279,52.216064,156.9064,0.0047884034,1442826,390,870,1236,6215
51104803,4000,0,-0.7661318,0.17970926,-10.162872,-0.0074026203,0.0058073844,-0.03155821,52.229916,156.9064,0.0047884034,1442826,337,-1008,1657,6220
51208803,4000,0,-0.048622023,-0.05539468,-9.919649,-0.008774301,0.00023840621,-0.042885587,52.221607,156.9064,0.0047884034,1442826,64,-265,2172,6217
51310403,3993,0,-0.29160237,0.04155006,-9.93571,-0.01943323,-0.0014487224,-0.045454692,52.23546,156.9064,0.0047884034,1442826,-424,-42,2361,6222
51410403,4000,0,-0.061240256,-0.5431339,-10.580437,-0.010541956,-0.00014588729,-0.044764888,52.227146,156.9064,0.0047884034,1442826,114,-71,2017,6219
51514424,4020,0,0.080062136,-0.44003713,-10.126972,0.009223932,0.00017087744,-0.033706136,52.265926,156.9064,0.0047884034,1442826,-308,-204,2244,6233
51614403,3980,0,-0.32612258,-0.028789453,-10.549375,-0.008336699,-0.0008061722,-0.058107227,52.282547,156.9064,0.0047884034,1442826,-14,-1010,1435,6239
51714403,4000,0,0.05556064,0.36700603,-10.901967,-0.017948318,-0.0040109,-0.054768886,52.279778,156.9064,0.0047884034,1442826,-464,443,1224,6238
51814403,4000,0,0.17694211,0.7390519,-9.800287,-0.006386461,0.0031190352,-0.045152176,52.282547,156.9064,0.0047884034,1442826,-451,78,2304,6239
51918415,4012,0,-0.21271786,0.0903607,-9.877944,0.00860898,0.0044928314,-0.040782634,52.29086,156.9064,0.0047884034,1442826,552,-407,2197,6242
52022403,3967,0,-0.046827417,0.019204974,-9.860695,0.0032973702,-0.004144857,-0.051680524,52.301937,156.9064,0.0047884034,1442826,31,-401,2495,6246
52122454,4051,0,-0.29535437,-0.27170056,-9.371727,-0.004521404,0.004896567,-0.040541753,52.31579,156.9064,0.0047884034,1442826,-1049,-43,3343,6251
52226435,4032,0,-0.17341985,0.33253482,-9.226677,0.0038324443,0.008137578,-0.043505825,52.2964,156.9064,0.0047884034,1442826,-149,-64,2731,6244
52326403,4000,0,-0.23520939,0.793945,-9.151541,0.002545582,0.009003079,-0.04559978,52.301937,156.9064,0.0047884034,1442826,-4,-542,3010,6246
52430403,4000,0,0.47237054,-0.21409374,-10.75689,0.0027735713,-0.004156324,-0.04265438,52.34626,156.9064,0.0047884034,1442826,-375,-348,1447,6262
52530405,3972,0,-0.35939375,-0.6196713,-10.181954,-0.0107919425,-0.002603842,-0.03588003,52.35734,156.9064,0.0047884034,1442826,-817,-26,3192,6266
52630403,3940,0,-0.31671682,-0.33311668,-10.481214,-0.00023084553,0.007146831,-0.040893033,52.33518,156.9064,0.0047884034,1442826,-851,-572,2190,6258
52734402,3998,0,-0.13704577,0.7579654,-10.084841,-0.013684857,0.0020270122,-0.047326438,52.36288,156.9064,0.0047884034,1442826,-1027,584,1833,6268
52834404,3994,0,-0.019112002,0.8556061,-10.422177,0.013980819,0.0022649872,-0.03136463,52.38504,156.9064,0.0047884034,1442826,698,-118,1211,6276
52938410,4007,0,0.10752117,-0.4470341,-10.679797,0.003087808,-0.0009244362,-0.046274677,52.42105,156.9064,0.0047884034,1442826,414,-101,3752,6289
53354403,3999,0,0.21227019,-0.5638089,-10.976999,0.008071976,0.0039353278,-0.045269087,52.443214,156.9064,0.0047884034,1442826,413,-530,2967,6297
53760009,4003,0,0.44172075,0.3405809,-10.946834,0.00469852,-0.009083292,-0.047641486,52.470913,156.9064,0.0047884034,1442826,-137,130,2436,6307
53860003,3999,0,0.39804888,-0.06280377,-11.076547,-0.0026550263,-0.012623826,-0.048804123,52.526314,156.9064,0.0047884034,1442826,430,-160,1903,6327
53964004,4000,0,0.15100345,-1.0106454,-11.035513,-0.005851482,-0.0062912013,-0.043113176,52.531857,156.9064,0.0047884034,1442826,-279,435,1131,6329
54064004,3945,0,-0.493677,0.40709618,-10.619917,0.012105975,0.0051844427,-0.041188836,52.501385,156.9064,0.0047884034,1442826,720,-1209,1635,6318
54164003,3999,0,-0.37770018,1.358177,-10.245312,0.014495272,0.0094085215,-0.0410138,52.548477,156.9064,0.0047884034,1442826,659,-226,2249,6335
54268003,4000,0,0.33211252,0.641578,-10.528827,0.011851993,-0.012221765,-0.051326193,52.556786,156.9064,0.0047884034,1442826,715,-76,2625,6338
54372003,4000,0,0.053714525,-0.3580824,-9.922623,-0.0005734995,-0.0051903557,-0.02975253,52.537395,156.9064,0.0047884034,1442826,163,458,1378,6331
54472004,4001,0,-0.417399,-0.16582143,-9.421448,-0.008146282,0.0110522965,-0.04314197,52.587257,156.9064,0.0047884034,1442826,-293,-1141,350,6349
54576003,3958,0,0.22738983,0.6425624,-9.052877,-0.008194354,-0.00022040203,-0.045533124,52.542934,156.9064,0.0047884034,1442826,-478,507,2573,6333
54676037,4033,0,0.23447418,0.886202,-9.711823,0.00763519,0.0004673507,-0.04267505,52.603878,156.9064,0.0047884034,1442826,695,-340,2234,6355
54776003,4000,0,0.5201439,-0.29601306,-10.075368,0.0013305767,-0.013480407,-0.039580103,52.578945,156.9064,0.0047884034,1442826,56,391,944,6346
54880003,3993,0,-0.077864766,-0.8431595,-9.335877,-0.003972598,0.0022243774,-0.046929862,52.609417,156.9064,0.0047884034,1442826,-466,-239,3082,6357
54980003,3998,0,-0.15305543,0.52523535,-9.367379,0.007252557,0.0070173377,-0.03773484,52.612186,156.9064,0.0047884034,1442826,377,-189,1217,6358
55080003,3934,0,-0.10172455,0.9183097,-9.408207,-0.012055663,0.003513808,-0.044870645,52.61773,156.9064,0.0047884034,1442826,-376,-205,1715,6360
55180027,4022,0,-0.16257623,1.1362689,-9.012713,-0.0017657538,0.010583378,-0.03817525,52.63158,156.9064,0.0047884034,1442826,472,-357,2846,6365
55284004,3996,0,0.45518127,-0.7474187,-10.139458,0.0044092084,-0.010037445,-0.031540163,52.648197,156.9064,0.0047884034,1442826,228,85,1706,6371
55388012,4009,0,-0.3848008,-0.033913504,-9.061219,0.0051286193,0.008552156,-0.04492916,52.65374,156.9064,0.0047884034,1442826,-589,-779,2170,6373
55488004,3992,0,-0.40122733,0.27577734,-8.154915,-0.010411372,0.011661554,-0.031391885,52.69806,156.9064,0.0047884034,1442826,-6,-228,2302,6389
55592016,4008,0,-0.2251792,0.7664745,-9.057343,0.0034346087,0.0012688901,-0.05142522,52.67313,156.9064,0.0047884034,1442826,525,-1015,1533,6380
55689603,3997,0,0.13884881,0.28229198,-9.640226,0.0038154959,0.0053391466,-0.030858709,52.6759,156.9064,0.0047884034,1442826,-153,-658,729,6381
55793603,3997,0,0.023823515,-1.2254784,-10.346168,-0.004592792,-0.0071519124,-0.034426473,52.70914,156.9064,0.0047884034,1442826,-683,234,1488,6393
55893603,3974,0,-0.4122798,-0.8368454,-9.43055,-0.015995914,0.0034072173,-0.031135865,52.70637,156.9064,0.0047884034,1442826,-1437,656,3076,6392
55993606,4003,0,-0.20062849,0.6688138,-9.301154,0.009673719,0.012117254,-0.032751735,52.75069,156.9064,0.0047884034,1442826,251,-591,1096,6408
56097603,4000,0,0.50287724,0.39977735,-7.9965076,-0.0009572231,-0.01152042,-0.02255909,52.720222,156.9064,0.0047884034,1442826,-445,700,2820,6397
56201624,4011,0,-0.6797361,0.08762276,-7.222057,0.016003532,-0.0005177021,-0.018579777,52.736843,156.9064,0.0047884034,1442826,-199,-1118,1524,6403
56301608,4005,0,-0.67209387,-0.91322476,-6.7016354,-0.015963754,-0.013055713,-0.04286291,52.76454,156.9064,0.0047884034,1442826,-1536,-400,1899,6413
56401626,4022,0,0.73663825,-0.56680584,-7.5113726,0.010450414,-0.0069449013,-0.023953043,52.772854,156.9064,0.0047884034,1442826,360,53,830,6416
56501603,3973,0,1.1459928,0.06365934,-7.546808,-0.005687395,-0.0023799853,-0.034071103,52.775623,156.9064,0.0047884034,1442826,446,1560,2753,6417
56605604,4001,0,0.44331625,-0.16552573,-8.125651,-0.01995957,0.00772727,-0.046320103,52.7867,156.9064,0.0047884034,1442826,-331,619,1684,6421
56705647,4044,0,0.39329928,-0.61042345,-9.411444,-0.004613216,0.00818229,-0.028681535,52.789474,156.9064,0.0047884034,1442826,123,551,2237,6422
56809639,4014,0,-0.0847718,0.18916993,-10.075481,0.00020555622,0.0003833457,-0.045079425,52.844875,156.9064,0.0047884034,1442826,263,-200,885,6442
56909603,3998,0,0.044815425,0.67780095,-9.710943,0.0025663648,0.0059111305,-0.028573666,52.811634,156.9064,0.0047884034,1442826,-549,-99,2189,6430
57009603,4000,0,-0.2987767,1.232181,-9.999761,0.001313057,0.006945708,-0.04843769,52.828255,156.9064,0.0047884034,1442826,434,-119,2870,6436
57113621,4018,0,0.22391985,-0.35745403,-10.55947,-0.0018508935,-0.0050054756,-0.05026882,52.822716,156.9064,0.0047884034,1442826,37,-691,1416,6434
57217613,4009,0,-0.18933123,-1.6643623,-10.468636,-0.013885661,-0.0010176615,-0.04244472,52.855957,156.9064,0.0047884034,1442826,-753,-215,2022,6446
57317603,3966,0,-0.42602494,-0.9607063,-10.616916,0.0019201959,-0.0014848312,-0.05491212,52.858727,156.9064,0.0047884034,1442826,-282,-686,1427,6447
57421606,4003,0,0.2624995,0.7627937,-9.324346,-0.0008535859,0.011983436,-0.04247092,52.880886,156.9064,0.0047884034,1442826,-1016,68,3720,6455
57521603,4000,0,-0.1497669,0.84117776,-10.328906,-0.0022913422,0.00046210302,-0.054836094,52.869804,156.9064,0.0047884034,1442826,-123,-242,1725,6451
57621603,3997,0,0.18814965,0.5605796,-10.39937,0.012453942,0.0018946173,-0.04046937,52.936287,156.9064,0.0047884034,1442826,754,-247,2702,6475
57723203,3968,0,0.029742932,-0.34589955,-10.51959,-0.003631998,-0.004015022,-0.048597332,52.897507,156.9064,0.0047884034,1442826,501,101,3774,6461
57827210,4007,0,-0.12739608,-0.36131975,-10.347343,-0.0024710721,0.008421988,-0.042786486,52.891968,156.9064,0.0047884034,1442826,33,163,3438,6459
57927203,3991,0,-0.05062679,-0.3396738,-10.144973,0.0011107814,0.0013300795,-0.024782758,52.941826,156.9064,0.0047884034,1442826,-1,247,3460,6477
58027217,4014,0,0.3146657,0.8336282,-9.836973,0.005129307,-0.00050853204,-0.05236575,52.941826,156.9064,0.0047884034,1442826,23,94,1743,6477
58131210,4007,0,0.16232495,0.6732524,-10.447898,0.01031561,-0.012427265,-0.04023786,52.96399,156.9064,0.0047884034,1442826,1058,-473,2086,6485
58235203,4000,0,0.26489022,-1.0260037,-10.782218,-0.0017794707,-0.011160072,-0.04287965,52.972298,156.9064,0.0047884034,1442826,-306,269,1005,6488
58335251,4048,0,-0.48744133,-1.1467412,-10.754203,0.0010385613,0.008794671,-0.032899875,52.98892,156.9064,0.0047884034,1442826,-261,-1114,301,6494
58439223,4020,0,-0.41717273,0.5851811,-10.224109,0.0077529717,0.022672027,-0.035313934,52.96953,156.9064,0.0047884034,1442826,-26,-538,2849,6487
58539203,3976,0,0.025246376,1.2368912,-9.925422,-0.00030023343,0.009205021,-0.05725842,53.02493,156.9064,0.0047884034,1442826,-492,-304,1762,6507
58643246,4043,0,0.0673442,0.4723636,-9.862716,0.0026905702,0.0025104634,-0.050721206,52.99446,156.9064,0.0047884034,1442826,1352,-204,3098,6496
58743203,4000,0,-0.16507006,-0.7022663,-10.535998,-0.0055885985,-0.0073656198,-0.042180378,53.047092,156.9064,0.0047884034,1442826,129,-224,3044,6515
58843204,3980,0,0.087226905,-0.63174474,-10.350742,0.01367229,-0.0086805485,-0.030486125,53.047092,156.9064,0.0047884034,1442826,1013,101,1480,6515
58947217,3982,0,0.101403214,0.10046427,-9.335936,0.0113778915,0.0041986117,-0.021691069,53.049862,156.9064,0.0047884034,1442826,-262,-91,1934,6516
59047226,4022,0,-0.07504552,0.57262945,-8.975915,0.0030089747,0.012241251,-0.027737893,53.049862,156.9064,0.0047884034,1442826,-105,-384,2750,6516
59151204,3940,0,-0.19479115,-0.0129678175,-9.937067,-0.0070506907,0.005945541,-0.048289932,53.102493,156.9064,0.0047884034,1442826,853,-655,1301,6535
59251203,3999,0,0.42196625,-0.42388865,-9.900356,0.0010816932,-0.009509075,-0.039564658,53.09418,156.9064,0.0047884034,1442826,672,1138,2620,6532
59351210,4006,0,-0.65689087,-0.8088455,-10.089497,-0.002801457,0.0044312663,-0.047983184,53.105263,156.9064,0.0047884034,1442826,140,-867,1145,6536
59455207,3983,0,-0.5410319,0.23601408,-9.695553,0.0019880873,0.0117704095,-0.045972824,53.1108,156.9064,0.0047884034,1442826,59,-247,2531,6538
59555203,3986,0,-0.11268122,0.8623861,-9.478135,0.007813366,-0.007511316,-0.029241681,53.105263,156.9064,0.0047884034,1442826,214,575,3986,6536
59655203,3991,0,-0.1702973,0.3933041,-9.330733,-0.006355559,0.0018904794,-0.03460241,53.1108,156.9064,0.0047884034,1442826,87,-309,2129,6538
59760810,4007,0,0.07925227,-0.8912718,-10.078469,0.0009561535,-0.009325329,-0.037459154,53.171745,156.9064,0.0047884034,1442826,99,664,3133,6560
59864806,3959,0,-0.42628622,-0.34114426,-9.692832,-0.0026592577,0.012082561,-0.050395973,53.149586,156.9064,0.0047884034,1442826,-742,-92,1260,6552
59964824,4014,0,-0.7900422,0.7522397,-9.590129,0.01392047,0.010881412,-0.014454502,53.188366,156.9064,0.0047884034,1442826,683,-1125,621,6566
60064803,3999,0,0.28494057,0.7250666,-9.120724,0.0018042016,-7.311726e-05,-0.053056154,53.188366,156.9064,0.0047884034,1442826,172,674,3577,6566
60168803,3999,0,-0.1504352,0.23223557,-9.8825865,0.0069427,0.0040426077,-0.0542152,53.191135,156.9064,0.0047884034,1442826,1227,-141,2690,6567
60268803,3967,0,0.55894715,-0.99538237,-9.867638,-0.010659315,-0.007951856,-0.04512525,53.210526,156.9064,0.0047884034,1442826,-508,1563,3485,6574
60372803,4000,0,-0.4049404,-0.5654562,-9.667507,-0.010081516,-0.0033088685,-0.067946956,53.193905,156.9064,0.0047884034,1442826,-609,-345,1226,6568
60472810,3974,0,-0.28775343,0.35026184,-9.559495,-0.003304374,0.003885944,-0.041438684,53.246536,156.9064,0.0047884034,1442826,-1401,-477,2217,6587
60572837,4034,0,0.07015665,0.4812858,-9.369503,-0.004545829,-0.016747406,-0.039412614,53.204987,156.9064,0.0047884034,1442826,-810,565,2060,6572
60672803,3993,0,-0.53959614,0.50590503,-10.117736,0.00209945,0.0009525337,-0.043186508,53.260387,156.9064,0.0047884034,1442826,587,-460,537,6592
60776822,4019,0,-0.2541038,-0.67990416,-9.855571,-0.007250823,0.007988464,-0.035032712,53.232685,156.9064,0.0047884034,1442826,-388,-865,1714,6582
60876823,4010,0,-0.3980381,-1.134475,-10.466111,-0.009657665,-0.01404759,-0.051069368,53.277008,156.9064,0.0047884034,1442826,-1123,-340,-334,6598
60980803,4000,0,0.085327856,0.37035587,-9.455606,-0.0029560118,0.0059404257,-0.023962777,53.27147,156.9064,0.0047884034,1442826,399,1498,3227,6596
61080803,3962,0,0.04209922,0.807197,-9.506437,0.009062273,-0.0053661973,-0.018856388,53.260387,156.9064,0.0047884034,1442826,-324,55,2450,6592
61180805,4002,0,0.14206588,0.98089635,-9.365155,0.0074331197,0.008860983,-0.0058727004,53.279778,156.9064,0.0047884034,1442826,1182,-264,1780,6599
61284803,3975,0,-0.09458435,-0.5194384,-9.798902,-0.0012970166,0.0032008495,-0.040660076,53.33518,156.9064,0.0047884034,1442826,-427,200,3840,6619
61384803,4000,0,-0.14355074,-1.1353275,-9.380126,-0.009092314,-0.0044839852,-0.01572077,53.32687,156.9064,0.0047884034,1442826,-257,935,3599,6616
61488803,4000,0,-0.6851219,0.18481116,-9.690382,-0.008257966,0.0019610494,-0.051253553,53.31579,156.9064,0.0047884034,1442826,-423,-118,2294,6612
61588803,4000,0,-0.38115153,0.93075585,-9.277765,0.0069511794,-0.0012248605,-0.03860437,53.31302,156.9064,0.0047884034,1442826,635,664,3203,6611
61692803,4000,0,-0.37567896,0.34598273,-10.121812,0.010948021,-0.0056544086,-0.039940562,53.3241,156.9064,0.0047884034,1442826,-16,-697,741,6615
61794403,3993,0,-0.3109012,-0.5470775,-9.710837,-0.0014116764,0.014198442,-0.041524895,53.37119,156.9064,0.0047884034,1442826,105,-828,1194,6632
61894403,4000,0,0.009034352,-0.6664059,-10.146944,-0.010116884,-0.001744753,-0.07204279,53.390583,156.9064,0.0047884034,1442826,-272,172,233,6639
61998403,3951,0,-0.37817743,0.6162949,-9.844109,0.013485467,-0.0006206413,-0.021119602,53.40443,156.9064,0.0047884034,1442826,1577,-197,2364,6644
62098446,4043,0,-0.0024634819,0.24017525,-9.258262,-0.010690168,-0.01772544,-0.043624252,53.41828,156.9064,0.0047884034,1442826,283,260,1967,6649
62202486,4062,0,-0.050767545,-0.12765616,-9.715276,0.006143272,-0.022194605,-0.045565832,53.38781,156.9064,0.0047884034,1442826,700,693,4742,6638
62302404,4001,0,-0.4718984,-1.1842983,-10.545766,-0.008587884,-0.013222288,-0.03814335,53.409973,156.9064,0.0047884034,1442826,-947,-722,240,6646
62406403,4000,0,-0.4229283,0.2834072,-10.473491,0.0067357677,-0.0018771557,-0.050915185,53.432133,156.9064,0.0047884034,1442826,362,-85,426,6654
62506403,4000,0,-0.16909453,0.37732053,-9.3016,-0.010447395,-0.0019767024,-0.0406818,53.445984,156.9064,0.0047884034,1442826,-1587,871,3957,6659
62606411,3987,0,-0.3356793,1.4705433,-10.241058,0.016576497,-0.0015906431,-0.040305313,53.448753,156.9064,0.0047884034,1442826,518,-260,1852,6660
62710403,3962,0,0.42598617,0.090414055,-10.690635,0.0027361326,-0.011574071,-0.041445382,53.462605,156.9064,0.0047884034,1442826,1038,610,3142,6665
62810404,4001,0,-0.29467884,-0.70087445,-10.996265,-0.008224931,0.00653537,-0.059305917,53.454292,156.9064,0.0047884034,1442826,552,-895,-702,6662
62910403,3999,0,-0.24307019,-0.7388396,-10.657642,-0.001719135,-0.0038696434,-0.03776733,53.459835,156.9064,0.0047884034,1442826,1027,-240,1500,6664
63014403,3980,0,-0.06156668,0.3108531,-10.207633,0.005124491,0.005304618,-0.03161023,53.512466,156.9064,0.0047884034,1442826,442,741,1195,6683
63114403,3999,0,-0.39012963,0.8341999,-9.690359,0.01043752,0.014171593,-0.018625977,53.501385,156.9064,0.0047884034,1442826,356,-205,1457,6679
63214403,3966,0,0.051850863,0.8075636,-9.713508,0.0023607141,-0.0071725417,-0.046680033,53.495846,156.9064,0.0047884034,1442826,-12,400,1769,6677
63318403,3993,0,0.15958475,-0.97273666,-9.757244,-0.0057646306,-0.014698884,-0.037364412,53.520775,156.9064,0.0047884034,1442826,-571,982,2507,6686
63418403,3983,0,-0.68545604,-0.8869945,-9.943543,-0.0025405555,0.0066882703,-0.04247356,53.504154,156.9064,0.0047884034,1442826,-412,-1052,1621,6680
63518403,4000,0,-0.34451544,-0.36608598,-9.783754,-0.008119171,-0.0029824572,-0.052066747,53.540165,156.9064,0.0047884034,1442826,-901,-17,1033,6693
63622426,4023,0,0.21416855,0.6515935,-9.436126,-0.0067392616,-0.004804046,-0.029501386,53.548477,156.9064,0.0047884034,1442826,-490,675,1871,6696
63728030,4026,0,0.1976446,-0.40123573,-10.258284,0.0067896917,-0.0013838992,-0.042162742,53.559555,156.9064,0.0047884034,1442826,808,231,3490,6700
63828004,4001,0,-0.103488825,-1.0284803,-10.700448,-0.012549178,-0.0048362175,-0.041547205,53.584488,156.9064,0.0047884034,1442826,481,647,1952,6709
63928003,4000,0,0.17560562,-0.8092398,-10.495843,0.0029243585,-0.0018781594,-0.0223472,53.60111,156.9064,0.0047884034,1442826,66,-87,-914,6715
64032003,4000,0,-0.23931345,0.51758474,-9.419658,-0.0055432227,-0.00049366313,-0.046015836,53.592796,156.9064,0.0047884034,1442826,59,246,2535,6712
64132003,4000,0,-0.019142983,1.2360325,-9.791102,0.013462633,0.00338008,-0.03845748,53.59834,156.9064,0.0047884034,1442826,42,-664,1756,6714
64236003,3967,0,0.35140973,-0.003766388,-10.100907,-0.0014101197,-0.010517889,-0.04247013,53.592796,156.9064,0.0047884034,1442826,885,143,2813,6712
64336012,4002,0,0.11099981,-0.9426705,-10.328139,-0.009573873,0.004844079,-0.026950404,53.595566,156.9064,0.0047884034,1442826,-52,854,2703,6713
64436010,4007,0,-0.079884745,-0.8220875,-10.18089,-0.0005410618,0.0026103675,-0.03097354,53.628807,156.9064,0.0047884034,1442826,31,236,1926,6725
64540003,4000,0,-0.16067895,0.86299855,-9.45858,0.002566719,-0.0035469234,-0.059346706,53.61773,156.9064,0.0047884034,1442826,665,-387,1508,6721
64640003,4000,0,-0.07034174,0.7615681,-9.902622,-0.007467771,0.0021120245,-0.052239306,53.645428,156.9064,0.0047884034,1442826,78,-313,474,6731
64740009,3973,0,-0.10028966,0.3138388,-9.942465,-0.0024104093,0.0009583584,-0.04488915,53.67036,156.9064,0.0047884034,1442826,-282,-884,1944,6740
64840039,4035,0,0.4482442,-0.78615266,-9.658862,0.0048768697,-0.006350628,-0.025646294,53.700832,156.9064,0.0047884034,1442826,319,1410,5676,6751
64944031,4028,0,-0.35162163,-0.09860023,-9.819928,0.0045930184,0.010676235,-0.033849426,53.69806,156.9064,0.0047884034,1442826,995,-27,1885,6750
65048045,4041,0,0.05032908,1.057628,-9.371462,-0.0011915856,0.0048794383,-0.024879064,53.700832,156.9064,0.0047884034,1442826,-232,-292,2765,6751
65148003,3993,0,-0.19355397,1.2805595,-9.918212,0.0006766361,0.0018968433,-0.06630463,53.72576,156.9064,0.0047884034,1442826,883,-1070,1638,6760
65252016,4005,0,0.042432357,-0.71950555,-10.568158,-0.0022092725,-0.007328707,-0.05244956,53.736843,156.9064,0.0047884034,1442826,-659,-617,1287,6764
65352047,4044,0,-0.18822841,-0.87866145,-10.423401,-0.0004039558,0.0036206292,-0.048223235,53.700832,156.9064,0.0047884034,1442826,802,-718,1197,6751
65452003,3961,0,-0.048357047,-0.39331552,-9.465393,-0.0041817734,0.0018117882,-0.041866824,53.761772,156.9064,0.0047884034,1442826,43,826,3574,6773
65556004,4001,0,-0.4180505,1.2812458,-9.439943,-0.0008607311,0.006650402,-0.042938247,53.78393,156.9064,0.0047884034,1442826,-559,-649,2062,6781
65657603,3997,0,0.28239405,0.7828748,-9.650205,0.011164926,-0.0068483716,-0.024946723,53.756233,156.9064,0.0047884034,1442826,1051,553,2784,6771
65761603,4000,0,-0.25143453,-0.82646465,-9.080131,-0.014067966,-0.00724747,-0.045317333,53.792244,156.9064,0.0047884034,1442826,58,-418,1196,6784
65861637,4003,0,-0.11705693,-0.8684414,-9.5100355,-0.0010519064,0.0049499776,-0.03047292,53.80332,156.9064,0.0047884034,1442826,-326,189,97,6788
65965653,4037,0,-0.49496803,0.3678024,-8.766464,-0.0003835219,0.0041842265,-0.036986392,53.781162,156.9064,0.0047884034,1442826,-1462,-1447,1185,6780
66065620,4003,0,-0.21851645,1.0190556,-9.239565,0.0043110475,0.0043680407,-0.035610825,53.842106,156.9064,0.0047884034,1442826,174,-116,3128,6802
66169607,3994,0,0.5019402,-0.49335903,-9.6938715,-0.012315644,-0.009254137,-0.06627664,53.842106,156.9064,0.0047884034,1442826,-326,213,940,6802
66269653,4043,0,-0.34865993,-1.1255835,-10.341074,-0.0059293397,0.00091642037,-0.03656621,53.864265,156.9064,0.0047884034,1442826,-683,-64,1927,6810
66369604,3980,0,0.1711391,-0.441968,-10.240444,-0.0006501862,-0.000114854454,-0.03305485,53.855957,156.9064,0.0047884034,1442826,70,-113,2559,6807
66469629,3976,0,-0.512746,0.19963238,-9.880218,-0.016663551,0.0015575134,-0.050180495,53.839336,156.9064,0.0047884034,1442826,-953,787,3540,6801
66573604,4000,0,0.23758338,0.77077466,-10.2065525,-0.003966487,-0.0066660335,-0.05942036,53.883656,156.9064,0.0047884034,1442826,-541,-274,1905,6817
67591203,4000,0,0.7059213,1.2967693,-9.732131,0.01953332,0.00014540926,-0.04428522,53.94737,156.9064,0.0047884034,1442826,923,-363,1933,6840
67691203,3952,0,0.070242584,0.24737196,-10.077005,0.014527673,-0.0034954627,-0.028483916,53.972298,156.9064,0.0047884034,1442826,61,-1027,977,6849
67795209,4006,0,0.24421373,-1.4184498,-10.147976,0.0091152815,-0.0022343541,-0.029863352,53.96399,156.9064,0.0047884034,1442826,-7,368,2490,6846
67895203,4000,0,-0.57757443,-0.49834046,-10.28393,0.0067784516,0.0048854994,-0.047408987,53.991688,156.9064,0.0047884034,1442826,-148,-1115,-515,6856
67995254,4051,0,-0.44098654,0.2750762,-9.196294,-0.011706236,0.010523124,-0.06324554,54.01385,156.9064,0.0047884034,1442826,-763,-729,1411,6864
68099227,4018,0,0.029558832,1.3365542,-9.380841,0.015751049,0.0025579089,-0.033855878,54.01939,156.9064,0.0047884034,1442826,1067,-198,2579,6866
68199237,4034,0,0.07133748,0.54479253,-10.202117,0.010108683,-0.0053065415,-0.043593742,54.02493,156.9064,0.0047884034,1442826,667,-836,1317,6868
68303204,3966,0,0.4678626,-1.4837363,-10.527523,-0.0031304588,-0.006495959,-0.024192873,54.049862,156.9064,0.0047884034,1442826,80,781,411,6877
68403203,4000,0,0.398247,-1.2487231,-10.429567,-0.0020261253,-0.00028614677,-0.050031,54.0277,156.9064,0.0047884034,1442826,-678,413,962,6869
68503203,3935,0,-0.08500061,-0.32801914,-9.859225,0.0037428266,0.007781265,-0.028591443,54.05817,156.9064,0.0047884034,1442826,-468,489,1160,6880
68607241,4030,0,-0.22245868,0.9325898,-9.4734335,-0.002072706,0.0056892554,-0.032767966,54.07202,156.9064,0.0047884034,1442826,-239,-334,3223,6885
68707232,4023,0,-0.057603277,0.7067624,-9.450278,-0.0040253857,-0.0043133837,-0.06477637,54.085873,156.9064,0.0047884034,1442826,-296,-361,2702,6890
68811248,4031,0,0.36168733,-1.3546487,-9.921766,-0.002511492,-0.009916,-0.033300143,54.07756,156.9064,0.0047884034,1442826,-782,772,2937,6887
68911210,4001,0,-0.13062228,-0.60879356,-10.562388,-0.0005206652,0.0046453318,-0.051914178,54.09695,156.9064,0.0047884034,1442826,-745,-955,-328,6894
69011210,4005,0,0.021819102,-0.24153477,-9.510288,-0.0044492115,-0.0019588952,-0.033804644,54.13019,156.9064,0.0047884034,1442826,-906,801,1612,6906
69115212,4009,0,0.31499147,1.1185837,-9.860343,-0.0051335758,-0.007598391,-0.052322216,54.144043,156.9064,0.0047884034,1442826,741,228,1836,6911
69215211,4007,0,-0.051748265,0.7504646,-9.815223,0.012399241,0.004865693,-0.027141087,54.127422,156.9064,0.0047884034,1442826,452,-48,4261,6905
69316803,4000,0,0.24634838,-0.45583093,-10.294242,-0.012669148,-0.0074902154,-0.05285262,54.141273,156.9064,0.0047884034,1442826,30,554,2530,6910
69420810,3976,0,0.07655914,-0.84486777,-9.8923645,0.0009411339,0.007495775,-0.012940034,54.166203,156.9064,0.0047884034,1442826,728,533,2780,6919
69524813,4010,0,-0.4413784,-0.13235496,-10.26348,-0.008876712,0.0071616173,-0.050751887,54.171745,156.9064,0.0047884034,1442826,-1324,-568,-159,6921
69624837,4033,0,0.26790935,0.5524739,-9.198384,-0.004921861,-0.017245822,-0.041626316,54.168976,156.9064,0.0047884034,1442826,-900,788,3307,6920
69728825,4021,0,0.35468113,0.27914935,-9.727794,0.012532748,-0.010178307,-0.038841918,54.144043,156.9064,0.0047884034,1442826,1208,-520,2199,6911
69828804,4001,0,-0.1626555,-0.9800572,-10.046716,-0.0045579015,-0.0048554894,-0.044847716,54.163433,156.9064,0.0047884034,1442826,-265,-180,2353,6918
69928804,3994,0,0.24108149,-1.3688366,-10.733285,0.0057604257,-0.015568686,-0.035588656,54.207756,156.9064,0.0047884034,1442826,-334,518,899,6934
70032810,3987,0,-0.09423423,0.051645353,-9.560953,0.0008572844,-0.009188768,-0.0478426,54.23546,156.9064,0.0047884034,1442826,96,62,3540,6944
70132804,3980,0,-0.28950083,0.9729276,-9.629848,-5.616038e-05,0.019693023,-0.03707442,54.229916,156.9064,0.0047884034,1442826,770,-740,654,6942
70232841,4038,0,-0.023239246,0.44579554,-9.64091,0.0045354906,-0.00972241,-0.032833334,54.238228,156.9064,0.0047884034,1442826,866,455,3825,6945
70332803,4000,0,0.14910598,-0.039709527,-9.718063,0.001231713,-0.0045047323,-0.049194343,54.263157,156.9064,0.0047884034,1442826,191,-628,2465,6954
70436828,3992,0,-0.05334477,-1.3633177,-9.990236,-0.004400907,0.012459953,-0.010763091,54.260387,156.9064,0.0047884034,1442826,510,680,2708,6953
70536803,4000,0,-0.44570932,-0.80991745,-9.820765,-0.0017170433,0.0016845348,-0.04181757,54.2964,156.9064,0.0047884034,1442826,247,-119,3047,6966
70636803,3961,0,-0.14022386,0.20551714,-9.079633,0.0021864763,0.0035252934,-0.007739785,54.277008,156.9064,0.0047884034,1442826,34,1162,4118,6959
70740803,3965,0,0.46839374,1.346069,-9.746542,0.010967523,-0.008843221,-0.042093284,54.321327,156.9064,0.0047884034,1442826,697,-378,1527,6975
70840804,3980,0,0.54525846,0.34375855,-9.516979,0.002942291,-0.00093458313,-0.03141188,54.318558,156.9064,0.0047884034,1442826,78,592,3327,6974
70944815,4012,0,0.3601458,-1.787218,-9.39175,-0.008212706,-0.012168063,-0.022940606,54.32964,156.9064,0.0047884034,1442826,-793,1315,4241,6978
71048804,3979,0,-0.0465194,-0.2653057,-9.504981,0.01463594,-7.338892e-05,-0.01568948,54.279778,156.9064,0.0047884034,1442826,345,348,3012,6960
71150403,3976,0,-0.17797065,0.4525601,-9.688469,-0.00022705039,0.004621066,-0.04714645,54.3241,156.9064,0.0047884034,1442826,-388,-210,1640,6976
71250403,3999,0,0.24723814,1.1797262,-9.245018,0.008901723,-0.011201322,-0.030947369,54.36288,156.9064,0.0047884034,1442826,1528,711,3796,6990
71354437,4034,0,0.39550772,-0.21762791,-9.72245,0.008597525,-0.0052597504,-0.03333304,54.34626,156.9064,0.0047884034,1442826,892,334,4409,6984
71454403,4000,0,0.0380118,-1.5152522,-9.933378,-0.008657361,0.002255985,-0.038955513,54.34349,156.9064,0.0047884034,1442826,-302,378,817,6983
71554413,4010,0,-0.753588,-1.2379973,-9.688925,-0.00048344204,0.009881511,-0.043961003,54.35457,156.9064,0.0047884034,1442826,179,-358,2441,6987
71658411,4008,0,-0.2103348,-0.014196041,-9.697993,-0.0019903185,0.005566518,-0.043572806,54.37119,156.9064,0.0047884034,1442826,-1838,-80,431,6993
71758449,4036,0,0.04019213,1.0913043,-9.384599,-0.0010274143,0.0055911294,-0.051653873,54.390583,156.9064,0.0047884034,1442826,-212,-240,1545,7000
71862444,4041,0,0.3981819,0.2370597,-9.258869,0.0007888633,0.005878307,-0.025643133,54.396122,156.9064,0.0047884034,1442826,1399,217,4835,7002
71962403,4000,0,0.28753307,-0.57542455,-10.5036,-0.00070210896,-0.009878589,-0.05835009,54.415512,156.9064,0.0047884034,1442826,1372,44,1714,7009
72062404,3994,0,-0.24669182,-1.358337,-9.9601345,-0.008663613,0.007508157,-0.029753316,54.443214,156.9064,0.0047884034,1442826,443,573,3661,7019
72166403,3977,0,-0.1815329,-0.20528218,-10.119867,0.0027773262,0.004617541,-0.029617807,54.443214,156.9064,0.0047884034,1442826,-506,-53,977,7019
72266404,3966,0,-0.15015332,0.92471904,-9.084095,0.0066486467,0.02392015,-0.03402032,54.465374,156.9064,0.0047884034,1442826,867,382,2987,7027
72370411,3970,0,0.17138375,0.3283262,-9.503627,-0.0021031806,0.0031537355,-0.035047382,54.487534,156.9064,0.0047884034,1442826,304,-184,3247,7035
72470403,4000,0,0.9433095,-0.08611779,-10.327037,-0.00053286704,-0.017025992,-0.057725403,54.481995,156.9064,0.0047884034,1442826,1426,730,2819,7033
72570403,3993,0,-0.13580933,-1.2220138,-10.259834,-0.010659609,-0.0037109584,-0.051477183,54.47645,156.9064,0.0047884034,1442826,-774,-573,1883,7031
72674438,4035,0,-0.43494746,-0.8591552,-9.969099,-0.008348668,-0.0074287057,-0.04666225,54.473682,156.9064,0.0047884034,1442826,-927,72,215,7030
72774411,4007,0,-0.466507,0.2937265,-9.629829,-0.0066634575,0.011131748,-0.027143233,54.484764,156.9064,0.0047884034,1442826,-2,-118,2851,7034
72876011,4008,0,0.28421366,0.6107023,-9.412183,-0.0043368204,0.0015103167,-0.05699321,54.534626,156.9064,0.0047884034,1442826,-381,158,2366,7052
72976003,4000,0,0.13844553,0.3177432,-10.026564,0.00022787592,0.0017466478,-0.040808484,54.562325,156.9064,0.0047884034,1442826,1348,-74,1770,7062
73080003,3988,0,0.31972617,-0.9797853,-10.415769,-0.0026867935,0.0051872963,-0.03236774,54.531857,156.9064,0.0047884034,1442826,938,1197,3539,7051
73180005,4002,0,-0.2893404,-1.3553096,-10.256712,-0.0062083746,-0.006336769,-0.043670528,54.554016,156.9064,0.0047884034,1442826,-197,579,1252,7059
73284003,4000,0,-0.14391634,0.37276372,-9.565767,0.001007296,0.0017013905,-0.03667281,54.556786,156.9064,0.0047884034,1442826,634,368,2536,7060
73384055,4023,0,-0.15347771,0.78699625,-9.127698,0.0016525488,0.0075922916,-0.040597722,54.58172,156.9064,0.0047884034,1442826,1027,-322,3017,7069
73484003,3999,0,0.35371265,0.19779575,-10.374518,-0.002527285,-0.0110727465,-0.04573293,54.59834,156.9064,0.0047884034,1442826,740,281,2079,7075
73588004,3994,0,0.22896323,-1.2452587,-9.807839,-0.0043493756,-0.0055043404,-0.036820836,54.606647,156.9064,0.0047884034,1442826,-89,741,2104,7078
73688003,3999,0,-0.110668905,-0.8026687,-10.271141,0.0042886864,0.004131146,-0.028419299,54.603878,156.9064,0.0047884034,1442826,-856,-464,1762,7077
73792003,4000,0,-0.7869306,0.6397497,-9.684331,0.0034894256,-0.0011434513,-0.048528556,54.626038,156.9064,0.0047884034,1442826,-442,-993,3025,7085
73892046,4043,0,0.25806242,0.39834428,-9.691087,0.0029529058,-0.01214771,-0.041544925,54.63435,156.9064,0.0047884034,1442826,-419,514,1326,7088
73992003,4000,0,0.11157153,0.00982397,-9.379459,0.00886969,-0.0055414597,-0.03610167,54.63712,156.9064,0.0047884034,1442826,276,-44,4524,7089
74092003,4000,0,0.5577938,-0.5751789,-10.101897,0.009525717,-0.010375495,-0.028846882,54.628807,156.9064,0.0047884034,1442826,942,1477,4607,7086
74196003,4000,0,-0.16586007,-0.8924613,-9.909798,0.007256228,0.0033145163,-0.034217432,54.64266,156.9064,0.0047884034,1442826,-347,-128,1800,7091
74300003,4000,0,-0.36999187,0.8813507,-9.276286,0.00648,0.011647086,-0.037177175,54.645428,156.9064,0.0047884034,1442826,370,-287,3554,7092
74400003,3967,0,0.3912825,1.155827,-9.772499,0.009544423,-0.016306702,-0.041884292,54.68698,156.9064,0.0047884034,1442826,-75,133,2299,7107
74504017,3970,0,0.19935776,-0.7236754,-10.235533,-0.0021490883,-0.013753354,-0.045081697,54.648197,156.9064,0.0047884034,1442826,558,272,2525,7093
74605629,4025,0,-0.15934478,-1.0226592,-10.068032,-0.0065880436,0.007082658,-0.032652996,54.700832,156.9064,0.0047884034,1442826,1243,635,3419,7112
74705632,3995,0,-0.52173907,-0.8752749,-10.234762,0.0022854973,-0.000374443,-0.054779023,54.68698,156.9064,0.0047884034,1442826,255,-438,1057,7107
74809606,3974,0,-0.42642784,0.58226866,-10.050014,0.006167506,0.0050548427,-0.0385279,54.71191,156.9064,0.0047884034,1442826,-1500,-1001,1640,7116
74909603,3990,0,0.40244278,1.0755892,-9.890539,0.0044887788,-0.0051344847,-0.050132025,54.70914,156.9064,0.0047884034,1442826,72,477,2654,7115
75009610,4004,0,0.46151605,0.06267043,-9.557126,-0.0024860627,-0.0047645075,-0.040113214,54.74792,156.9064,0.0047884034,1442826,633,595,3894,7129
75113603,3986,0,0.05611684,-1.5541584,-9.957867,-0.01291667,-0.009801457,-0.05191558,54.753464,156.9064,0.0047884034,1442826,692,1309,4231,7131
75213604,4001,0,-0.3790672,-1.3703743,-10.20014,-0.0028072116,0.014426295,-0.03537278,54.781162,156.9064,0.0047884034,1442826,-426,-763,183,7141
75313606,4003,0,-0.7659119,-0.5321014,-10.368702,0.008520391,0.008419095,-0.0431582,54.76454,156.9064,0.0047884034,1442826,704,-727,1385,7135
75417603,4000,0,-0.22881374,0.9096335,-9.993671,-0.003845742,0.0014408573,-0.04278789,54.778393,156.9064,0.0047884034,1442826,-1008,-794,579,7140
75517604,3977,0,-0.044054367,0.8748708,-9.776855,0.0020003929,-0.0005336768,-0.05330952,54.792244,156.9064,0.0047884034,1442826,353,-385,2311,7145
75621644,4041,0,0.4776847,-1.161714,-10.225411,-0.010681845,-0.0130569255,-0.042414684,54.819942,156.9064,0.0047884034,1442826,-693,462,3050,7155
75721604,3994,0,-0.21263091,-1.5922364,-10.030645,-0.012509143,0.0042619035,-0.029246418,54.836563,156.9064,0.0047884034,1442826,-483,139,2368,7161
75821609,4001,0,-0.671293,-0.9123555,-10.219221,-0.008139829,0.003761792,-0.051289614,54.811634,156.9064,0.0047884034,1442826,-882,-986,-271,7152
75925607,4003,0,0.2624761,0.8011447,-9.307166,-0.0021235659,-0.0018716925,-0.060793687,54.831024,156.9064,0.0047884034,1442826,129,-370,2174,7159
76025659,4054,0,-0.065898776,0.7219542,-9.707329,0.004783761,-0.0073537165,-0.043643348,54.844875,156.9064,0.0047884034,1442826,952,-584,1249,7164
76129639,4009,0,0.7746441,-0.93532336,-10.366766,-0.0020593859,-0.008335791,-0.038567957,54.839336,156.9064,0.0047884034,1442826,193,769,2633,7162
76229604,4000,0,-0.13083787,-1.2303022,-10.002854,-0.0015816987,0.0025147728,-0.03788133,54.875347,156.9064,0.0047884034,1442826,-375,-935,2068,7175
76331219,3983,0,0.066994645,-0.23932,-9.732149,0.0035986786,-0.006433105,-0.037833985,54.872574,156.9064,0.0047884034,1442826,-345,316,2063,7174
76431203,3999,0,-0.0478744,0.24919815,-9.718171,-0.005779598,0.0026078783,-0.03502732,54.903046,156.9064,0.0047884034,1442826,-1262,-381,915,7185
76535211,3999,0,0.3734202,1.5031972,-10.090276,0.0055773193,-0.004981919,-0.047383286,54.883656,156.9064,0.0047884034,1442826,920,-515,541,7178
76635203,4000,0,0.85073733,-0.013097639,-10.003574,0.0037235362,-0.012798532,-0.039252646,54.875347,156.9064,0.0047884034,1442826,-67,484,1914,7175
76739249,4046,0,0.016588077,-0.8555934,-10.225297,-0.0015892102,-0.0010051959,-0.05118874,54.914127,156.9064,0.0047884034,1442826,315,-267,1695,7189
76839240,4016,0,0.014924405,-0.72503376,-9.57663,-0.005396668,0.0025237212,-0.04447773,54.92521,156.9064,0.0047884034,1442826,-938,-461,236,7193
76939204,4000,0,-0.09489849,0.12238398,-9.081854,-0.0051631927,0.010253309,-0.03979017,54.933517,156.9064,0.0047884034,1442826,-492,-121,3491,7196
77043204,3991,0,-0.080662385,0.19092,-9.511494,-0.008181162,-0.0074969195,-0.05121253,54.97784,156.9064,0.0047884034,1442826,-877,-625,1556,7212
77143203,4000,0,0.08995208,-0.050288945,-9.900527,0.013429581,-0.006412747,-0.039422106,54.991688,156.9064,0.0047884034,1442826,564,-744,2553,7217
77243233,4029,0,0.052423775,-1.1676184,-10.251664,-0.0074185994,-0.00082008785,-0.048179403,54.958447,156.9064,0.0047884034,1442826,-271,-103,1191,7205
77347207,4004,0,0.12792349,-0.05904187,-9.031029,-0.0022583844,0.002897513,-0.033194277,54.98061,156.9064,0.0047884034,1442826,-120,925,3283,7213
77447204,4001,0,-0.4637409,0.8620305,-9.678874,-0.005750949,0.012391894,-0.041729704,54.98338,156.9064,0.0047884034,1442826,207,-370,871,7214
77547210,3997,0,0.12849131,1.3451731,-9.786817,0.01177726,-0.0017701895,-0.040113367,55.03047,156.9064,0.0047884034,1442826,560,-735,1969,7231
77651203,4000,0,0.5084833,-0.4182149,-10.369334,0.007564414,-0.006047988,-0.033092164,54.99723,156.9064,0.0047884034,1442826,1339,-173,1849,7219
77751203,4000,0,-0.00013338304,-1.2444239,-9.841664,-0.015005273,-0.001688607,-0.037276544,55.03047,156.9064,0.0047884034,1442826,-787,753,3006,7231
77851214,4011,0,-0.66227305,-0.72532505,-10.288981,-0.003942778,0.010254805,-0.044411685,55.047092,156.9064,0.0047884034,1442826,-359,-552,2136,7237
77956015,4005,0,-0.36356813,0.6293899,-9.6600065,-0.0008373612,0.013566896,-0.04328575,55.049862,156.9064,0.0047884034,1442826,-1139,-552,431,7238
78060804,4000,0,0.15596774,-0.012276963,-9.436027,-0.00083608134,-0.0030710436,-0.030864516,55.069252,156.9064,0.0047884034,1442826,-590,40,2712,7245
78160803,3999,0,0.13121605,-0.30421713,-10.006398,-0.0062712547,-0.0057831733,-0.062742695,55.06094,156.9064,0.0047884034,1442826,333,-241,2416,7242
78264804,4000,0,-0.38449904,-0.9721157,-9.781513,0.0013410256,0.002359629,-0.038450506,55.066483,156.9064,0.0047884034,1442826,-263,-907,1906,7244
78364803,3963,0,-0.39336517,-0.20424646,-10.056341,0.0061433385,-0.0057092346,-0.04736591,55.049862,156.9064,0.0047884034,1442826,-38,-113,2399,7238
78468803,3966,0,-0.1799554,1.602787,-9.375249,-0.0009043624,0.007973214,-0.04344764,55.080334,156.9064,0.0047884034,1442826,471,-412,1975,7249
78568827,4024,0,0.43255654,1.0923929,-9.455784,-0.0046132617,-0.01653957,-0.03847549,55.121883,156.9064,0.0047884034,1442826,-313,523,2760,7264
78672803,3994,0,0.912388,-0.7132352,-10.219669,0.010741433,-0.018872207,-0.034180835,55.1108,156.9064,0.0047884034,1442826,1686,338,2407,7260
78772803,4000,0,-0.08009845,-1.7071567,-10.829246,-0.0049098763,-0.009036368,-0.0470354,55.121883,156.9064,0.0047884034,1442826,-1038,-263,536,7264
78872803,4000,0,-0.227421,-0.8833591,-10.370222,0.007729237,0.0016616328,-0.03577272,55.124653,156.9064,0.0047884034,1442826,-652,-277,1855,7265
78976834,4031,0,-0.29654673,0.34434575,-9.587466,-0.0133834975,0.007841472,-0.04137196,55.144043,156.9064,0.0047884034,1442826,-1136,-316,1817,7272
79076803,3973,0,-0.11883103,1.0898802,-9.130993,0.008835697,0.00196255,-0.031391144,55.13019,156.9064,0.0047884034,1442826,604,541,3356,7267
79180823,4012,0,0.5622304,-0.8095416,-10.126294,-0.0034131065,-0.00975677,-0.033143878,55.160664,156.9064,0.0047884034,1442826,-403,826,2982,7278
79280804,4001,0,0.03568543,-1.1017913,-10.141493,0.0013692174,-0.009272784,-0.05116546,55.168976,156.9064,0.0047884034,1442826,-739,-482,2912,7281
79380804,3980,0,0.15136862,-1.2397181,-10.295975,0.00036913587,-0.010667036,-0.04103179,55.157894,156.9064,0.0047884034,1442826,-726,130,946,7277
79484803,4000,0,-0.14900056,0.27111724,-9.592583,-0.0010025399,0.004438197,-0.042849455,55.171745,156.9064,0.0047884034,1442826,-78,-31,2915,7282
79584845,4042,0,0.071261674,0.5415374,-9.273108,0.0037517154,-0.0037167375,-0.03965398,55.188366,156.9064,0.0047884034,1442826,755,-95,2479,7288
79686403,3994,0,0.37728876,-0.045373406,-9.706758,0.0010933295,-0.0020572399,-0.024720035,55.202217,156.9064,0.0047884034,1442826,1245,238,2745,7293
79786415,4012,0,-0.04005796,-1.0295998,-10.208807,0.0031439294,-0.0016501069,-0.041427948,55.196674,156.9064,0.0047884034,1442826,441,-407,2608,7291
79890435,4032,0,-0.030207494,-1.1788709,-10.4577265,0.003848704,0.0022294929,-0.029568758,55.216064,156.9064,0.0047884034,1442826,-1022,120,1602,7298
79990448,4041,0,-0.29165667,0.29415622,-9.148671,-0.003016049,0.010225953,-0.018249907,55.224377,156.9064,0.0047884034,1442826,197,1089,4218,7301
80094450,4043,0,0.07091187,1.2275183,-9.734553,0.01608657,0.0025201691,-0.044950232,55.23546,156.9064,0.0047884034,1442826,730,-711,2171,7305
80194403,3962,0,0.33444706,0.065008126,-10.110815,-6.331247e-05,-0.011756977,-0.055980843,55.246536,156.9064,0.0047884034,1442826,6,-911,-111,7309
80294403,4000,0,0.5696396,-0.6539892,-9.765267,0.0040408964,-0.009747248,-0.034810226,55.265926,156.9064,0.0047884034,1442826,247,474,3419,7316
80398403,4000,0,-0.22484258,-1.3254213,-9.709756,-0.013068145,0.0044233045,-0.04231163,55.257618,156.9064,0.0047884034,1442826,-433,1035,3911,7313
80498410,3969,0,-0.28013548,-0.05619914,-9.678615,0.0013189663,0.019347422,-0.025685858,55.30471,156.9064,0.0047884034,1442826,613,529,1277,7330
81214403,4000,0,0.6395133,-0.6804715,-10.683738,0.007992469,-0.017255403,-0.054357536,55.34349,156.9064,0.0047884034,1442826,-1135,-505,640,7344
81316004,4001,0,0.37019634,-1.3104081,-10.749952,-0.003499389,-0.014167071,-0.04831046,55.37119,156.9064,0.0047884034,1442826,524,-337,1474,7354
81420003,4000,0,-0.6749862,-0.6598056,-10.016067,-0.013062672,0.0013562557,-0.05902385,55.3795,156.9064,0.0047884034,1442826,-976,-814,-480,7357
81524003,4000,0,-0.47840697,1.0962384,-9.710041,0.0043950593,0.006914556,-0.049910434,55.36011,156.9064,0.0047884034,1442826,-842,-1508,768,7350
81624019,3970,0,0.11175092,1.0538229,-9.771051,0.0017451115,0.0026465654,-0.028952677,55.4072,156.9064,0.0047884034,1442826,-50,-266,2863,7367
81724041,4037,0,0.37950978,-0.49482822,-10.112832,-0.007142063,-0.009106388,-0.036521573,55.41828,156.9064,0.0047884034,1442826,-216,-930,298,7371
81828004,4000,0,-0.07626015,-1.4141574,-10.009417,-0.005380943,-0.0041533625,-0.028859006,55.38504,156.9064,0.0047884034,1442826,-967,6,3026,7359
81932004,4001,0,-0.65036243,0.11279534,-9.941032,0.0051606894,0.010024494,-0.044443447,55.396122,156.9064,0.0047884034,1442826,-324,-1417,1790,7363
82032003,3991,0,-0.48194993,0.8482039,-9.611,-0.011439114,0.004788594,-0.05073745,55.39889,156.9064,0.0047884034,1442826,-280,-402,2139,7364
82132003,4000,0,0.63122445,0.83118635,-9.056181,-0.001733817,0.009585291,-0.020519491,55.409973,156.9064,0.0047884034,1442826,346,1181,3153,7368
82236006,4003,0,0.35861328,-0.40735263,-9.574297,-0.0070329146,0.00042264326,-0.03567484,55.451523,156.9064,0.0047884034,1442826,905,526,4730,7383
82336003,4000,0,0.5382926,-1.2148279,-10.2140465,-0.0026654801,0.0022492763,-0.042745788,55.42105,156.9064,0.0047884034,1442826,54,639,1044,7372
82436010,4007,0,0.25593928,-0.7017698,-9.5742035,-0.004402996,0.0005540627,-0.03552877,55.465374,156.9064,0.0047884034,1442826,78,1788,3637,7388
82540003,4000,0,0.15770207,0.78141814,-9.007355,-0.0035984344,0.0014868719,-0.017991988,55.487534,156.9064,0.0047884034,1442826,82,867,2070,7396
82640044,4041,0,0.31462064,0.52643275,-9.986419,0.0053109545,-0.013242533,-0.049904555,55.506924,156.9064,0.0047884034,1442826,-227,511,3228,7403
82744003,4000,0,0.5033929,-1.0457631,-10.3796015,-6.0901046e-05,-0.015566384,-0.04399765,55.481995,156.9064,0.0047884034,1442826,-1068,-155,2578,7394
82845606,3983,0,0.25745127,-1.6694239,-10.121424,-0.0010416633,-0.012525915,-0.03338529,55.47645,156.9064,0.0047884034,1442826,-1038,624,3131,7392
82949627,4024,0,-0.1446732,0.13773002,-10.128401,-0.005986459,0.0066182907,-0.030285962,55.479225,156.9064,0.0047884034,1442826,-363,53,-491,7393
83049603,3993,0,0.1142542,0.665073,-9.428377,0.0096798455,-0.007017484,-0.047713645,55.509693,156.9064,0.0047884034,1442826,-603,-214,3320,7404
83153606,4002,0,0.3717709,-0.09398616,-9.943926,0.0011371375,-0.0003615652,-0.029958341,55.518005,156.9064,0.0047884034,1442826,608,-9,1140,7407
83253603,3966,0,0.24390031,-1.1271099,-10.474801,-0.00791147,-0.013063746,-0.02746064,55.542934,156.9064,0.0047884034,1442826,100,-189,-969,7416
83357603,3960,0,-0.25504515,-1.0184213,-9.623349,-0.00052433496,0.0033924985,-0.040909555,55.554016,156.9064,0.0047884034,1442826,-535,287,2897,7420
83461606,4003,0,-0.3913919,0.92237586,-8.709298,3.8277358e-05,0.012135656,-0.04151189,55.554016,156.9064,0.0047884034,1442826,216,-504,81,7420
83561615,4005,0,-0.69829386,1.3582915,-9.007589,-0.005524225,0.0047904365,-0.04163184,55.565098,156.9064,0.0047884034,1442826,518,-1333,1764,7424
83661603,3997,0,-0.5540543,0.23178744,-10.399943,0.0017287375,-0.002513322,-0.036450375,55.58172,156.9064,0.0047884034,1442826,4,366,3253,7430
83765603,4000,0,0.52692086,-1.0787137,-10.831795,-0.012806658,0.0029251222,-0.05422209,55.584488,156.9064,0.0047884034,1442826,-232,-146,434,7431
83865604,4001,0,0.46230876,-0.9048989,-10.196209,0.0019979104,-0.00082996645,-0.014590381,55.606647,156.9064,0.0047884034,1442826,136,959,3219,7439
83965627,4024,0,-0.7270572,-0.774894,-10.804708,-0.002504386,0.0050018188,-0.047571957,55.603878,156.9064,0.0047884034,1442826,-1162,-1656,-1945,7438
84069603,3997,0,-0.20747775,1.0888377,-9.528968,-0.0058092293,0.008572551,-0.045114405,55.603878,156.9064,0.0047884034,1442826,-1016,-327,987,7438
84169652,4043,0,-0.17980622,0.6211547,-9.526152,0.00921832,0.0021610267,-0.02251938,55.587257,156.9064,0.0047884034,1442826,741,896,4997,7432
84273609,4006,0,0.1224607,-0.8320848,-9.785169,-0.0075803273,0.0061662677,-0.039640926,55.65374,156.9064,0.0047884034,1442826,1097,1216,4690,7456
84373603,3963,0,0.0684361,-0.98597205,-10.205902,-0.0019603292,-0.0052470285,-0.037148044,55.67036,156.9064,0.0047884034,1442826,-313,-65,1291,7462
84475203,3995,0,-0.30923545,-0.043111987,-10.170706,0.0056833224,0.0076147765,-0.032773692,55.648197,156.9064,0.0047884034,1442826,624,844,1115,7454
84575203,3939,0,-0.2803487,0.46019456,-9.649753,0.0015896843,0.0043668216,-0.02255198,55.63435,156.9064,0.0047884034,1442826,-866,-73,1783,7449
84679230,4027,0,0.30287847,0.54320747,-10.338592,0.013030961,-0.009997878,-0.03125447,55.66205,156.9064,0.0047884034,1442826,115,-51,1583,7459
84779203,3995,0,0.3179727,-0.20458426,-9.639491,-0.004809034,-0.0020198482,-0.04369261,55.71191,156.9064,0.0047884034,1442826,1393,935,3772,7477
84879240,3991,0,0.20584825,-1.3636149,-10.445911,-0.009618884,-0.0047580986,-0.032116693,55.720222,156.9064,0.0047884034,1442826,-137,575,401,7480
84983211,4007,0,-0.4111325,0.055429634,-9.7297535,0.0055243103,0.0062112077,-0.03559527,55.69252,156.9064,0.0047884034,1442826,267,-410,53,7470
85083204,4000,0,-0.03315041,0.980388,-8.961903,0.015277331,0.0065459087,-0.021194078,55.72853,156.9064,0.0047884034,1442826,571,179,2921,7483
85187203,4000,0,0.027177459,0.49131945,-9.465155,-0.0006914803,-0.005844865,-0.033865634,55.722992,156.9064,0.0047884034,1442826,-431,-143,3215,7481
85287238,4034,0,0.05957906,-0.3880151,-10.383772,-0.012763729,-0.008161698,-0.07796331,55.73407,156.9064,0.0047884034,1442826,-433,-1065,-149,7485
85387222,3972,0,0.08994797,-1.0897429,-9.8123255,0.0084324675,0.0033864328,-0.018412378,55.74792,156.9064,0.0047884034,1442826,931,582,4025,7490
85491204,3983,0,-0.540923,-0.6743618,-9.460573,-0.0072223237,0.009995357,-0.03145863,55.759003,156.9064,0.0047884034,1442826,-741,794,3075,7494
85595204,4001,0,-0.18089998,1.1525104,-9.675384,0.010355895,0.0063207718,-0.044449568,55.7313,156.9064,0.0047884034,1442826,823,-1096,256,7484
85695218,4011,0,0.21595523,0.52647066,-9.534767,0.0016599868,-0.0034073202,-0.041773885,55.722992,156.9064,0.0047884034,1442826,1204,1271,3371,7481
85799203,4000,0,0.26679087,-0.90092164,-10.331168,0.000989066,0.0028855717,-0.053114016,55.770084,156.9064,0.0047884034,1442826,1703,100,3531,7498
85899203,4000,0,0.04392955,-1.1460603,-10.212832,-0.011842538,-0.011392008,-0.05097524,55.772854,156.9064,0.0047884034,1442826,-315,-182,366,7499
86000803,3993,0,-0.55147547,-0.34368202,-9.523709,-0.011920707,0.0056402558,-0.04182789,55.7867,156.9064,0.0047884034,1442826,585,771,4055,7504
86100803,4000,0,-0.40193453,0.4483027,-9.440045,0.0013114476,0.011339197,-0.04073231,55.781162,156.9064,0.0047884034,1442826,-1194,-407,2399,7502
86204847,4043,0,-0.04786289,0.1448372,-9.863622,0.0023737312,-0.0052598165,-0.03161178,55.811634,156.9064,0.0047884034,1442826,-366,-216,1423,7513
86304804,3945,0,0.09774458,-0.45533606,-9.801767,-0.00266617,-0.002556516,-0.05074427,55.814404,156.9064,0.0047884034,1442826,416,-1090,2384,7514
86408804,4000,0,-0.15799744,-1.5815257,-10.073574,-0.0092706615,0.00042385887,-0.039619762,55.828255,156.9064,0.0047884034,1442826,519,734,2447,7519
86508843,4040,0,-0.2184555,-0.5903553,-10.249814,0.002834226,0.011275675,-0.031937584,55.839336,156.9064,0.0047884034,1442826,356,-455,192,7523
86608803,3990,0,0.35596365,0.5201882,-9.774131,0.009056076,0.0026423163,-0.048798397,55.850414,156.9064,0.0047884034,1442826,204,497,1258,7527
86712803,4000,0,-0.22909382,0.9494282,-9.487179,0.00684437,-0.0013815872,-0.040517785,55.828255,156.9064,0.0047884034,1442826,-206,-235,4071,7519
86812810,4007,0,0.6816828,-0.25669068,-9.891544,-0.007520642,-0.019181876,-0.051850993,55.891968,156.9064,0.0047884034,1442826,-765,415,1379,7542
86912833,4030,0,-0.046522133,-1.0726782,-10.51443,-0.0028964086,-0.0011360496,-0.026851103,55.886425,156.9064,0.0047884034,1442826,-758,-834,-1448,7540
87016803,3966,0,-0.44431293,-0.6656818,-10.047747,-0.006440536,-0.0047725234,-0.03837312,55.880886,156.9064,0.0047884034,1442826,-59,281,973,7538
87116841,4027,0,-0.23236534,-0.4479674,-9.031733,-0.0044688964,0.008572579,-0.016355243,55.897507,156.9064,0.0047884034,1442826,-723,574,4463,7544
87220806,4003,0,0.10370696,0.6200361,-9.502748,0.00035828407,0.004825172,-0.035266176,55.90859,156.9064,0.0047884034,1442826,1178,275,1960,7548
87320803,3957,0,0.11928267,0.33044264,-9.381618,0.0038647442,0.008381363,-0.030624842,55.90859,156.9064,0.0047884034,1442826,1482,-175,3380,7548
87420803,3996,0,0.26928794,-0.5758464,-10.339192,0.0048121624,-0.009861948,-0.05165097,55.889194,156.9064,0.0047884034,1442826,1477,339,2810,7541
87521612,4788,0,-0.232995,-1.5649104,-10.783357,-0.0072989175,0.0012215233,-0.05464025,55.939056,156.9064,0.0047884034,1442826,-435,-606,698,7559
87626441,4038,0,-0.6244803,-0.13680102,-10.278288,-0.007996817,0.010063468,-0.03254138,55.92521,156.9064,0.0047884034,1442826,-1650,-756,-468,7554
87730403,4000,0,-0.094059415,0.8658627,-10.3124695,-0.0013080644,4.7038833e-05,-0.040410068,55.98338,156.9064,0.0047884034,1442826,197,-704,-1424,7575
87830403,3994,0,0.1134746,0.42484653,-10.074465,-0.003234004,0.0053904154,-0.052982002,55.97784,156.9064,0.0047884034,1442826,1079,-64,3057,7573
87934410,4007,0,-0.19680932,-1.3439302,-10.86715,-0.004980843,-0.0117782075,-0.056559235,55.96953,156.9064,0.0047884034,1442826,-374,-278,3807,7570
88034403,3974,0,-0.12273305,-0.78955483,-10.028526,0.007596285,-0.0032849861,-0.046283342,56.00831,156.9064,0.0047884034,1442826,-583,-531,1326,7584
88134403,4000,0,-0.565917,0.20756266,-9.796021,0.0034275737,-0.00066267897,-0.028526634,56.02493,156.9064,0.0047884034,1442826,10,252,2117,7590
88238403,4000,0,-0.11027824,1.3482507,-9.682351,0.018460633,-0.003239159,-0.043354426,56.011078,156.9064,0.0047884034,1442826,595,-200,1849,7585
88338403,4000,0,0.48413637,0.26269525,-10.1327715,-0.0010916574,-0.020384744,-0.04913813,56.03601,156.9064,0.0047884034,1442826,-407,-284,760,7594
88438403,3977,0,-0.3775266,-0.72675794,-10.091713,-0.005803386,-0.004927057,-0.053512674,56.01939,156.9064,0.0047884034,1442826,-328,-1337,179,7588
88542413,4010,0,-0.0027425976,-1.7750767,-10.598877,0.0052078087,-0.014045615,-0.03931606,56.03047,156.9064,0.0047884034,1442826,-982,232,1142,7592
88642479,4076,0,-0.5321028,-0.6791013,-9.805338,-0.0022528889,0.0055853417,-0.04144243,56.069252,156.9064,0.0047884034,1442826,-769,-16,2469,7606
88746437,4034,0,0.4556747,0.67463475,-9.222644,-0.0077426587,-0.0018821985,-0.03917887,56.047092,156.9064,0.0047884034,1442826,177,1084,813,7598
88846403,3997,0,0.24330506,0.70912284,-10.160477,0.008207134,0.0030916277,-0.04148829,56.069252,156.9064,0.0047884034,1442826,289,-433,-194,7606
88946404,4001,0,0.38337368,-0.5067675,-10.065759,0.0027791664,-0.016788002,-0.0489574,56.07479,156.9064,0.0047884034,1442826,-825,135,889,7608
89048003,4800,0,0.18658991,-0.48063967,-10.037406,0.004242683,-0.0034654373,-0.04456455,56.07202,156.9064,0.0047884034,1442826,1365,511,3334,7607
89152003,4000,0,-0.56628025,-0.6423256,-9.4228115,-0.0074413805,0.011986928,-0.03664422,56.083103,156.9064,0.0047884034,1442826,-1244,233,2785,7611
89252010,4000,0,-0.26695374,0.47709778,-9.546105,0.008966788,0.010953782,-0.039223053,56.09695,156.9064,0.0047884034,1442826,799,86,1871,7616
89352012,3988,0,-0.30024868,0.47019705,-9.572706,-0.0059562745,0.0044798534,-0.04002359,56.116344,156.9064,0.0047884034,1442826,-1125,-231,1273,7623
89456003,3968,0,5.840254e-06,-0.48918802,-10.684516,-0.0011344748,-0.013613115,-0.056094468,56.1108,156.9064,0.0047884034,1442826,-253,-539,2187,7621
89556004,4001,0,0.052645005,-0.7046956,-9.937818,0.011129847,-0.0064566,-0.028048327,56.127422,156.9064,0.0047884034,1442826,758,650,4260,7627
89660051,4040,0,-0.12367375,0.24289006,-9.611331,0.0060838456,0.005174147,-0.028049473,56.160664,156.9064,0.0047884034,1442826,622,491,3394,7639
89760020,4017,0,-0.3328769,0.34758654,-9.520928,-0.009132263,0.005300369,-0.030164834,56.146812,156.9064,0.0047884034,1442826,-456,916,3936,7634
90977685,4075,0,0.29689503,-0.35587507,-9.791127,-0.011328995,-0.0075384933,-0.05543333,56.25485,156.9064,0.0047884034,1442826,-278,367,3499,7673
91081645,3993,0,-0.07725522,-1.1475112,-10.573328,0.00070909364,-0.012092132,-0.05101004,56.232685,156.9064,0.0047884034,1442826,392,-306,1521,7665
91181604,4001,0,-0.24684964,-0.9544231,-9.777681,-0.0011148176,-0.0009875197,-0.035368558,56.249306,156.9064,0.0047884034,1442826,240,263,3312,7671
91281603,3990,0,-0.27919933,0.2973941,-9.488328,-0.0084933005,-0.0056324624,-0.045351095,56.30471,156.9064,0.0047884034,1442826,-241,-64,2047,7691
91385606,3985,0,0.3696864,1.1671555,-9.372341,0.012920673,-0.009417512,-0.044585764,56.29086,156.9064,0.0047884034,1442826,1055,180,3912,7686
91485603,3963,0,0.28044558,-0.18627764,-10.501969,0.0063682,-0.015488914,-0.03609503,56.28809,156.9064,0.0047884034,1442826,-673,-583,622,7685
91585625,4009,0,0.037872057,-1.0068331,-9.949101,-0.008886668,-0.0060019614,-0.051696412,56.321327,156.9064,0.0047884034,1442826,-551,-567,2003,7697
91689603,4000,0,0.031128133,-1.015391,-10.273638,-0.0037762462,-0.005358408,-0.041935254,56.3241,156.9064,0.0047884034,1442826,-763,181,-1174,7698
91789603,3979,0,-0.39631078,0.017899577,-9.521693,0.004796273,0.012269749,-0.025442388,56.321327,156.9064,0.0047884034,1442826,-346,-415,1691,7697
91889606,4003,0,0.06514737,1.0498275,-9.493872,0.006736756,0.00043280632,-0.053828824,56.36011,156.9064,0.0047884034,1442826,159,-249,1408,7711
91993610,4007,0,0.08935468,-0.15451926,-9.737047,-0.0014920309,-0.0034484908,-0.03880749,56.36288,156.9064,0.0047884034,1442826,-794,-828,1737,7712
92095214,4011,0,0.6261638,-1.0315984,-10.093697,0.004541779,-0.016310073,-0.024361633,56.33518,156.9064,0.0047884034,1442826,1112,754,3087,7702
92195203,4000,0,0.20084248,-1.6956836,-10.71066,-0.0036011818,-0.0013768986,-0.030254666,56.35734,156.9064,0.0047884034,1442826,-202,637,-389,7710
92295203,3976,0,-0.7558241,-0.7611818,-10.503461,-0.0036031064,0.0077405153,-0.045453068,56.37119,156.9064,0.0047884034,1442826,-900,-137,2360,7715
92399203,4000,0,0.03888931,1.0352954,-10.091625,0.00016179233,-8.5943146e-05,-0.040343773,56.38227,156.9064,0.0047884034,1442826,-89,123,-575,7719
92499218,4005,0,0.5188899,0.8502899,-9.792738,0.0012977838,-0.0075761783,-0.053636882,56.37119,156.9064,0.0047884034,1442826,-750,-175,1507,7715
92603203,3971,0,0.44474897,-0.5996511,-9.856517,0.0023784358,1.1636643e-05,-0.03028281,56.37673,156.9064,0.0047884034,1442826,1243,543,3395,7717
92703203,4000,0,0.26268163,-1.2128639,-10.012777,-0.01056446,0.0038768484,-0.05203735,56.40166,156.9064,0.0047884034,1442826,-103,618,1259,7726
92803223,4020,0,-0.14872353,-1.166265,-10.574302,-0.003508721,-0.0067033377,-0.03591427,56.42105,156.9064,0.0047884034,1442826,-350,-162,-134,7733
92907203,3991,0,0.06180509,0.67281324,-9.505132,-0.0030549476,0.0050068973,-0.025002975,56.42105,156.9064,0.0047884034,1442826,-273,342,857,7733
93007203,3958,0,0.63211954,1.0985786,-9.829533,0.005652803,0.0027733457,-0.04670064,56.451523,156.9064,0.0047884034,1442826,145,248,1283,7744
93111282,4047,0,0.84472007,-0.27982458,-10.273251,0.0015107444,-0.0015341742,-0.043236855,56.445984,156.9064,0.0047884034,1442826,696,802,1810,7742
93211203,3992,0,-0.1984321,-1.0400757,-10.14889,0.0013112875,-0.007096796,-0.044173554,56.459835,156.9064,0.0047884034,1442826,23,-484,1420,7747
93311203,3999,0,-0.30266857,-1.1302612,-9.936348,-0.0025570663,-0.0043203807,-0.04155973,56.445984,156.9064,0.0047884034,1442826,-533,-154,2100,7742
93415203,3987,0,0.13826016,0.81636643,-9.23122,0.008013682,0.0032382384,-0.01773946,56.451523,156.9064,0.0047884034,1442826,-83,442,3223,7744
93516005,3996,0,0.16087537,1.2979778,-9.76584,0.00749216,0.004610971,-0.04921509,56.434902,156.9064,0.0047884034,1442826,448,-168,1914,7738
93616803,4000,0,0.43503574,0.78142774,-10.083689,0.015883686,-0.008743936,-0.042477928,56.45706,156.9064,0.0047884034,1442826,1230,-620,1917,7746
93716830,4027,0,0.38681945,-0.5607553,-10.357358,0.0062617576,-0.0015178923,-0.050372012,56.484764,156.9064,0.0047884034,1442826,1216,-432,1340,7756
93820803,3973,0,-0.29159856,-1.533296,-10.075849,0.006434315,-0.005523242,-0.040465593,56.473682,156.9064,0.0047884034,1442826,-434,-219,3145,7752
93920822,4019,0,-0.45669505,-0.023047006,-9.777036,0.0028402389,-0.001902937,-0.04603035,56.518005,156.9064,0.0047884034,1442826,-693,-1083,1060,7768
