timestamp,integral_dt,error_count,x,y,z,x_integral,y_integral,z_integral,temperature,range_m_s2,scaling,device_id,x_raw,y_raw,z_raw,temperature_raw
49076882,4001,0,-0.28727165,0.07654259,-9.867652,0.0016083294,0.0029707446,-0.041184045,45.515236,156.9064,0.0047884034,1442850,-66,60,-1871,3796
49176888,4000,0,0.35043025,-0.03641655,-9.926077,0.00221544,-0.0047543747,-0.04233338,45.512466,156.9064,0.0047884034,1442850,478,-254,-2676,3795
49276888,4006,0,-0.0034107873,0.37309548,-9.241035,0.0013677769,0.0010490579,-0.037171774,45.542934,156.9064,0.0047884034,1442850,64,-290,-2271,3806
49381674,3999,0,-0.059521798,0.25143775,-8.98103,0.001914209,0.010625678,-0.041489124,45.548477,156.9064,0.0047884034,1442850,241,-706,-2681,3808
49481695,3988,0,-0.604257,-0.5261153,-9.141166,0.006565311,0.007932924,-0.037341766,45.537395,156.9064,0.0047884034,1442850,-335,5,-1562,3804
49581678,4003,0,-0.60241914,-0.8197496,-9.369191,0.0056621353,0.0061115213,-0.034368783,45.534626,156.9064,0.0047884034,1442850,-463,-585,-2010,3803
49686506,4031,0,0.6766618,1.1035113,-9.870379,-0.0019424802,0.0002071367,-0.041882314,45.576176,156.9064,0.0047884034,1442850,-92,-261,-1922,3818
49786476,4025,0,0.3626231,0.756383,-9.895917,-0.00882999,-0.011625674,-0.040643595,45.551247,156.9064,0.0047884034,1442850,735,677,-1668,3809
49886450,3999,0,-0.39595526,-0.819947,-9.561227,0.003539614,-0.005086768,-0.02817726,45.565098,156.9064,0.0047884034,1442850,-177,-613,-2357,3814
49990451,4001,0,-0.9020177,-0.6193277,-9.721013,-0.00017247,-0.0070293,-0.03217348,45.57895,156.9064,0.0047884034,1442850,310,74,-2452,3819
50091275,3988,0,-0.06251993,-0.013132501,-10.020592,-0.007841098,-0.013922326,-0.03964804,45.567867,156.9064,0.0047884034,1442850,481,1613,-1399,3815
50191274,3936,0,-0.24560922,0.14393833,-9.814505,-0.016270524,-0.018692443,-0.0448937,45.590027,156.9064,0.0047884034,1442850,748,1087,-2927,3823
50295287,3958,0,-0.40796104,-0.13672622,-9.928519,0.008377864,0.0088003175,-0.044624418,45.58172,156.9064,0.0047884034,1442850,-485,516,-1287,3820
50395306,4032,0,1.0886097,0.3106602,-9.202532,0.0035853563,-0.0076540564,-0.025177568,45.576176,156.9064,0.0047884034,1442850,641,-271,-4413,3818
50496075,4000,0,0.039356582,-1.2214004,-9.611366,0.0086785,0.004297428,-0.049517773,45.570637,156.9064,0.0047884034,1442850,-387,-830,-3016,3816
50600074,4000,0,0.5505965,-1.0676371,-9.702152,0.01944445,0.008744636,-0.035360683,45.584488,156.9064,0.0047884034,1442850,-469,-820,-2405,3821
50700075,4001,0,0.7880225,-0.70874137,-9.778403,-0.0039008036,0.00817867,-0.04120636,45.63712,156.9064,0.0047884034,1442850,757,-912,-2550,3840
50800882,3999,0,-0.55613005,0.8688904,-9.822543,-0.012200851,0.0064013754,-0.050013047,45.567867,156.9064,0.0047884034,1442850,373,1364,-1583,3815
50900882,3974,0,1.7749373,0.09909575,-9.896526,0.024824874,-0.0010824888,-0.032144353,45.59834,156.9064,0.0047884034,1442850,533,530,-608,3826
51004914,4032,0,0.7343298,-0.09312973,-10.79459,-0.013412316,0.002162247,-0.045232914,45.603878,156.9064,0.0047884034,1442850,1444,184,-3570,3828
51104882,4000,0,-1.0163871,0.121176034,-10.123259,-0.021893121,-0.005278902,-0.015471043,45.61496,156.9064,0.0047884034,1442850,476,-728,-1195,3832
51205701,4050,0,1.5770564,0.060035676,-9.841377,-0.0049259234,-0.007446843,-0.042749643,45.59834,156.9064,0.0047884034,1442850,2036,177,-2464,3826
51309674,3993,0,0.53165716,0.27838716,-9.899482,-0.039400876,-0.007027039,-0.025463592,45.626038,156.9064,0.0047884034,1442850,2229,779,-2138,3836
51409650,3969,0,0.82995856,-0.3896219,-10.795949,-0.024362644,-0.0059411856,-0.05137097,45.63712,156.9064,0.0047884034,1442850,2157,218,-1284,3840
51513707,4024,0,-0.7377463,-0.286668,-10.131503,0.0155755365,-0.004396116,-0.030635526,45.609417,156.9064,0.0047884034,1442850,-1185,852,-754,3830
51613690,4016,0,-0.056644775,0.11339083,-9.895543,-0.019103676,0.0019583679,-0.059461467,45.609417,156.9064,0.0047884034,1442850,1408,236,-4806,3830
51714482,4000,0,0.864725,0.8057386,-10.948342,-0.004368376,-0.0019722588,-0.06147491,45.67036,156.9064,0.0047884034,1442850,2629,428,-3226,3852
51814482,3993,0,0.07973371,1.0048994,-9.9288645,0.00077987113,0.005468632,-0.0266469,45.61773,156.9064,0.0047884034,1442850,431,109,-3446,3833
51919281,4799,0,-0.9628131,-0.05162338,-9.419223,0.0057244278,0.0041865506,-0.045169227,45.63712,156.9064,0.0047884034,1442850,-1422,-595,-2726,3840
52023274,4000,0,-0.87704706,0.18030885,-9.888035,0.0020178934,0.0024127143,-0.07196943,45.65651,156.9064,0.0047884034,1442850,-1369,563,-957,3847
52123274,3966,0,-0.47577873,-0.4522554,-9.055116,-0.01140008,0.0019360678,-0.034539357,45.65097,156.9064,0.0047884034,1442850,85,-587,-2393,3845
52227275,3950,0,-0.70396686,0.15852977,-9.151028,-0.00088659907,-0.003064204,-0.03408898,45.68975,156.9064,0.0047884034,1442850,-711,-815,-1541,3859
52327274,4000,0,-0.7304617,0.74589795,-8.9666605,-0.011360705,0.009350121,-0.03305771,45.6759,156.9064,0.0047884034,1442850,-867,-275,-2186,3854
52428051,3984,0,0.27636722,0.028570555,-9.773995,0.0025600963,0.0014062917,-0.06613067,45.66759,156.9064,0.0047884034,1442850,624,-166,-3924,3851
52532089,4038,0,-0.91374797,-0.57526505,-10.073649,-0.017097747,0.0022116404,-0.019979058,45.65374,156.9064,0.0047884034,1442850,-475,-207,-1642,3846
52632057,4006,0,-0.8398045,-0.3100396,-9.869558,-0.00052064937,0.0084838895,-0.0401368,45.68975,156.9064,0.0047884034,1442850,-978,-1058,-2823,3859
52732881,4007,0,0.059988733,0.8384397,-9.998751,0.023286507,0.010400125,-0.049492177,45.67036,156.9064,0.0047884034,1442850,184,-7,-2303,3852
52832876,3971,0,-0.79287004,0.86535364,-10.54597,0.0009594655,-0.0017264675,-0.043491594,45.69252,156.9064,0.0047884034,1442850,-832,340,-649,3860
52936875,4001,0,0.10551011,-0.5287902,-10.676508,-0.012656843,-0.0054483144,-0.023099113,45.68421,156.9064,0.0047884034,1442850,753,-556,-1288,3857
53341680,4001,0,-0.49107,1.1828527,-10.733887,-0.025792586,-0.010685466,-0.02631031,45.72853,156.9064,0.0047884034,1442850,606,309,-2075,3873
53746451,4001,0,-1.2417787,0.076226085,-10.193334,-0.015138498,0.010954227,-0.04912214,45.759003,156.9064,0.0047884034,1442850,-514,-198,-3035,3884
53851304,4030,0,0.08455425,0.94901556,-10.542133,0.0005603011,-0.010183892,-0.048982184,45.756233,156.9064,0.0047884034,1442850,-120,405,-1536,3883
53955275,4001,0,1.2871414,-0.103768565,-11.366781,-0.015145024,-0.014163663,-0.0294369,45.753464,156.9064,0.0047884034,1442850,2174,36,822,3882
54055274,3947,0,-0.10446917,-0.64009094,-10.288055,0.015865315,-0.0016060458,-0.058255218,45.736843,156.9064,0.0047884034,1442850,-606,758,-3357,3876
54159280,4006,0,0.1333761,-0.31648356,-10.191236,-0.023213753,0.00056038797,-0.03755266,45.761772,156.9064,0.0047884034,1442850,2097,-922,-2376,3885
54260082,3988,0,0.44866958,1.6017296,-10.629772,0.017999299,-0.0035790873,-0.06014011,45.772854,156.9064,0.0047884034,1442850,861,595,-1051,3889
54360083,3994,0,0.024004154,0.82233065,-9.5538435,0.0003385977,-0.0069396943,-0.03524807,45.742382,156.9064,0.0047884034,1442850,-98,513,-2819,3878
54464122,4040,0,-0.67958045,-0.41299197,-8.92259,0.011687199,0.0110452585,-0.041778523,45.753464,156.9064,0.0047884034,1442850,-1692,56,-3739,3882
54564087,4005,0,0.17573321,-0.63854855,-9.433825,0.011582881,-0.0011854852,-0.03910001,45.76454,156.9064,0.0047884034,1442850,81,727,-1378,3886
54664874,3993,0,-0.68104583,-0.057805646,-9.291293,0.015375972,0.007472486,-0.0303845,45.772854,156.9064,0.0047884034,1442850,-502,242,-2137,3889
54764874,3993,0,0.14929502,1.3196695,-9.44646,0.015056387,-0.0027682737,-0.0563733,45.795013,156.9064,0.0047884034,1442850,98,642,-2671,3897
54868917,4043,0,0.0013034485,0.0018600979,-8.690372,-0.017285807,-0.0017628827,-0.027992321,45.778393,156.9064,0.0047884034,1442850,619,355,-4008,3891
54969651,3967,0,-0.085563764,-0.9189632,-9.193482,0.006380062,-0.0005598264,-0.055786837,45.828255,156.9064,0.0047884034,1442850,-337,-606,-3416,3909
55069677,3995,0,-0.4955822,-0.74060136,-10.195651,-0.022140361,-0.0008428979,-0.03227332,45.789474,156.9064,0.0047884034,1442850,1083,-839,-1266,3895
55173674,4000,0,-0.7026939,1.0632503,-9.570834,0.01196114,0.0016944534,-0.06234716,45.800552,156.9064,0.0047884034,1442850,-1086,499,-1945,3899
55273675,3995,0,-0.3008711,1.3338768,-10.263652,0.010461282,-0.0060985824,-0.034201745,45.811634,156.9064,0.0047884034,1442850,-1186,537,787,3903
55377677,3996,0,-0.8039935,-0.84604925,-8.940494,0.0044587343,-0.005812625,-0.040913258,45.806095,156.9064,0.0047884034,1442850,-1114,-435,-2755,3901
55478475,4001,0,-0.8114738,-0.5878913,-8.047648,-0.021476954,0.0009980624,-0.046034172,45.819942,156.9064,0.0047884034,1442850,-212,371,-2606,3906
55582474,4000,0,-0.91802216,0.76670754,-8.462934,0.00281733,0.009307719,-0.061705872,45.842106,156.9064,0.0047884034,1442850,-1276,-700,-2278,3914
55682474,4000,0,0.14417104,1.2359614,-8.333554,0.0014714245,0.0042489413,-0.05670314,45.811634,156.9064,0.0047884034,1442850,712,503,-5967,3903
55787284,4007,0,0.15460584,-0.3053429,-9.24812,-0.011621038,0.0072196885,-0.025867613,45.828255,156.9064,0.0047884034,1442850,677,488,-3081,3909
55887308,4034,0,-0.81104195,-0.76875794,-9.753698,-0.0046442566,0.010388093,-0.06273113,45.836563,156.9064,0.0047884034,1442850,-1212,520,-2989,3912
55987281,3957,0,-0.26561943,-0.7109519,-9.798798,-0.011972499,-0.005128679,-0.052246876,45.819942,156.9064,0.0047884034,1442850,1124,106,-2842,3906
56091274,3995,0,-0.24681869,1.2321018,-8.104213,-0.011923986,0.0201585,-0.039847307,45.839336,156.9064,0.0047884034,1442850,241,250,-1604,3913
56192051,3967,0,-0.19495422,0.32254142,-6.5139694,0.044919357,-0.006667365,-0.054026853,45.803326,156.9064,0.0047884034,1442850,-1740,-881,-3457,3900
56292050,3998,0,-2.3776007,-0.26784256,-6.9578505,0.008273768,-0.0032909168,-0.015301578,45.847645,156.9064,0.0047884034,1442850,-2289,-1716,341,3916
56396090,4009,0,-0.1886719,-1.2958894,-7.7392673,-0.07227707,0.008978654,-0.040054716,45.878117,156.9064,0.0047884034,1442850,1829,-70,-3657,3927
56496905,4031,0,-1.5332294,-0.09193867,-7.21576,0.028395759,0.0047158464,-0.028323013,45.872578,156.9064,0.0047884034,1442850,-2386,746,-2741,3925
56600881,3989,0,-1.1833752,0.60305905,-9.236267,0.027156534,-0.013248011,-0.03986013,45.889194,156.9064,0.0047884034,1442850,-2415,-575,1525,3931
56700875,4001,0,-0.30625015,0.11997011,-9.41876,-0.00023885863,0.0050313435,-0.04214135,45.855957,156.9064,0.0047884034,1442850,-802,-467,-1294,3919
56804885,4011,0,-0.28012648,-1.0516979,-10.360616,0.006959135,0.003768622,-0.041676633,45.869804,156.9064,0.0047884034,1442850,-451,-1647,-1120,3924
56905684,4002,0,-0.41570166,0.036108736,-9.946126,-0.009141567,0.00490803,-0.036184262,45.872578,156.9064,0.0047884034,1442850,-162,-107,-2351,3925
57005688,4004,0,0.21223147,0.9214095,-9.181061,-0.004028848,0.0018411948,-0.04533605,45.844875,156.9064,0.0047884034,1442850,1722,84,-4198,3915
57109682,3994,0,0.21987073,0.7379472,-10.044585,-0.0033813128,-0.008528443,-0.05411499,45.897507,156.9064,0.0047884034,1442850,31,402,-1606,3934
57209745,4063,0,0.13925688,-0.56428736,-10.405312,-0.0068687624,-0.006622617,-0.05988037,45.872578,156.9064,0.0047884034,1442850,-574,-1152,-397,3925
57310526,4075,0,0.08174957,-0.9737804,-11.061597,0.014337574,-0.0121767,-0.0394878,45.878117,156.9064,0.0047884034,1442850,-256,619,-1259,3927
57414486,4035,0,-1.2594775,-0.24275738,-10.090534,0.0001578494,0.012842402,-0.070308276,45.886425,156.9064,0.0047884034,1442850,-1102,425,-3728,3930
57514451,3995,0,-0.08501339,0.16535972,-10.149521,-0.0010906174,0.0069681494,-0.0039124526,45.903046,156.9064,0.0047884034,1442850,254,116,-1480,3936
57614451,3994,0,-0.087646626,1.005686,-9.298053,0.034569997,0.004495689,-0.039633043,45.903046,156.9064,0.0047884034,1442850,-615,226,-5402,3936
57719314,4033,0,-0.18458287,0.69844073,-10.902355,0.022995315,-0.021871429,-0.03188183,45.911358,156.9064,0.0047884034,1442850,110,1494,-2323,3939
57819284,3992,0,0.16801783,-0.44881603,-10.253277,-0.0054440335,-0.002751359,-0.06084311,45.922436,156.9064,0.0047884034,1442850,599,1007,-4631,3943
57919282,3948,0,-0.4734288,-1.3635167,-10.2238035,-0.02368165,-0.013264475,-0.039443493,45.916897,156.9064,0.0047884034,1442850,557,112,-3567,3941
58023308,4005,0,-0.8900591,-0.3955437,-10.348456,-0.028678011,0.0042858813,-0.036769703,45.933517,156.9064,0.0047884034,1442850,843,-965,-2303,3947
58124081,3969,0,0.7267005,0.66443276,-10.010942,0.014593237,-0.005901616,-0.04587151,45.92798,156.9064,0.0047884034,1442850,803,-393,-2539,3945
58224080,3999,0,-0.37250677,1.6531408,-10.015856,0.0049044336,-0.004408247,-0.054325357,45.916897,156.9064,0.0047884034,1442850,-337,1515,-2472,3941
58328081,4006,0,-0.39429194,-0.45401308,-9.59486,0.023677401,0.0004340266,-0.04316622,45.939056,156.9064,0.0047884034,1442850,-530,788,-6059,3949
58428860,4009,0,-0.91359216,-1.9655098,-11.003458,-0.034496445,-0.0014813356,-0.024408633,45.90859,156.9064,0.0047884034,1442850,-427,-1295,-591,3938
58528862,4011,0,-0.90930283,-0.82703215,-10.05732,-0.0015716488,0.014283929,-0.04433322,45.950138,156.9064,0.0047884034,1442850,-3,-257,-2941,3953
58628856,4005,0,0.40937394,-0.18269409,-10.646233,-0.0033437847,-0.00082326075,-0.014899359,45.96122,156.9064,0.0047884034,1442850,1290,-1067,2649,3957
58732899,4042,0,-0.35425776,1.1743728,-10.408798,-0.0060893903,-0.0010616556,-0.047609504,45.94737,156.9064,0.0047884034,1442850,-651,1380,-892,3952
58832850,3999,0,0.070601806,0.85118186,-9.81293,0.021397673,-0.004787943,-0.039033864,45.919666,156.9064,0.0047884034,1442850,-1030,1632,-3696,3942
58933677,3997,0,-0.84801114,-0.20281892,-10.177942,-0.00949749,-0.012178436,0.0025351327,45.96399,156.9064,0.0047884034,1442850,125,820,-2789,3958
59037690,3997,0,-0.25200564,-0.777213,-8.880415,-0.014285624,0.008973571,-0.03740842,45.96399,156.9064,0.0047884034,1442850,730,-108,-3773,3958
59137675,3952,0,0.052374348,0.0036696894,-9.574014,-0.014300375,-0.0019101752,-0.060534455,45.99446,156.9064,0.0047884034,1442850,1655,-702,207,3969
59241702,4027,0,0.014895629,0.8549058,-9.362923,0.006080728,0.005725317,-0.04554151,45.975067,156.9064,0.0047884034,1442850,1012,267,-4153,3962
59342511,4037,0,-0.6800449,-0.0057696253,-9.38541,-0.023873398,0.011851097,-0.026482377,45.96122,156.9064,0.0047884034,1442850,-702,-1060,-1803,3957
59442474,3999,0,0.38707182,-0.81718385,-9.45271,-0.0163864,-0.005344671,-0.04248438,46.00831,156.9064,0.0047884034,1442850,1713,409,-3484,3974
59542474,3993,0,-0.48168477,-0.9513097,-9.520692,-0.0018593748,0.0067528705,-0.07129175,45.972298,156.9064,0.0047884034,1442850,-658,-587,-3283,3961
59647282,4000,0,-1.0550652,0.62697124,-8.645785,0.010675572,0.0052309316,-0.018372921,45.96676,156.9064,0.0047884034,1442850,-869,-50,-3269,3959
59751250,3936,0,0.057820737,0.51064926,-9.999006,0.014820064,-0.015911136,-0.025471682,45.98892,156.9064,0.0047884034,1442850,125,260,-2774,3967
59851257,3904,0,0.02639864,-0.21179621,-8.94805,-0.007644218,-0.0030818796,-0.035686396,45.975067,156.9064,0.0047884034,1442850,901,1252,-4193,3962
59952081,3947,0,-0.026445089,-1.2038854,-9.926506,-0.022846803,-0.005194961,-0.028903611,46.00277,156.9064,0.0047884034,1442850,1564,16,-4439,3972
60056113,4005,0,-0.5407798,-0.14150673,-10.24696,0.0046834294,0.004262512,-0.07828386,46.049862,156.9064,0.0047884034,1442850,485,-200,-1525,3989
60156074,4000,0,-0.590273,0.053461242,-9.2565,-0.026033442,-0.00068957265,-0.015709555,46.027702,156.9064,0.0047884034,1442850,449,-1211,-1899,3981
60260074,3994,0,0.25467443,0.41777447,-10.050085,-0.022779783,-0.009930545,-0.04742819,46.03601,156.9064,0.0047884034,1442850,1868,-465,-3017,3984
60360074,4000,0,0.59186435,0.1504194,-8.958903,0.0035269582,0.0011392153,0.0046462603,46.03878,156.9064,0.0047884034,1442850,390,340,-2210,3985
60460888,4006,0,-0.024589045,-1.2322996,-10.2580185,-0.010103817,-0.0055736788,-0.037816525,46.01385,156.9064,0.0047884034,1442850,949,1061,-1876,3976
60560929,4047,0,-0.5119705,-0.79429305,-9.616984,0.020487195,0.011187842,-0.03718437,46.00554,156.9064,0.0047884034,1442850,-88,147,-3043,3973
60664881,3999,0,-0.41974574,0.35815564,-9.027844,0.0012316694,0.0071335454,-0.0061130417,46.05817,156.9064,0.0047884034,1442850,-1033,-952,972,3992
60765675,4000,0,0.46792758,0.20206904,-9.546767,-0.022598477,-0.003924394,-0.045457605,46.07479,156.9064,0.0047884034,1442850,1587,-1081,-159,3998
60865694,4020,0,0.11400696,0.6693404,-9.958312,0.024035946,0.0012777376,-0.077377975,46.05817,156.9064,0.0047884034,1442850,178,628,-3663,3992
60969682,4001,0,-0.22112171,-0.82332927,-10.117923,-0.006873414,-0.0065339343,-0.030754395,46.04155,156.9064,0.0047884034,1442850,237,-578,147,3986
61069674,3972,0,-1.3383626,-0.98796874,-10.163248,-0.004998278,0.0032787565,-0.012263926,46.04432,156.9064,0.0047884034,1442850,-860,104,-78,3987
61170474,3967,0,-0.071163744,-0.24625973,-9.641027,-0.00044629327,0.0009387287,-0.0012368369,46.063713,156.9064,0.0047884034,1442850,743,32,725,3994
61274474,3994,0,-0.35488954,1.1059264,-8.280989,-0.018330937,-0.020760072,-0.026432317,46.088642,156.9064,0.0047884034,1442850,1407,933,-7483,4003
61374474,3994,0,0.51840794,0.44733724,-9.124827,0.017698176,-0.0053864,-0.024623988,46.066483,156.9064,0.0047884034,1442850,310,1245,-1901,3995
61474474,3993,0,0.01775992,-0.7492048,-9.237531,0.0041738315,-0.0061094444,-0.038008258,46.069252,156.9064,0.0047884034,1442850,-223,-1326,-1380,3996
61578488,4008,0,-0.0828698,-0.27187932,-9.111963,0.0009336768,0.0107634775,-0.037201814,46.06094,156.9064,0.0047884034,1442850,414,695,-5988,3993
61679274,4000,0,-0.21746942,0.48781556,-9.629614,-0.03186682,-0.0060097906,-0.006034372,46.066483,156.9064,0.0047884034,1442850,2114,251,-4015,3995
61779296,4022,0,-0.33466634,1.3146272,-9.446296,0.02334746,0.0005907719,-0.014056133,46.119114,156.9064,0.0047884034,1442850,-327,1059,345,4014
61883295,3988,0,-0.55611616,0.65443695,-8.769666,0.012114796,-0.00613743,-0.06737664,46.083103,156.9064,0.0047884034,1442850,-41,975,-8030,4001
61984114,4040,0,-0.06100871,-0.5634153,-9.374851,-0.028327996,-0.0064961687,-0.043514796,46.13019,156.9064,0.0047884034,1442850,1669,1194,-4778,4018
62084080,4006,0,-0.90863925,-0.45714915,-10.198716,0.0030154593,-0.003675281,-0.04121478,46.096954,156.9064,0.0047884034,1442850,-960,-83,1136,4006
62188074,4000,0,-0.6390042,-0.10804334,-8.967567,-0.014430631,0.0028523523,-0.05549392,46.1108,156.9064,0.0047884034,1442850,395,-1636,-4704,4011
62288851,4000,0,-0.551723,1.5109599,-9.775932,-0.0030663733,-0.0036422962,-0.05477024,46.1108,156.9064,0.0047884034,1442850,19,523,-2990,4011
62388850,3994,0,0.25349444,0.18591781,-9.137532,0.002388041,-0.0149692595,-0.011419421,46.116344,156.9064,0.0047884034,1442850,1455,953,-3151,4013
62492850,3964,0,-0.30061826,-0.98195076,-10.4584,-0.0069202622,-0.0064681247,-0.0557091,46.113575,156.9064,0.0047884034,1442850,51,-735,-813,4012
62596880,3982,0,-1.6699095,-0.31482878,-10.268586,0.014376823,0.0056085596,-0.043376215,46.102493,156.9064,0.0047884034,1442850,-2196,-279,-14,4008
62696887,4013,0,-0.7799989,0.7713676,-9.991472,0.008524616,0.022106346,-0.033057243,46.13019,156.9064,0.0047884034,1442850,-237,-1135,-3126,4018
62797678,3997,0,0.075504005,0.84444153,-9.981963,0.00028479286,0.006014072,-0.009136023,46.116344,156.9064,0.0047884034,1442850,1081,670,-1814,4013
62901690,4013,0,-0.87402964,0.3697991,-10.950464,0.014814841,-0.0075908476,-0.04147254,46.1108,156.9064,0.0047884034,1442850,-1782,1470,569,4011
63005708,4034,0,-0.2231302,-0.5720774,-10.912931,0.010162642,-0.011818065,-0.025711622,46.121883,156.9064,0.0047884034,1442850,859,402,248,4015
63105678,4004,0,-0.14585622,-0.39468426,-8.94158,0.01565841,0.013592118,-0.019524965,46.166206,156.9064,0.0047884034,1442850,-103,-510,-3211,4031
63210516,4028,0,-0.8410236,0.6619281,-9.130319,-0.014123235,0.009146984,-0.024509385,46.144043,156.9064,0.0047884034,1442850,-692,-1908,-1930,4023
63310488,3978,0,-0.5656573,0.6217696,-9.526372,-0.011051364,-0.003974172,-0.049186274,46.144043,156.9064,0.0047884034,1442850,218,-559,-1860,4023
63410488,4006,0,-0.37901717,-0.35737807,-9.139039,0.01318361,0.0003216085,-0.056364775,46.168976,156.9064,0.0047884034,1442850,-1396,848,-3716,4032
63515251,4001,0,-0.51886505,-1.1153568,-9.351348,-0.0012893442,0.019184738,-0.0031169527,46.163433,156.9064,0.0047884034,1442850,-594,-1127,-1956,4030
63615251,4001,0,-1.0487455,-0.40174383,-9.300291,-0.02343584,0.00964932,-0.027284063,46.185596,156.9064,0.0047884034,1442850,575,-1514,-2346,4038
63715250,3962,0,-0.16096586,0.5692229,-9.621068,0.0007471321,0.0008930769,-0.05254384,46.157894,156.9064,0.0047884034,1442850,60,-1065,-558,4028
63819274,3973,0,0.39113382,0.18987043,-10.821632,-0.0076682135,-0.0143953245,-0.021419873,46.132965,156.9064,0.0047884034,1442850,753,628,-45,4019
63920082,3978,0,1.0116739,-0.25760183,-9.92851,-0.006584108,-0.011583976,-0.024395475,46.180054,156.9064,0.0047884034,1442850,1765,1568,-2756,4036
64020109,4027,0,-0.5655034,-1.1043453,-9.256524,-0.009499457,-0.0027098877,-0.045397516,46.174515,156.9064,0.0047884034,1442850,131,-207,-3225,4034
64124082,4000,0,0.16715688,0.500853,-9.492112,0.021056771,0.004235943,-0.064712286,46.171745,156.9064,0.0047884034,1442850,10,784,-3830,4033
64224082,3994,0,-0.74266005,0.5424684,-10.078081,-0.00042184955,0.016171476,-0.03158071,46.202217,156.9064,0.0047884034,1442850,-324,-1163,372,4044
64324874,3993,0,0.5403391,0.8046534,-10.312743,-0.006047,-0.008429546,-0.020269413,46.196674,156.9064,0.0047884034,1442850,1473,180,439,4042
64424875,4001,0,-0.043981403,0.24549402,-9.946128,-0.005582235,-0.006579631,-0.02568771,46.227146,156.9064,0.0047884034,1442850,-132,353,-1556,4053
64528926,4045,0,-0.8301473,-0.54572046,-9.101855,-0.009484379,0.016667582,-0.06315488,46.218838,156.9064,0.0047884034,1442850,144,33,-6059,4050
64628874,3956,0,-0.5308091,-0.3656391,-10.17624,-0.00038587907,0.0024446284,-0.0561663,46.199444,156.9064,0.0047884034,1442850,690,-118,-2679,4043
64729654,3989,0,-0.8217571,0.23217432,-9.132637,-0.028698293,0.0015196982,-0.02012214,46.210526,156.9064,0.0047884034,1442850,164,-1318,-2579,4047
64833684,4033,0,0.0246832,1.3288141,-11.05854,-0.009368281,-0.002663572,-0.057855252,46.238228,156.9064,0.0047884034,1442850,-93,548,2232,4057
64933657,3997,0,-0.024117347,-1.0042199,-9.1581135,0.001270131,0.0075020287,-0.026389118,46.23546,156.9064,0.0047884034,1442850,-320,-885,-3988,4056
65037677,3996,0,-0.90351796,-0.5697831,-10.612557,-0.012121297,0.0012022001,0.00021445379,46.229916,156.9064,0.0047884034,1442850,599,683,-593,4054
65138475,3994,0,-1.6084081,0.890019,-9.4841585,-0.0033946014,0.017065894,-0.07958327,46.204987,156.9064,0.0047884034,1442850,-1431,-25,-2322,4045
65238474,4000,0,0.022292733,0.7932178,-8.957807,-0.0016470117,0.0035975764,-0.033161066,46.240997,156.9064,0.0047884034,1442850,414,-757,-2211,4058
65338481,4007,0,1.0280577,1.2524902,-9.798646,-0.02505547,0.0035325405,-0.03052095,46.2687,156.9064,0.0047884034,1442850,2462,562,-2299,4068
65443274,4794,0,-0.13562252,-0.43405423,-10.1403475,-0.001691099,0.0005390579,-0.088640265,46.265926,156.9064,0.0047884034,1442850,350,659,-3810,4067
65547309,4035,0,-1.3178588,-0.7738848,-9.231078,0.007465154,0.0055851964,-0.042814437,46.238228,156.9064,0.0047884034,1442850,-2008,-648,-2178,4057
65647281,3961,0,-0.6332471,0.64666665,-10.471231,0.012714365,0.008141767,-0.04661797,46.249306,156.9064,0.0047884034,1442850,-797,160,1146,4061
65751274,3983,0,-0.58171004,0.6267851,-8.815052,-0.01966087,-0.00064955116,-0.037846904,46.260387,156.9064,0.0047884034,1442850,-459,548,-632,4065
65851274,4000,0,0.45932123,-0.1813966,-9.792989,0.0047718044,-0.00904771,-0.01020553,46.260387,156.9064,0.0047884034,1442850,1288,-593,884,4065
65952078,4028,0,1.0456892,-0.4863907,-9.023424,-0.0097083915,0.0032835635,-0.030574337,46.257618,156.9064,0.0047884034,1442850,2762,790,-3020,4064
66056050,3952,0,-0.94426847,0.116713434,-8.505576,-0.0008004303,0.004455311,-0.027010255,46.277008,156.9064,0.0047884034,1442850,-624,-526,-4445,4071
66156050,3993,0,-0.14704137,0.7087103,-8.494286,0.016813815,0.015566185,-0.019671733,46.299168,156.9064,0.0047884034,1442850,-1182,-392,-554,4079
66256881,4007,0,0.5149609,0.973376,-9.457993,0.009213163,-0.00035990772,-0.04847196,46.277008,156.9064,0.0047884034,1442850,961,107,-3789,4071
66356874,4000,0,0.18900116,0.1830846,-10.3508625,-0.010453245,-0.007647128,-0.035687245,46.2687,156.9064,0.0047884034,1442850,953,487,-2134,4068
66460921,4047,0,-0.4080893,-1.4167479,-10.811069,-0.031305216,-0.0075631426,-0.063224904,46.30471,156.9064,0.0047884034,1442850,1758,-167,-3231,4081
66560881,3980,0,-0.60081875,-0.621214,-9.264922,0.007455218,0.009678083,-0.05848168,46.277008,156.9064,0.0047884034,1442850,-192,265,-5251,4071
67579298,3966,0,-1.764214,-0.6207788,-9.582254,0.029720953,0.0055857636,-0.009882124,46.33518,156.9064,0.0047884034,1442850,-2816,-617,-1278,4092
67683282,3983,0,0.40325493,1.176346,-8.338099,0.03561806,0.006908276,-0.038092207,46.33518,156.9064,0.0047884034,1442850,-333,-599,-5182,4092
67783282,4001,0,-0.67856437,0.97149146,-9.786384,0.010087833,-0.0085054645,-0.053929325,46.34349,156.9064,0.0047884034,1442850,-1998,105,-819,4095
67884074,3999,0,-0.63093215,-0.19419257,-9.785719,-0.019365935,-0.012119703,-0.07382196,46.36288,156.9064,0.0047884034,1442850,-868,1156,-3312,4102
67988074,4000,0,-1.0884016,-1.2375083,-10.347155,0.020887258,-0.0004356216,-0.039437715,46.35457,156.9064,0.0047884034,1442850,-1624,332,-985,4099
68088074,3980,0,-1.6615504,-0.6521292,-9.380101,0.0065208003,0.0072084796,-0.044858772,46.36011,156.9064,0.0047884034,1442850,-2823,-1149,-121,4101
68188074,3993,0,-1.5057297,0.8072492,-9.377859,-0.01961472,-0.0031812596,-0.06444754,46.34626,156.9064,0.0047884034,1442850,-1064,-67,-2618,4096
68288857,4006,0,-1.4261974,1.6201698,-9.518379,-0.007313406,0.007916222,-0.07487464,46.36842,156.9064,0.0047884034,1442850,-2147,181,-2799,4104
68392850,3993,0,1.0517019,0.08950678,-10.538564,0.021143714,-0.01034132,-0.060010925,46.390583,156.9064,0.0047884034,1442850,613,-24,-1937,4112
68492850,3992,0,0.45362923,-1.2746114,-10.766211,0.01014133,-0.02303743,-0.019098863,46.373962,156.9064,0.0047884034,1442850,-123,92,-1029,4106
68596857,4006,0,-0.4006985,-0.63762987,-10.171883,-0.027579512,0.008300403,-0.006984445,46.39889,156.9064,0.0047884034,1442850,1254,379,-574,4115
68697675,4000,0,-0.3274566,0.57476985,-8.4970875,-0.014536388,0.005217499,-0.07967411,46.40166,156.9064,0.0047884034,1442850,-510,-716,-5169,4116
68801707,4005,0,0.99389374,0.458366,-9.334563,0.010764668,-0.014232354,-0.044909418,46.393353,156.9064,0.0047884034,1442850,973,292,-3937,4113
68901683,4008,0,-0.05087778,-0.5881086,-9.994481,0.010582911,-0.0072509903,-0.03448145,46.396122,156.9064,0.0047884034,1442850,-763,-706,-1198,4114
69005700,4020,0,-0.6409107,-1.2935967,-9.854304,-0.01039266,0.0067342343,-0.043930054,46.41828,156.9064,0.0047884034,1442850,-436,-439,-2616,4122
69106475,4001,0,-0.6533458,0.18399,-10.645457,0.0050650793,-0.0058090203,-0.060247242,46.396122,156.9064,0.0047884034,1442850,-686,816,576,4114
69206481,4007,0,-0.72302693,0.641606,-8.791977,0.007948006,0.0044316147,-0.02808488,46.412743,156.9064,0.0047884034,1442850,-504,-110,-5296,4120
69310475,4001,0,-0.78504694,1.0623791,-9.534935,-0.016857574,0.006120101,-0.024379171,46.434902,156.9064,0.0047884034,1442850,-214,-45,-2952,4128
69411252,4745,0,0.22166662,0.078627504,-9.727071,-0.008523495,-0.012464801,-0.02247514,46.454292,156.9064,0.0047884034,1442850,937,1162,-1584,4135
69511283,3980,0,-0.90557045,-0.6903518,-10.226897,0.030325148,-0.009024458,-0.05030741,46.415512,156.9064,0.0047884034,1442850,-2567,882,-1972,4121
69615257,3978,0,0.033099063,-0.7763605,-9.968462,-0.014190117,-0.014325744,-0.04485045,46.451523,156.9064,0.0047884034,1442850,1338,165,-2130,4134
69715257,4007,0,-1.0492301,-0.065040655,-8.529285,-0.0072570494,0.010913315,-0.017299833,46.429363,156.9064,0.0047884034,1442850,-323,-1011,-3424,4126
69815261,4008,0,0.5554396,0.856226,-8.551697,0.00045140414,0.012075038,-0.054666515,46.448753,156.9064,0.0047884034,1442850,1356,-173,-4952,4133
69920075,3995,0,-0.026062807,0.31916282,-10.538578,0.03626725,-0.02520867,-0.004645749,46.462605,156.9064,0.0047884034,1442850,-578,639,300,4138
70020074,4000,0,-0.34666884,-1.1115705,-9.519495,-0.007921129,0.008774912,-0.030616682,46.448753,156.9064,0.0047884034,1442850,-852,-1650,-1060,4133
70120080,3953,0,0.31230548,-1.0717028,-10.652529,-0.008112161,-0.005982122,-0.04220545,46.465374,156.9064,0.0047884034,1442850,1751,-10,931,4139
70220882,4770,0,-1.2912267,-0.39978492,-9.738255,-0.015341809,0.0033034063,-0.05085192,46.426594,156.9064,0.0047884034,1442850,-867,-1016,-1787,4125
70324928,4046,0,-0.59011734,1.043169,-9.671965,-0.0009685771,0.004551513,-0.04444348,46.476456,156.9064,0.0047884034,1442850,-181,104,-1630,4143
70424882,3987,0,0.6499061,0.58999413,-10.398353,0.015276586,-0.0123761175,-0.03787274,46.523544,156.9064,0.0047884034,1442850,-23,-770,-782,4160
70528882,3993,0,-0.04657287,-0.7051418,-10.271499,0.0020434652,-0.013409464,-0.06377241,46.462605,156.9064,0.0047884034,1442850,-253,949,-2319,4138
70629650,3998,0,-0.7742721,-1.712941,-9.415342,-0.035998054,-0.006343743,-0.056167893,46.448753,156.9064,0.0047884034,1442850,1180,-922,-3044,4133
70729650,4000,0,-1.3151735,-0.49127036,-9.615669,0.012014361,0.007528873,-0.05611983,46.479225,156.9064,0.0047884034,1442850,-821,-271,-1983,4144
70833706,4048,0,-0.41797334,1.3644025,-8.778005,-0.007076051,0.008051878,-0.048365507,46.473682,156.9064,0.0047884034,1442850,-102,-157,-4055,4142
70933650,4000,0,0.72261196,1.4503429,-9.134978,0.01131979,-0.0007639944,-0.021889945,46.465374,156.9064,0.0047884034,1442850,722,1230,-787,4139
71034474,3994,0,-0.25345242,-0.21017343,-9.786444,-0.02105607,-0.00048315758,-0.022828048,46.479225,156.9064,0.0047884034,1442850,433,1014,-3607,4144
71134488,4000,0,-0.2703089,-1.0932164,-9.273411,-0.014919873,-0.009765468,-0.052663844,46.56233,156.9064,0.0047884034,1442850,-45,677,-4314,4174
71238488,4006,0,-1.3210083,-1.0858171,-10.1419525,0.018802837,0.0051128073,-0.012860227,46.487534,156.9064,0.0047884034,1442850,-2300,-359,1559,4147
71338521,3991,0,-0.24250202,-0.089030065,-9.449928,0.00881229,0.000855083,-0.015823362,46.518005,156.9064,0.0047884034,1442850,214,270,-1449,4158
71439331,4044,0,-0.38361323,0.9014635,-8.99325,0.027700566,0.00901198,-0.022156302,46.493076,156.9064,0.0047884034,1442850,-971,-329,-1991,4149
71543320,4046,0,0.60772073,-0.19488813,-8.902403,-0.010603462,-0.00037694676,-0.02365268,46.506924,156.9064,0.0047884034,1442850,938,-846,-3139,4154
71643274,4000,0,-0.4119782,-0.66686606,-9.46232,-0.012916272,-0.01033377,-0.07301977,46.520775,156.9064,0.0047884034,1442850,-259,279,-4309,4159
71747284,4004,0,-0.71681166,-0.8809068,-9.469212,-0.0067453827,0.0029223675,-0.042940646,46.512466,156.9064,0.0047884034,1442850,-146,278,-3628,4156
71848051,4001,0,-0.8100983,-0.23922169,-10.160786,0.025750102,-0.006048668,-0.035085797,46.515236,156.9064,0.0047884034,1442850,-87,28,-2430,4157
71948051,4000,0,0.082434535,0.32267886,-9.095978,-0.014842613,0.01348087,-0.036058664,46.542934,156.9064,0.0047884034,1442850,1150,-1129,-1335,4167
72048070,3982,0,0.29973406,1.439136,-9.81549,0.024511226,-0.0008569793,-0.06507516,46.565098,156.9064,0.0047884034,1442850,-50,674,-1887,4175
72152050,3978,0,-0.29791173,-0.7322496,-8.897302,-0.007947646,0.008059401,-0.06974582,46.540165,156.9064,0.0047884034,1442850,-380,-96,-6674,4166
72256881,4007,0,-1.157163,-1.4166658,-9.608258,0.0041976445,0.017706161,-0.036407962,46.551247,156.9064,0.0047884034,1442850,-719,-1055,-2963,4170
72356880,4006,0,0.10508178,-0.43573588,-10.012024,0.014087046,-0.0020158477,-0.04516114,46.545708,156.9064,0.0047884034,1442850,836,208,-2473,4168
72460874,3985,0,-0.2339744,1.5483673,-9.680694,9.386096e-05,0.0040824856,-0.07532789,46.551247,156.9064,0.0047884034,1442850,240,516,-2524,4170
72560881,4007,0,-0.2761986,0.7591223,-9.670923,-0.011305263,5.6186633e-05,-0.05045592,46.584488,156.9064,0.0047884034,1442850,-193,-103,-2627,4182
72661674,3999,0,-0.7850724,0.0836866,-10.162033,0.024015596,-0.012533741,-0.014173813,46.603878,156.9064,0.0047884034,1442850,-2454,753,-581,4189
72765677,3997,0,-0.34233084,-0.78593856,-9.848539,-0.01872865,-0.003208308,-0.00805062,46.537395,156.9064,0.0047884034,1442850,768,1287,-2365,4165
72865681,3974,0,-0.5138958,-0.026097594,-9.162692,-0.012334976,0.008301343,-0.060668796,46.584488,156.9064,0.0047884034,1442850,280,-717,-4713,4182
72965674,3991,0,0.12587152,0.63501716,-10.179558,-0.01916613,0.012407641,-0.03155232,46.570637,156.9064,0.0047884034,1442850,1321,-948,-439,4177
73066451,4000,0,-0.12786105,1.4019518,-9.741111,0.011412066,0.0012622974,-0.08998123,46.56233,156.9064,0.0047884034,1442850,-442,769,-2390,4174
73170450,4000,0,1.1003236,-0.6367519,-9.976109,0.0099926,-0.015726786,-0.055237956,46.595566,156.9064,0.0047884034,1442850,1031,35,-3157,4186
73270487,4036,0,0.37443006,-0.84689814,-9.750151,-0.0067136316,0.0034148926,-0.04906854,46.587257,156.9064,0.0047884034,1442850,1315,811,-2812,4183
73374485,4034,0,-0.61236125,-0.24515924,-8.680254,-0.011432102,0.020713877,-0.042360097,46.58172,156.9064,0.0047884034,1442850,301,-350,-4139,4181
73475281,4007,0,-0.42532048,0.9385417,-10.778321,0.018409524,-0.014050319,-0.030842718,46.61496,156.9064,0.0047884034,1442850,-557,1098,-281,4193
73575304,4030,0,0.24298999,1.2228705,-8.453921,2.2389926e-05,-0.011547567,-0.032651924,46.587257,156.9064,0.0047884034,1442850,1254,811,-6317,4183
73679283,4008,0,-0.34431028,-0.61893046,-9.272285,0.0012240829,0.0007029227,-0.010943636,46.63712,156.9064,0.0047884034,1442850,-567,-10,-3802,4201
73779316,4042,0,0.2640208,-1.7703507,-10.073858,-0.023354005,-0.00074660126,-0.05269171,46.609417,156.9064,0.0047884034,1442850,1292,-1526,-940,4191
73880082,4000,0,-0.62349796,-0.35543662,-9.667168,-0.0041879257,-0.0019393181,-0.059680343,46.603878,156.9064,0.0047884034,1442850,-148,1315,-2851,4189
73980088,3973,0,-0.8113141,0.20830639,-9.795273,-0.008274386,0.015017577,-0.009940107,46.63712,156.9064,0.0047884034,1442850,-925,-303,1194,4201
74084081,3972,0,0.59869367,0.7166332,-10.228342,0.005252607,-0.008409207,-0.038407892,46.587257,156.9064,0.0047884034,1442850,1215,-191,-950,4183
74184851,3940,0,-0.31927657,-0.5781109,-9.3427725,0.019341517,0.002120909,-0.054064162,46.603878,156.9064,0.0047884034,1442850,-747,-664,-1674,4189
74284858,4007,0,0.71084523,-1.2313428,-10.147448,-0.00044500735,-0.013231978,-0.031717397,46.645428,156.9064,0.0047884034,1442850,2169,1454,-1165,4204
74388850,3999,0,-1.0712389,-0.14890525,-9.860317,0.021800455,-0.0011489978,-0.04630188,46.65097,156.9064,0.0047884034,1442850,-956,1814,-2022,4206
74488850,3993,0,0.067869954,0.09401326,-9.901796,0.009688921,0.0036363604,-0.031194754,46.64266,156.9064,0.0047884034,1442850,950,-982,-2348,4203
74592874,4000,0,0.7759729,0.69938165,-9.241791,0.0153121,-0.0033606645,-0.046657465,46.63989,156.9064,0.0047884034,1442850,-94,142,-2286,4202
74693682,4000,0,0.6745719,-0.04671437,-9.978066,-0.014441564,-0.00096225546,-0.0083784275,46.67036,156.9064,0.0047884034,1442850,292,461,-1474,4213
74797682,3959,0,-0.6632604,-0.9329624,-11.241119,-0.005864829,-0.0016570955,-0.0149265155,46.67036,156.9064,0.0047884034,1442850,44,1092,598,4213
74897682,3996,0,-0.9747769,-0.3984452,-9.499357,0.011433288,0.003384057,-0.077039175,46.6759,156.9064,0.0047884034,1442850,-578,584,-3142,4215
75001708,4013,0,0.13700663,1.385919,-8.990595,-0.01807281,0.009822944,-0.053646803,46.66205,156.9064,0.0047884034,1442850,554,-937,-1870,4210
75102475,3988,0,0.56351507,1.1580409,-8.631866,0.0140387975,0.009124416,-0.040496957,46.66205,156.9064,0.0047884034,1442850,324,531,-4708,4210
75206481,3986,0,-0.47483543,-1.0150982,-9.248742,0.0052748993,0.0023658425,-0.05481805,46.68975,156.9064,0.0047884034,1442850,-645,1061,-4974,4220
75306518,4044,0,-0.49265894,-1.9142381,-10.747208,0.012229182,-0.0145663405,-0.03777149,46.69806,156.9064,0.0047884034,1442850,-964,-3,121,4223
75410475,3994,0,-0.6100602,-0.6886531,-8.696426,0.006709967,0.019360889,-0.024311911,46.67313,156.9064,0.0047884034,1442850,-650,-1335,-1584,4214
75511278,4028,0,0.33306357,1.0564524,-9.458517,0.011958335,0.0018333755,-0.025707113,46.72576,156.9064,0.0047884034,1442850,405,449,-1711,4233
75611263,3970,0,0.898814,1.0599763,-9.510711,0.003846718,-0.0019954303,-0.045906007,46.71191,156.9064,0.0047884034,1442850,1084,921,-2678,4228
75715292,4018,0,-0.24726442,-0.8813289,-9.3446,0.005441258,0.0009042115,-0.06015098,46.720222,156.9064,0.0047884034,1442850,-281,205,-3821,4231
75815274,4017,0,-0.58941615,-1.4406186,-9.729046,-0.004957306,-0.002508709,-0.03278642,46.71468,156.9064,0.0047884034,1442850,35,552,-5171,4229
75916075,4000,0,-0.8748942,-0.6724839,-10.292953,-0.0036937587,0.0014057785,-0.08398838,46.742382,156.9064,0.0047884034,1442850,-1347,-479,-1604,4239
76020081,4007,0,0.33707768,0.7148231,-9.2097645,-0.0047859447,0.0021547682,-0.037485924,46.75069,156.9064,0.0047884034,1442850,1174,-691,-3415,4242
76120074,4000,0,0.5169999,1.0974901,-10.001797,-0.00470963,-0.014479028,-0.027760588,46.71191,156.9064,0.0047884034,1442850,1332,691,-2500,4228
76220124,4049,0,-0.897851,-0.19925973,-9.345715,0.00040748715,-0.0028031156,-0.029628364,46.742382,156.9064,0.0047884034,1442850,-2047,400,-2931,4239
76324875,3994,0,0.07866329,-2.1876862,-10.35764,-0.013435282,-0.0064917547,-0.019035928,46.756233,156.9064,0.0047884034,1442850,827,-646,-1351,4244
76424880,4006,0,-0.07505364,-0.8347091,-8.84799,0.008359601,0.010620744,-0.032279763,46.72853,156.9064,0.0047884034,1442850,470,290,-4217,4234
76524897,4023,0,-1.1484588,0.2906731,-9.556611,0.018025853,0.0068275053,-0.03396926,46.753464,156.9064,0.0047884034,1442850,-771,-1,-2773,4243
76628874,3999,0,-0.3844867,1.3089523,-9.384671,-0.022547698,0.011781389,-0.039878298,46.7313,156.9064,0.0047884034,1442850,433,4,-2626,4235
76729651,4000,0,-0.42276677,0.4848407,-9.672557,0.001241179,-0.0035786836,-0.045984,46.7313,156.9064,0.0047884034,1442850,-620,-206,-2959,4235
76829650,3988,0,0.14926794,-0.8930982,-10.002164,-0.004035378,-0.0067748856,-0.052993678,46.761772,156.9064,0.0047884034,1442850,-69,-1126,-1068,4246
76933702,4015,0,-0.6281393,-0.44555637,-10.67165,0.02544563,-0.0077613476,-0.040099364,46.74515,156.9064,0.0047884034,1442850,-1474,1102,519,4240
77033708,4028,0,-0.65079755,-0.021970093,-9.439164,-0.019851333,-0.00014691381,-0.042311877,46.76731,156.9064,0.0047884034,1442850,-129,-1071,-1296,4248
77134514,4039,0,-0.21958855,1.4826852,-8.680472,0.034517378,0.0011230551,-0.0540496,46.770084,156.9064,0.0047884034,1442850,-1330,618,-4599,4249
77238508,4033,0,-0.20791817,-0.46871582,-9.3000765,0.002811034,-0.009076931,-0.034212984,46.795013,156.9064,0.0047884034,1442850,-599,-652,-2432,4258
77338474,4000,0,-0.2645502,-1.0664549,-9.733377,-0.00018871867,-0.000492066,-0.061979644,46.786705,156.9064,0.0047884034,1442850,261,125,-3471,4255
77438478,3997,0,-0.69686073,-0.8234102,-10.345617,-0.0067893323,0.0053605596,-0.016900737,46.786705,156.9064,0.0047884034,1442850,-579,348,176,4255
77543298,4010,0,0.79241276,0.7226075,-9.575347,-0.028988406,0.0002120863,-0.03252428,46.803326,156.9064,0.0047884034,1442850,2203,-294,-2727,4261
77643322,4040,0,-0.022722473,1.2185755,-9.214408,0.010147582,-0.007979153,-0.036230717,46.814404,156.9064,0.0047884034,1442850,443,493,-2641,4265
77743282,3954,0,-0.010079795,0.22064543,-9.47251,-0.022262845,-0.00327353,-0.058766097,46.795013,156.9064,0.0047884034,1442850,224,-401,-2409,4258
77847282,3983,0,0.4541437,-2.040953,-10.370724,-0.0049004294,-0.012853688,-0.034066387,46.819942,156.9064,0.0047884034,1442850,1428,-751,-1990,4267
77948051,3967,0,-0.19265157,-0.6354848,-9.436008,0.010385108,0.017446939,-0.022236675,46.819942,156.9064,0.0047884034,1442850,-101,62,-1337,4267
78048080,3997,0,0.08401735,0.25799415,-9.880065,0.0042619547,-7.310405e-05,-0.026663998,46.819942,156.9064,0.0047884034,1442850,402,-187,-681,4267
78152099,4012,0,-0.22124079,1.7768393,-9.526919,0.0014142296,0.0013246234,-0.07150634,46.855957,156.9064,0.0047884034,1442850,-1212,367,-2364,4280
78252096,4022,0,0.6653523,0.26369488,-9.896687,-0.011158824,-0.0069177886,-0.018240541,46.844875,156.9064,0.0047884034,1442850,1598,-285,-953,4276
78352920,4038,0,-0.61708516,-1.1048996,-9.307849,-0.00456399,0.009678295,-0.066336796,46.836563,156.9064,0.0047884034,1442850,-1366,-271,-4630,4273
78452888,4006,0,0.18332225,-1.8057398,-10.562406,-0.012905073,-0.014333138,-0.050417542,46.831024,156.9064,0.0047884034,1442850,1265,752,-2015,4271
78556930,4048,0,-0.4175069,-0.5458033,-9.74996,0.021112941,0.01131817,-0.025539745,46.853184,156.9064,0.0047884034,1442850,-229,109,-984,4279
78656882,3993,0,0.16251038,0.052629314,-9.760372,-0.004834912,0.016355783,-0.030629423,46.858727,156.9064,0.0047884034,1442850,1022,-1365,-667,4281
78757681,4006,0,-0.46692714,1.3796257,-9.399546,-0.017960466,-0.002550643,-0.045384374,46.847645,156.9064,0.0047884034,1442850,-779,-765,-1841,4277
78861687,3987,0,-0.067860566,-0.12194298,-10.68592,-0.011186862,-0.010998131,-0.034818485,46.833794,156.9064,0.0047884034,1442850,-465,642,494,4272
78961674,4000,0,-0.31418338,-1.1002451,-9.926819,0.01785883,-0.008964703,-0.047576338,46.844875,156.9064,0.0047884034,1442850,-1698,130,-2092,4276
79062481,4000,0,0.034403183,-1.7609942,-10.689828,0.0016461485,-0.011437043,-0.028906673,46.842106,156.9064,0.0047884034,1442850,1577,331,-1630,4275
79166481,4000,0,-0.49376518,0.8701496,-9.390962,0.007814346,0.0035685194,-0.07973124,46.858727,156.9064,0.0047884034,1442850,-541,58,-3696,4281
79266481,4007,0,0.38429946,0.61496246,-9.480675,-0.014971215,0.0034825755,-0.04345569,46.864265,156.9064,0.0047884034,1442850,603,-1567,-924,4283
79370474,4000,0,-0.054205775,0.36902735,-10.167146,0.011305679,-0.019193234,-0.044820495,46.878117,156.9064,0.0047884034,1442850,-865,1266,-2165,4288
79470520,4039,0,0.7443682,-0.9262327,-10.073579,-0.0057728505,-0.010088988,-0.039744094,46.861496,156.9064,0.0047884034,1442850,1438,-617,-2790,4282
79570507,4033,0,-0.54409367,-0.87863857,-10.440573,0.0054237586,0.001236947,-0.033248827,46.880886,156.9064,0.0047884034,1442850,-599,59,-361,4289
79671321,4047,0,-0.5890123,-0.12853938,-9.028565,0.0063146376,0.015447846,-0.026544932,46.869804,156.9064,0.0047884034,1442850,-421,-352,-2998,4285
79775279,3998,0,-0.2369843,1.0605195,-9.850425,-0.019010939,0.00483406,-0.018896198,46.897507,156.9064,0.0047884034,1442850,401,-182,-1175,4295
79875274,3993,0,-0.25924426,0.6779454,-8.507562,-0.0049071363,0.006668146,-0.061045147,46.878117,156.9064,0.0047884034,1442850,258,75,-6169,4288
79976075,4000,0,-0.12301603,-0.8573021,-9.338249,0.0039662095,-0.008725586,-0.010640785,46.914127,156.9064,0.0047884034,1442850,712,948,-6086,4301
80080074,3962,0,-0.13205935,-0.8907671,-9.764709,-0.036490813,0.0054969653,-0.014192725,46.916897,156.9064,0.0047884034,1442850,2910,-21,-2605,4302
80180050,3960,0,-0.6069427,-0.28667808,-9.490321,0.0055753696,0.015212191,-0.017742565,46.900276,156.9064,0.0047884034,1442850,-709,-463,1329,4296
80280051,3961,0,-0.5691208,0.82852274,-9.156426,0.0029723244,-0.002077844,-0.0022840463,46.939056,156.9064,0.0047884034,1442850,-204,253,-2674,4310
80384881,4001,0,0.35167393,0.50261784,-9.401481,0.015029837,-0.008193523,-0.05852724,46.905815,156.9064,0.0047884034,1442850,-383,-583,-2056,4298
80484880,3968,0,0.7523774,-0.17869012,-10.897491,0.006961325,-0.019498134,-0.030943142,46.911358,156.9064,0.0047884034,1442850,37,2130,-1589,4300
80688888,4014,0,-1.0366081,-0.3327544,-9.973802,-0.028926268,0.0023218927,-0.016176851,46.936287,156.9064,0.0047884034,1442850,1466,171,-1507,4309
81194482,4808,0,0.0059358524,-0.92660314,-10.579912,0.013005631,0.015658803,-0.050642837,46.972298,156.9064,0.0047884034,1442850,531,-973,-901,4322
81298450,3999,0,0.5279975,0.6988234,-9.566827,-0.015299374,-0.004561954,-0.020611184,46.952908,156.9064,0.0047884034,1442850,2387,398,-2710,4315
81402450,4000,0,-0.4565383,0.33210063,-9.251589,0.0044311536,-0.013838326,-0.011538018,46.96399,156.9064,0.0047884034,1442850,-506,456,-4239,4319
81502516,4066,0,-0.036119167,-0.3990038,-10.644353,-0.010279798,-0.0027834587,-0.027382929,46.94183,156.9064,0.0047884034,1442850,-920,187,1313,4311
81603364,4090,0,-0.21079583,-1.5310048,-9.660953,-0.032050386,-0.017779633,-0.017770203,46.975067,156.9064,0.0047884034,1442850,1694,935,-4510,4323
81707291,4017,0,-1.0944083,0.026298193,-9.463991,-0.0015029924,-0.0010216652,-0.061317798,46.96676,156.9064,0.0047884034,1442850,-918,-132,-2638,4320
81807281,4007,0,-0.019156111,0.78590554,-8.671478,-0.030187882,-0.0026229017,-0.030728739,46.955677,156.9064,0.0047884034,1442850,1687,90,-4430,4316
81911283,3988,0,-1.1918314,1.2719213,-10.127424,-0.00074970257,-0.005934963,-0.04373415,46.97784,156.9064,0.0047884034,1442850,-2861,17,-1143,4324
82012083,3995,0,-0.4572351,0.033580165,-10.248712,-0.02437162,-0.011526347,-0.074484356,47.047092,156.9064,0.0047884034,1442850,-992,376,-1043,4349
82112082,3977,0,0.16971947,-0.982809,-9.214354,-0.032569498,0.006980042,-0.03543439,47.03878,156.9064,0.0047884034,1442850,1799,195,-5019,4346
82212082,3963,0,0.74918324,-1.3987797,-10.087102,-0.015476568,-0.0035060127,-0.009635961,47.00554,156.9064,0.0047884034,1442850,2260,534,565,4334
82316088,3972,0,0.35148644,0.79150474,-9.79097,-0.019308392,0.00534032,0.0056120595,46.99723,156.9064,0.0047884034,1442850,1634,1000,1460,4331
82416088,4006,0,0.29538506,1.1657913,-10.305117,-0.018795634,0.0059251036,-0.061015356,46.98892,156.9064,0.0047884034,1442850,969,27,600,4328
82516851,3994,0,0.56602246,0.6965268,-10.12026,0.020978972,0.0018750462,-0.04728024,47.00277,156.9064,0.0047884034,1442850,100,573,-124,4333
82620861,4011,0,0.68674797,-0.8460849,-11.415919,-0.0154461395,-0.0046809646,-0.036885984,47.00831,156.9064,0.0047884034,1442850,2773,428,1526,4335
82720893,4043,0,-0.32906428,-0.6137525,-10.103944,-0.0085832905,0.008927618,-0.06573912,47.049862,156.9064,0.0047884034,1442850,-518,28,-1855,4350
82821678,4001,0,-1.2508472,0.30071098,-8.940404,0.028338358,0.00990438,-0.012616572,47.01385,156.9064,0.0047884034,1442850,-2375,568,-621,4337
82925682,4001,0,0.6053206,1.4368794,-9.16776,0.033172265,-0.004194542,-0.047905892,47.0554,156.9064,0.0047884034,1442850,449,-310,-4840,4352
83025682,4000,0,-0.6508224,0.29599863,-9.416486,-0.019228376,-0.003469613,-0.0468968,47.03878,156.9064,0.0047884034,1442850,-711,-127,-2819,4346
83125687,4005,0,0.021983197,-0.523811,-10.438532,-0.01073756,-0.0041015805,-0.056681756,47.049862,156.9064,0.0047884034,1442850,-441,159,1176,4350
83229682,3992,0,-1.4100628,-1.0634612,-9.925578,0.027743427,0.0075255306,-0.051706996,47.063713,156.9064,0.0047884034,1442850,-886,74,-3682,4355
83330474,3959,0,-0.79746825,-0.15546589,-9.093256,0.010145981,0.019385023,-0.04909095,47.0554,156.9064,0.0047884034,1442850,-341,100,-2516,4352
83430474,4000,0,0.24182971,1.1557615,-9.026228,0.016839497,-0.011857657,-0.012230381,47.09141,156.9064,0.0047884034,1442850,-602,1242,-394,4365
83534517,4042,0,0.80049366,0.45317286,-8.39073,-0.006616613,-0.010555092,-0.034743067,47.047092,156.9064,0.0047884034,1442850,1684,-730,-3840,4349
83634474,4000,0,-0.33503056,-0.38247773,-9.839197,-0.006483258,-0.0028487798,-0.05089753,47.04432,156.9064,0.0047884034,1442850,1724,-361,-3255,4348
83735250,3993,0,0.08846143,-0.70210445,-10.977922,-0.011790272,-0.006700163,-0.018600764,47.0554,156.9064,0.0047884034,1442850,493,1233,-83,4352
83839256,4005,0,-0.6542632,-0.4777342,-11.543131,-0.0055992263,-0.001328565,-0.026397906,47.07202,156.9064,0.0047884034,1442850,-1197,213,457,4358
83939260,3986,0,-0.82059693,0.589859,-9.346341,-0.018311465,0.0057208,-0.07795957,47.102493,156.9064,0.0047884034,1442850,-577,-431,-1625,4369
84039362,4088,0,0.15403715,1.3190289,-9.733934,-0.025545627,0.014913495,-0.0437837,47.085873,156.9064,0.0047884034,1442850,1627,55,-2479,4363
84144075,3956,0,0.17478272,-0.36950105,-9.580393,0.013956595,-0.013601476,-0.039008006,47.099724,156.9064,0.0047884034,1442850,999,374,-6090,4368
84248087,3979,0,0.15972812,-0.9130412,-9.136084,0.0019830773,-0.008483369,-0.045196697,47.09141,156.9064,0.0047884034,1442850,1048,603,-4109,4365
84348074,3987,0,-0.84641385,-0.40957156,-10.186088,0.01066181,0.005190744,-0.047425058,47.07202,156.9064,0.0047884034,1442850,-1182,-798,-1052,4358
84452075,4001,0,-1.1445763,1.524855,-9.066806,0.028402986,-0.00304939,-0.04364775,47.085873,156.9064,0.0047884034,1442850,-2336,224,-3908,4363
84552881,4007,0,0.4790903,0.7918591,-11.404905,0.0085609425,-0.0058278213,-0.04298868,47.127422,156.9064,0.0047884034,1442850,-282,896,2464,4378
84652874,4000,0,1.0100536,-1.2348514,-8.842586,-0.026849259,0.0004216251,-0.018709661,47.121883,156.9064,0.0047884034,1442850,2337,-641,-4112,4376
84752889,4008,0,0.27520892,-0.7827866,-10.000595,-0.0072655873,-0.011362453,-0.04141303,47.121883,156.9064,0.0047884034,1442850,1273,1573,-3046,4376
84856894,4008,0,0.43966362,-0.13196415,-10.676498,-0.006683031,0.0016352164,-0.039544836,47.135735,156.9064,0.0047884034,1442850,1913,275,144,4381
84957681,4006,0,-0.2560862,1.1073906,-8.394716,-0.007730443,0.01441163,-0.0016555381,47.132965,156.9064,0.0047884034,1442850,896,589,-3962,4380
85057729,4049,0,0.018811375,1.5415351,-9.360219,-0.031585574,0.0009814971,-0.028796308,47.157894,156.9064,0.0047884034,1442850,1999,1157,-3226,4389
85161681,4007,0,-0.01937923,-0.3339508,-10.371273,0.00731551,-0.009121494,-0.07301355,47.135735,156.9064,0.0047884034,1442850,-372,529,-1849,4381
85261674,3995,0,0.19994855,-1.6844519,-10.132079,-0.0018057061,-0.00491738,-0.030121133,47.157894,156.9064,0.0047884034,1442850,313,-327,1748,4389
85365695,4010,0,-1.0806955,-0.764269,-9.249864,0.0061865374,0.020160157,-0.0066762366,47.146812,156.9064,0.0047884034,1442850,-1572,-1277,238,4385
85466498,4018,0,-0.10981628,1.0128561,-9.87224,0.005059477,0.00056777755,-0.04100105,47.146812,156.9064,0.0047884034,1442850,180,530,-112,4385
85566474,3993,0,0.5086458,1.2250303,-9.035358,0.01986056,-0.006795437,-0.05144435,47.163433,156.9064,0.0047884034,1442850,577,46,-4552,4391
85666474,3993,0,0.34023708,0.43685567,-10.913395,-0.000981734,-0.0172427,-0.01695493,47.138504,156.9064,0.0047884034,1442850,-465,595,1853,4382
85770480,4006,0,-0.5805432,-1.10205,-10.838299,0.023223523,-0.014978627,-0.05578503,47.166206,156.9064,0.0047884034,1442850,-2177,887,-84,4392
85871282,4000,0,-0.5421765,-1.3077234,-10.160163,0.0051198574,0.0040948447,-0.02799146,47.132965,156.9064,0.0047884034,1442850,-26,-213,-3167,4380
85971354,4066,0,-1.3144692,0.08177994,-10.500669,-0.0073774755,-0.0021691893,-0.03110828,47.174515,156.9064,0.0047884034,1442850,-1099,-196,1773,4395
86075271,4021,0,0.7054714,1.0905532,-10.65429,-0.00419084,-0.0060228137,-0.057739876,47.152355,156.9064,0.0047884034,1442850,974,-427,-245,4387
86175257,4007,0,0.14324395,-0.19729762,-9.227182,-0.0048240568,-0.00484409,-0.013791194,47.163433,156.9064,0.0047884034,1442850,628,257,-3349,4391
86276074,4000,0,0.024032427,-0.767926,-10.203895,0.018911084,-0.011038708,-0.045491934,47.191135,156.9064,0.0047884034,1442850,76,358,-1998,4401
86380074,4000,0,-0.9091256,-0.9824497,-10.2195215,-0.016966034,0.012949267,-0.03619606,47.182827,156.9064,0.0047884034,1442850,796,-454,-1442,4398
86480080,3990,0,-0.8361635,-0.044176962,-8.60814,-0.0012318224,0.008962773,-0.033466075,47.199444,156.9064,0.0047884034,1442850,-481,-1137,-5348,4404
86580888,3969,0,0.7676174,1.3968092,-9.810622,-0.0178879,-0.012729366,-0.046372816,47.221607,156.9064,0.0047884034,1442850,1941,368,-2331,4412
86684882,3994,0,0.43749234,0.8660963,-10.374024,0.008819131,-0.010299596,-0.0729796,47.191135,156.9064,0.0047884034,1442850,-175,1858,-966,4401
86784908,3992,0,-0.10751332,-0.9233049,-10.867004,-0.009175843,-0.013100299,-0.022056364,47.193905,156.9064,0.0047884034,1442850,-52,-302,1202,4402
86884885,4003,0,-1.0518644,-1.2707531,-9.098103,-0.028445955,-0.0093169,-0.08577968,47.196674,156.9064,0.0047884034,1442850,-92,-279,-5122,4403
86988909,4027,0,-0.09891528,0.037010927,-9.083335,-0.011025936,0.00094060367,-0.02468967,47.221607,156.9064,0.0047884034,1442850,338,407,-3431,4412
87089651,3994,0,-1.1448438,1.4369432,-8.943021,0.03339931,0.013276631,-0.04766783,47.202217,156.9064,0.0047884034,1442850,-2338,1033,-3148,4405
87189650,3991,0,0.3698408,0.92523485,-10.49039,-0.011759417,-0.011827364,-0.046114363,47.246536,156.9064,0.0047884034,1442850,1608,1225,-563,4421
87293657,3968,0,-0.033310793,-0.92883736,-9.453632,0.028225947,0.0068979273,-0.056066465,47.218838,156.9064,0.0047884034,1442850,-780,-275,-3204,4411
87397689,4032,0,-0.9597475,-1.9268805,-8.935122,0.0007873401,0.020137247,-0.02345886,47.25485,156.9064,0.0047884034,1442850,-184,-1511,-2969,4424
87498489,4015,0,-0.099461034,0.025442505,-10.312044,-0.008153553,-0.0027893072,-0.050648086,47.243767,156.9064,0.0047884034,1442850,943,-477,-2266,4420
87602482,4000,0,-0.47883612,1.8463441,-10.484851,0.033036202,0.0011816253,-0.051640227,47.25485,156.9064,0.0047884034,1442850,-1892,1253,-1599,4424
87702509,4021,0,-0.01157714,0.202717,-9.680097,-0.008279848,-0.017422684,-0.045563694,47.23546,156.9064,0.0047884034,1442850,870,-139,-4309,4417
87802519,4031,0,-0.27078488,-0.29555717,-10.467723,0.028219976,-0.019383745,-0.022350967,47.260387,156.9064,0.0047884034,1442850,-1249,665,-1287,4426
87903341,4067,0,0.1565938,-1.4637362,-11.274089,0.0056365305,-0.0033861808,-0.052692782,47.249306,156.9064,0.0047884034,1442850,21,-1186,-613,4422
88007302,4012,0,0.27998632,0.30623606,-10.298366,0.0063095298,0.004572733,-0.05938835,47.282547,156.9064,0.0047884034,1442850,566,-52,994,4434
88107274,4000,0,0.025576556,0.6410391,-9.830405,-0.026333435,0.01104178,-0.0021094838,47.260387,156.9064,0.0047884034,1442850,1511,-905,1297,4426
88211288,4014,0,0.7635438,0.13727964,-10.129824,-0.017802421,-0.020087752,-0.053139538,47.27424,156.9064,0.0047884034,1442850,2211,267,-1532,4431
88312051,4000,0,0.2915519,-0.9453125,-8.814835,-0.0057925736,-0.0004996831,-0.024030253,47.28809,156.9064,0.0047884034,1442850,-104,-200,-3826,4436
88412056,4005,0,-0.23116903,-1.4567791,-10.434189,-0.0064321156,-0.009354844,-0.047416486,47.29363,156.9064,0.0047884034,1442850,-799,277,995,4438
88512057,3936,0,-0.60328305,-1.5743802,-10.012032,0.012280429,0.0004584482,-0.016170498,47.28809,156.9064,0.0047884034,1442850,1025,-625,-1192,4436
88616089,3977,0,-0.2092634,0.065960385,-8.630215,0.009617444,0.008426058,-0.011654565,47.33241,156.9064,0.0047884034,1442850,-55,-653,-2768,4452
88716074,3993,0,0.8057828,0.6807162,-9.162504,-0.020672534,0.0035248687,-0.04501505,47.32133,156.9064,0.0047884034,1442850,1744,-385,-2554,4448
88816875,4001,0,0.0009484407,0.8095846,-9.366675,-0.011028047,-0.0054402347,-0.014228035,47.301937,156.9064,0.0047884034,1442850,168,487,-1053,4441
88920874,4000,0,-0.3977704,-0.81791353,-10.05918,-0.019340824,-0.0015898178,-0.034887288,47.32687,156.9064,0.0047884034,1442850,-84,429,-1437,4450
89020874,3993,0,-0.5959577,-0.7903594,-9.447207,-0.0052176155,0.002581777,-0.039559428,47.32964,156.9064,0.0047884034,1442850,275,716,-4797,4451
89121674,3997,0,-0.9782859,-0.16961499,-9.1689625,-0.02579905,0.023379527,-0.056885526,47.263157,156.9064,0.0047884034,1442850,43,-1246,-3663,4427
89225681,3995,0,0.2849611,0.7521171,-9.476977,0.010112751,0.00048602954,-0.013523847,47.318558,156.9064,0.0047884034,1442850,1093,-157,-2436,4447
89325689,4015,0,-0.4184428,0.16993938,-8.825156,0.0052410946,0.0010116347,-0.050696813,47.318558,156.9064,0.0047884034,1442850,-516,-15,-5636,4447
89425723,4048,0,0.4482153,0.1814808,-11.131413,0.014704907,-0.01124787,-0.015268933,47.34626,156.9064,0.0047884034,1442850,621,44,1733,4457
89529675,3987,0,-0.32289225,-0.69510734,-9.819218,-0.005236727,-0.0015990776,-0.054293256,47.36011,156.9064,0.0047884034,1442850,1636,192,-3868,4462
89630480,4000,0,-0.87880296,0.40322453,-9.819555,-0.004053361,-0.0004088455,-0.04721318,47.3518,156.9064,0.0047884034,1442850,-58,-461,-2090,4459
89730480,4006,0,-0.14482094,0.48893857,-9.357641,-0.01321567,0.013986902,-0.015759584,47.33241,156.9064,0.0047884034,1442850,-127,-1891,117,4452
91052874,4000,0,0.2622392,-1.0502679,-10.869217,0.0033055153,-0.0099717425,-0.011982762,47.42105,156.9064,0.0047884034,1442850,1815,571,-993,4484
91156929,4037,0,-0.38957116,0.64017016,-9.07361,-0.012797943,0.004459675,-0.046076413,47.42105,156.9064,0.0047884034,1442850,-79,-194,-2906,4484
91257682,3948,0,-0.4567799,1.2276566,-8.623235,0.015997007,0.008759862,-0.05261727,47.37119,156.9064,0.0047884034,1442850,-299,-244,-4615,4466
91357685,3997,0,0.30012026,0.37889326,-10.129682,0.0019411608,-0.012238721,-0.009813629,47.426594,156.9064,0.0047884034,1442850,983,1370,-2124,4486
91461699,4017,0,-0.94882345,-1.1374495,-10.283939,-0.0021757493,0.0029301262,-0.06016855,47.434902,156.9064,0.0047884034,1442850,-564,524,-3035,4489
91561688,4006,0,0.48672807,-1.0973121,-9.328811,-0.01790344,0.0036360524,-0.042227827,47.415512,156.9064,0.0047884034,1442850,1871,-476,-3789,4482
91665684,3996,0,-0.7189099,0.9756727,-9.526901,0.017131638,0.0108627,-0.049608927,47.426594,156.9064,0.0047884034,1442850,-1014,1043,-2365,4486
91766451,4001,0,-0.47536635,0.42891696,-10.560895,0.010898683,-0.011398338,-0.030814277,47.429363,156.9064,0.0047884034,1442850,-938,117,347,4487
91866452,4002,0,-0.42412296,0.17589873,-9.129433,-0.014820481,-0.004571532,-0.035836346,47.490303,156.9064,0.0047884034,1442850,-494,736,-2302,4509
91966495,4044,0,-0.5260204,-0.15977359,-10.338523,-0.0032591647,-0.0068408875,-0.075206645,47.462605,156.9064,0.0047884034,1442850,-1547,1077,-1269,4499
92070450,3956,0,-1.1572875,-1.1445073,-9.9288845,0.0067811375,-0.0012300629,-0.030888066,47.432133,156.9064,0.0047884034,1442850,-1342,-901,-1396,4488
92171282,4000,0,-1.4016626,0.6049467,-10.060053,0.03219298,-0.0016771383,-0.015416248,47.40443,156.9064,0.0047884034,1442850,-1859,865,-2408,4478
92271329,4047,0,0.24437504,1.4000292,-10.188031,-0.0090948865,0.015533652,-0.07454697,47.459835,156.9064,0.0047884034,1442850,452,-741,390,4498
92375299,4017,0,-1.0361676,1.1698204,-9.826318,0.030613044,0.005334612,-0.0574596,47.45706,156.9064,0.0047884034,1442850,-2632,545,-3545,4497
92475282,3968,0,-0.6138905,-0.105493516,-9.836544,0.022815045,-0.00013112708,-0.048873287,47.44044,156.9064,0.0047884034,1442850,-1816,383,-2261,4491
92576075,3966,0,-0.40472174,-1.3600374,-10.358454,0.0009569719,-0.006810829,-0.035315197,47.462605,156.9064,0.0047884034,1442850,803,191,-2113,4499
92680119,4045,0,-0.04486315,-0.18317753,-9.863312,-0.0032182743,0.0005470733,-0.038001586,47.45706,156.9064,0.0047884034,1442850,1187,-1023,-1872,4497
92780074,4000,0,-0.23108509,1.2586992,-9.462554,0.019841183,0.0083167795,-0.06862879,47.451523,156.9064,0.0047884034,1442850,9,-236,-3353,4495
92880074,3966,0,-0.7947223,1.2403141,-8.664497,0.007260776,0.0052377703,-0.046616558,47.512466,156.9064,0.0047884034,1442850,-1576,397,-3557,4517
92984851,4001,0,-0.24102731,-0.14513667,-10.055737,0.038796376,-0.003628304,-0.05034028,47.484764,156.9064,0.0047884034,1442850,-2192,470,-3269,4507
93088880,4000,0,-0.32869554,-1.2702614,-10.024001,0.012348197,0.004321107,-0.028412323,47.487534,156.9064,0.0047884034,1442850,513,-229,-3700,4508
93188874,3966,0,-1.8930616,0.08149197,-9.943724,0.0046292627,-0.00033432804,-0.04820303,47.512466,156.9064,0.0047884034,1442850,-2316,-526,-182,4517
93292893,4019,0,-0.03759999,1.1778975,-9.830666,0.016944986,0.0045886976,-0.0357933,47.498615,156.9064,0.0047884034,1442850,-212,65,-610,4512
93392880,4006,0,0.11765665,0.7741397,-9.654604,0.0136032365,1.1834025e-05,-0.05243905,47.487534,156.9064,0.0047884034,1442850,-1427,216,219,4508
93493675,4001,0,-0.8908992,-0.6424682,-9.840155,0.01056318,-0.008203665,-0.07062723,47.490303,156.9064,0.0047884034,1442850,-2148,-407,-3232,4509
93597677,4003,0,-0.38417214,-1.4390882,-10.596126,0.017165832,0.003726993,-0.059198342,47.487534,156.9064,0.0047884034,1442850,290,237,-3341,4508
93697674,4000,0,-0.7519504,-0.47324333,-9.680702,0.021973431,0.010445287,-0.045531183,47.548477,156.9064,0.0047884034,1442850,-852,58,-3432,4530
