timestamp,integral_dt,error_count,x,y,z,x_integral,y_integral,z_integral,temperature,range_m_s2,scaling,device_id,x_raw,y_raw,z_raw,temperature_raw
39903021,3994,0,0.06726404,-0.4835851,-9.921746,-9.4478804e-05,0.0007858187,-0.041830473,57.573406,156.9064,0.0047884034,1442850,-21,-156,-2014,8149
40003820,3999,0,-0.25556552,-0.007350469,-9.895886,-0.0030840256,0.0047414093,-0.03499722,57.556786,156.9064,0.0047884034,1442850,171,-232,-1763,8143
40107821,3967,0,-0.22571209,0.6120572,-9.770702,-1.1619792e-05,0.0020307759,-0.036263213,57.540165,156.9064,0.0047884034,1442850,35,-170,-1952,8137
40207868,4048,0,-0.091170356,0.6178929,-10.215415,4.23335e-05,0.003191647,-0.04649947,57.556786,156.9064,0.0047884034,1442850,-29,24,-2282,8143
40311821,3981,0,0.08295857,0.70475,-10.421558,-3.6201673e-05,0.010194372,-0.0379553,57.545704,156.9064,0.0047884034,1442850,311,-381,-1802,8139
40411820,4000,0,-0.059684042,-0.45538566,-10.403479,0.0007368317,0.0127967205,-0.044160858,57.542934,156.9064,0.0047884034,1442850,25,-544,-1755,8138
40511821,4001,0,0.3109728,-0.8188112,-10.2511015,0.0024040532,0.011664309,-0.040603213,57.537395,156.9064,0.0047884034,1442850,178,-772,-1758,8136
40615820,3993,0,0.47472268,1.1850305,-9.714604,0.001601784,0.007341572,-0.04182062,57.540165,156.9064,0.0047884034,1442850,372,-232,-2367,8137
40715820,3983,0,0.0034103459,0.9948706,-9.816633,-0.015373595,-0.0054240236,-0.035258524,57.573406,156.9064,0.0047884034,1442850,617,403,-1670,8149
40815821,4000,0,-0.76011425,-0.5836049,-9.987939,0.0006013772,-0.008788298,-0.03908159,57.545704,156.9064,0.0047884034,1442850,-198,63,-1916,8139
40919827,4006,0,-0.29155597,0.0035243428,-9.526834,-0.0009770582,0.016147498,-0.040449478,57.567867,156.9064,0.0047884034,1442850,-206,-788,-2452,8147
41019820,3999,0,0.7324046,2.072791,-9.587741,0.0037620466,0.007615394,-0.0370987,57.551247,156.9064,0.0047884034,1442850,324,-248,-2434,8141
41123820,3995,0,-0.8946508,-1.4351861,-10.017359,-0.005053924,-0.012949023,-0.03821673,57.578945,156.9064,0.0047884034,1442850,51,24,-1660,8151
41227827,4007,0,1.1600318,1.7296232,-9.829833,-0.0012751597,0.0022672368,-0.0344886,57.606647,156.9064,0.0047884034,1442850,308,-141,-1976,8161
41327820,3969,0,-1.3840163,-0.045238033,-9.945446,0.0028902153,-0.0029806204,-0.0422946,57.570637,156.9064,0.0047884034,1442850,-552,277,-2525,8148
41428621,3994,0,0.4911057,1.7714062,-9.875483,0.0021629743,0.0024015268,-0.033000935,57.562325,156.9064,0.0047884034,1442850,297,43,-1848,8145
41532670,4050,0,-0.036283348,0.5651637,-9.81357,0.015900478,0.011076728,-0.04001099,57.548477,156.9064,0.0047884034,1442850,-854,-293,-2391,8140
41632661,4041,0,-1.9961772,-1.7846395,-9.963397,-0.00043577934,0.005358179,-0.029730963,57.590027,156.9064,0.0047884034,1442850,-314,-887,-1553,8155
41732626,4006,0,-0.744932,1.3021454,-10.361628,0.017002208,0.01031699,-0.038437065,57.58172,156.9064,0.0047884034,1442850,-1338,101,-965,8152
41836625,4005,0,-1.1951743,-1.0748012,-9.428805,0.004621392,-0.017688993,-0.036763307,57.556786,156.9064,0.0047884034,1442850,-498,246,-2737,8143
41936645,4024,0,-0.73573524,0.9850149,-10.091903,-0.024153085,-0.0104023665,-0.05840241,57.565098,156.9064,0.0047884034,1442850,696,1435,-1980,8146
42040667,4047,0,-0.94187385,-0.850574,-10.180235,0.005416314,-0.005642833,-0.039359454,57.556786,156.9064,0.0047884034,1442850,-721,-488,-1875,8143
42140668,4013,0,-0.07665955,-1.2426083,-9.535009,0.030431394,0.0051704003,-0.04579675,57.570637,156.9064,0.0047884034,1442850,-1274,-591,-3049,8148
42240713,4093,0,1.1636032,0.91979635,-10.092185,0.0041975463,-0.0033991998,-0.02853024,57.58172,156.9064,0.0047884034,1442850,769,135,-725,8152
42344621,3943,0,-0.09897192,-0.5358129,-8.539448,0.0030802889,0.009596946,-0.056528583,57.60111,156.9064,0.0047884034,1442850,-675,-633,-3303,8159
42444620,3952,0,-3.6054828,-0.3625414,-8.973154,0.020850722,-0.0037736264,-0.030966934,57.565098,156.9064,0.0047884034,1442850,-3372,-577,-1716,8146
42544626,3958,0,-1.5280652,-0.25024328,-9.126044,0.02070786,-0.002165393,-0.04303806,57.562325,156.9064,0.0047884034,1442850,-1455,-1206,-3152,8145
42648665,4045,0,1.944051,-0.23313375,-9.007108,0.029100185,-0.008216722,-0.04189451,57.567867,156.9064,0.0047884034,1442850,1856,-150,-2903,8147
42748620,3971,0,-2.0986023,0.06963858,-8.758967,0.015663067,-0.0008151168,-0.048828892,57.59834,156.9064,0.0047884034,1442850,-2582,-695,-3148,8158
42852627,4006,0,-2.340401,-0.08464519,-8.899765,-0.017395053,0.0022753505,-0.036114655,57.61773,156.9064,0.0047884034,1442850,-1863,-217,-2520,8165
42953421,4000,0,-2.2013023,-0.043133516,-8.947155,-0.0010930807,0.0026692552,-0.033311803,57.590027,156.9064,0.0047884034,1442850,-2094,-370,-3311,8155
43053424,4003,0,-1.7857846,0.84541565,-10.103572,-0.02247675,0.011670105,-0.051377576,57.576176,156.9064,0.0047884034,1442850,-868,25,-2768,8150
43157421,4001,0,1.1284474,-0.40531448,-9.964407,-0.036736768,9.057578e-06,-0.026757445,57.59834,156.9064,0.0047884034,1442850,2320,-479,-514,8158
43261421,4000,0,-1.5388914,-0.27370325,-8.435607,0.031171411,0.0071544456,-0.043661654,57.578945,156.9064,0.0047884034,1442850,-3223,-667,-2481,8151
43361420,3993,0,1.0082418,0.43156952,-9.223928,0.0317294,-0.00933928,-0.0450949,57.570637,156.9064,0.0047884034,1442850,292,927,-2570,8148
44378227,3967,0,1.1851234,0.8582571,-10.617046,-0.0024367985,-0.0035626863,-0.026810672,57.626038,156.9064,0.0047884034,1442850,1766,-457,1165,8168
44478228,4007,0,1.4465084,-0.09795319,-11.4825325,0.0014534849,-0.01013834,-0.04690038,57.606647,156.9064,0.0047884034,1442850,2513,1350,-174,8161
44578226,3985,0,0.2220073,-0.75368524,-10.797666,0.0010772427,-0.014315808,-0.02479955,57.60111,156.9064,0.0047884034,1442850,1265,371,-1970,8159
44682226,4006,0,0.6044293,-0.20400603,-8.613007,-0.0034255097,-0.0006035436,-0.02692003,57.63712,156.9064,0.0047884034,1442850,1603,-755,-5954,8172
44782220,4000,0,0.6551088,0.97125936,-9.518142,0.029651135,-0.0090227295,-0.029798072,57.61773,156.9064,0.0047884034,1442850,-1081,586,-2419,8165
44886220,4000,0,0.07261488,-0.932105,-9.535615,-0.034800798,0.0043321103,-0.040190324,57.61496,156.9064,0.0047884034,1442850,2245,-286,-3661,8164
44990220,4000,0,-0.9743952,0.30453074,-9.329883,0.0035143183,0.026314862,-0.07826547,57.590027,156.9064,0.0047884034,1442850,-1441,-645,-3472,8155
45090220,3981,0,-0.5111892,0.92204905,-8.42167,-0.001556443,0.0149202,-0.070969746,57.587257,156.9064,0.0047884034,1442850,-1290,-769,-4959,8154
45194242,4022,0,0.39177555,0.66772395,-11.368411,0.023112787,-0.010170316,-0.033653527,57.606647,156.9064,0.0047884034,1442850,-322,624,1422,8161
45294246,4020,0,0.13853092,-0.97380865,-10.86313,0.038276598,-0.0064835357,-0.042775366,57.606647,156.9064,0.0047884034,1442850,-964,814,-222,8161
45394220,3993,0,-2.1988385,-0.030496698,-10.281711,0.027569603,0.014053602,-0.054412127,57.584488,156.9064,0.0047884034,1442850,-3110,-21,-1908,8153
45498220,4000,0,0.5931742,1.763226,-10.528725,-0.013388933,-0.0034564324,-0.0073914197,57.63989,156.9064,0.0047884034,1442850,2660,-548,-323,8173
45598227,4007,0,-0.20817655,0.9641698,-9.839754,-0.02691092,-0.0009229408,-0.008300881,57.60111,156.9064,0.0047884034,1442850,1397,-291,-1554,8159
45698304,4084,0,0.46625838,-0.5589045,-9.832876,-0.016426027,-0.011667496,-0.05202503,57.6205,156.9064,0.0047884034,1442850,1183,82,-3180,8166
45803021,3960,0,-1.1860782,-0.6448849,-9.079461,-0.0074290135,0.009964652,-0.07542314,57.63712,156.9064,0.0047884034,1442850,-1455,-123,-5087,8172
45903056,4035,0,-0.6555754,1.2652055,-10.112301,0.011212193,0.0032773458,-0.038113613,57.628807,156.9064,0.0047884034,1442850,351,-218,-2812,8169
46003021,4000,0,0.84917796,1.6095988,-9.386599,0.017041426,0.0029691444,-0.06570971,57.6205,156.9064,0.0047884034,1442850,556,188,-3843,8166
46107020,3994,0,0.14794852,-0.77450657,-10.163944,0.036478918,-0.0071835835,-0.053433534,57.61496,156.9064,0.0047884034,1442850,-960,405,-2915,8164
46207020,3964,0,-0.8111915,-1.7825176,-9.276599,-0.03416376,0.007813849,-0.039348163,57.648197,156.9064,0.0047884034,1442850,508,-902,-4094,8176
46307020,3978,0,-0.6609707,-0.09014298,-10.365561,0.024883546,0.0030898745,-0.044676393,57.63435,156.9064,0.0047884034,1442850,-20,265,-2124,8171
46411066,4006,0,-0.0038711184,1.2022767,-11.274269,-0.02419651,-0.00457896,-0.039719187,57.648197,156.9064,0.0047884034,1442850,1163,108,664,8176
46511036,4016,0,-0.87118626,1.0451317,-11.389651,0.033066098,-0.0055701644,-0.051584877,57.63989,156.9064,0.0047884034,1442850,-2150,1694,-1114,8173
46615021,4001,0,0.769643,-1.5869198,-9.799647,-0.023313327,-0.009665196,-0.049278345,57.603878,156.9064,0.0047884034,1442850,2340,-363,-3279,8160
46715021,4000,0,-1.1602854,-0.36040056,-9.100297,-0.0042705694,0.01166953,-0.05200186,57.63435,156.9064,0.0047884034,1442850,-1488,-872,-3745,8171
46815044,4010,0,-0.03135637,1.1013355,-9.661838,-0.0046028737,0.012914895,-0.022653092,57.626038,156.9064,0.0047884034,1442850,891,-580,-2457,8168
46919039,4019,0,1.2193815,0.7433091,-10.519415,-0.014950997,-0.01657946,-0.04550224,57.63435,156.9064,0.0047884034,1442850,1803,-29,-1888,8171
47019021,3994,0,-0.21809462,-0.21050511,-11.122542,-0.0011435726,-0.011982415,-0.06335999,57.63712,156.9064,0.0047884034,1442850,-59,1182,-1308,8172
47123021,4001,0,-0.18433376,-0.935848,-8.5022135,-0.032310195,0.004033439,-0.033475526,57.62327,156.9064,0.0047884034,1442850,1607,-311,-4741,8167
47223026,3961,0,-0.85128504,0.74639016,-9.643889,0.008992564,0.004528991,-0.05258762,57.60111,156.9064,0.0047884034,1442850,-1437,-395,-2513,8159
47323027,4005,0,0.66876584,1.1870053,-9.729492,-0.024651557,-0.0025992505,-0.035768524,57.603878,156.9064,0.0047884034,1442850,1851,110,-1650,8160
47423821,4000,0,-0.36103573,0.67352366,-9.363644,0.0045359368,0.0072051114,-0.046039913,57.612186,156.9064,0.0047884034,1442850,-991,89,-4754,8163
47527821,4001,0,0.9818334,-1.0937507,-10.129613,-0.011336504,-0.01095235,0.011800999,57.60111,156.9064,0.0047884034,1442850,2499,-70,-585,8159
47627820,3999,0,-0.78661144,-0.44173807,-9.1536,-0.035395727,0.01806911,-0.03878992,57.60111,156.9064,0.0047884034,1442850,920,-1131,-3761,8159
47731821,4001,0,-0.25608453,2.0947993,-9.942153,0.04183398,-0.0062177144,-0.030240262,57.603878,156.9064,0.0047884034,1442850,-1264,678,-1184,8160
47831870,4043,0,0.91847813,1.0972548,-10.214697,0.024185395,-0.010400448,-0.052405566,57.567867,156.9064,0.0047884034,1442850,491,651,-2060,8147
47931820,3993,0,1.8145403,-0.2439021,-11.564734,0.008520659,-0.018550225,-0.017474094,57.61773,156.9064,0.0047884034,1442850,1497,1285,585,8165
48035827,4007,0,-0.27732283,-0.69185406,-9.444368,-0.04227168,0.015529934,-0.047768027,57.554016,156.9064,0.0047884034,1442850,1648,-929,-2261,8142
48135827,4007,0,0.58485293,0.9793857,-9.565276,0.0005495902,0.0070121842,-0.046942376,57.584488,156.9064,0.0047884034,1442850,2046,-137,-2161,8153
48235821,4001,0,-0.9906668,2.2654054,-9.373448,0.024733657,0.004294539,-0.05172323,57.578945,156.9064,0.0047884034,1442850,-2467,-47,-1340,8151
48339820,3922,0,-0.11511888,-0.2808019,-9.224779,0.03154156,-0.0060091633,-0.038609553,57.556786,156.9064,0.0047884034,1442850,-2132,-134,-2427,8143
48439856,4036,0,-0.9157566,-1.6683766,-9.247559,-0.033830933,0.0029040114,-0.05399122,57.570637,156.9064,0.0047884034,1442850,-71,-683,-2975,8148
48543820,4000,0,-1.1845894,0.4649814,-9.3963785,-0.027901065,0.006317727,-0.011624081,57.548477,156.9064,0.0047884034,1442850,113,-7,-850,8140
48643820,3999,0,0.5355673,1.7005308,-9.76828,0.012906442,-0.010408257,-0.015013287,57.554016,156.9064,0.0047884034,1442850,1124,955,-561,8142
48743830,3993,0,-1.0660712,1.5709567,-9.298903,0.004527985,0.0034396686,-0.028484732,57.562325,156.9064,0.0047884034,1442850,-1657,345,-2602,8145
48844621,3911,0,-0.6166275,-1.0604914,-8.918284,-0.035650127,-0.009410937,-0.030721784,57.556786,156.9064,0.0047884034,1442850,71,-713,-2856,8143
48948647,4026,0,-1.5040056,-0.99451137,-9.247971,-0.016991273,0.014247367,-0.09273439,57.548477,156.9064,0.0047884034,1442850,-1628,-1182,-2625,8140
49048621,3966,0,-0.95067656,0.43124777,-8.652674,-0.033101562,0.014238389,-0.047159493,57.565098,156.9064,0.0047884034,1442850,1148,-1455,-2533,8146
49152620,3999,0,-0.95732987,1.7193406,-9.684883,-0.005502751,0.010097296,-0.02634897,57.542934,156.9064,0.0047884034,1442850,-2016,307,-1188,8138
49252620,4000,0,-0.021621047,-0.30026248,-9.838063,-0.019421373,0.00704132,-0.047073346,57.540165,156.9064,0.0047884034,1442850,-391,-827,-751,8137
49352639,4019,0,0.59758663,-1.2592361,-9.612948,-0.044270903,0.0017940819,-0.059241083,57.548477,156.9064,0.0047884034,1442850,2202,-557,-2811,8140
49456620,3999,0,-1.0049868,0.7425228,-9.379983,0.010239331,0.018829856,-0.04675954,57.573406,156.9064,0.0047884034,1442850,-1941,174,-2285,8149
49556620,3994,0,-0.8507298,1.3693897,-8.878315,-0.015141324,0.021012364,-0.07417319,57.562325,156.9064,0.0047884034,1442850,-1381,-1319,-2789,8145
49656620,3993,0,-1.7248964,0.66875094,-8.483875,-0.010904927,0.013608666,-0.056835905,57.548477,156.9064,0.0047884034,1442850,-1610,-809,-4119,8140
49760673,4036,0,-0.6296017,-0.8137253,-10.023959,0.021971095,-0.00019545294,-0.07859367,57.559555,156.9064,0.0047884034,1442850,-1214,316,-4018,8144
49860673,4053,0,0.036927834,-0.63497704,-9.503121,-0.027632192,0.014179429,-0.066443175,57.537395,156.9064,0.0047884034,1442850,1280,-1290,-1532,8136
49964665,3988,0,-1.4443679,1.6224805,-8.608942,-0.0046523586,0.016048111,-0.054893613,57.565098,156.9064,0.0047884034,1442850,-1870,-612,-3347,8146
50064620,3953,0,-1.4685682,0.70956796,-8.362739,0.0043707388,0.015785541,-0.043079663,57.567867,156.9064,0.0047884034,1442850,-2414,-756,-3518,8147
50164620,3953,0,-0.8287765,-0.499296,-9.607222,0.009798292,-0.0041326983,-0.044713587,57.554016,156.9064,0.0047884034,1442850,-1471,459,-2477,8142
50269421,4801,0,0.3753177,-0.73600155,-9.701976,0.010024669,-0.008414803,0.004328195,57.529087,156.9064,0.0047884034,1442850,554,-222,1279,8133
50369421,3992,0,0.6199727,0.69746614,-9.81085,-0.008031302,0.005450516,0.0011476995,57.540165,156.9064,0.0047884034,1442850,1581,-280,1051,8137
50469492,4071,0,0.65637445,1.3842746,-8.554978,-0.009351404,0.0067701424,-0.012166755,57.531857,156.9064,0.0047884034,1442850,1578,-206,-2931,8134
50573462,4028,0,-0.47197643,-1.0762875,-8.449937,-0.021234471,-0.0026594396,-0.07594599,57.545704,156.9064,0.0047884034,1442850,-490,-683,-4198,8139
50673427,4007,0,-0.25836915,-1.4635103,-9.18518,-0.0067640916,0.0062998068,-0.082163066,57.548477,156.9064,0.0047884034,1442850,-718,-884,-2704,8140
50773421,4001,0,-1.6675427,0.4654207,-9.254695,-0.00096775405,0.006184702,-0.037436955,57.526314,156.9064,0.0047884034,1442850,-2215,-1508,207,8132
50877464,4018,0,-1.6458399,1.6211005,-9.015575,0.010181083,0.0022875695,-0.056759596,57.531857,156.9064,0.0047884034,1442850,-1592,778,-2705,8134
50977420,3962,0,-0.9048577,0.26060674,-8.877983,-0.01498575,-0.0048890905,-0.05034259,57.562325,156.9064,0.0047884034,1442850,-578,-283,-3726,8145
51081444,4000,0,1.3190271,-1.5468986,-8.913933,0.007659993,-0.0077847815,-0.02597887,57.576176,156.9064,0.0047884034,1442850,1428,-304,-1918,8150
51185420,3999,0,-1.5797528,0.3763066,-8.538811,-0.023470053,0.024497945,-0.03825369,57.551247,156.9064,0.0047884034,1442850,-1087,-1943,-2276,8141
51285420,4000,0,-1.1426545,2.0407426,-9.957779,0.0176666,0.007912327,-0.04337797,57.567867,156.9064,0.0047884034,1442850,-1433,10,-764,8147
51389421,4001,0,0.12056806,-0.021983331,-10.679005,-0.0102915,-0.015583241,-0.013947006,57.556786,156.9064,0.0047884034,1442850,421,578,-850,8143
51490221,4000,0,-0.18448402,-1.2568877,-9.863668,-0.013457116,-0.0047203247,-0.026003856,57.529087,156.9064,0.0047884034,1442850,165,326,-2769,8133
51590221,3987,0,0.11655263,-0.69076705,-10.549894,0.034208085,0.0020251935,-0.0408736,57.567867,156.9064,0.0047884034,1442850,-922,-590,-2109,8147
51690221,4000,0,-1.4669821,2.58208,-10.730852,-0.035202082,0.0143082095,-0.056069657,57.562325,156.9064,0.0047884034,1442850,2429,-751,-2318,8145
51794221,4001,0,0.030466251,2.396324,-10.967258,-0.030866615,-0.0070227953,-0.035025075,57.548477,156.9064,0.0047884034,1442850,1487,733,-1334,8140
51894221,4000,0,0.6642276,0.4767619,-12.643359,-0.001860268,-0.013672866,-0.08301768,57.567867,156.9064,0.0047884034,1442850,1048,1365,33,8147
51998255,4034,0,0.4880731,-2.309647,-12.094054,0.02318902,-0.02058063,-0.041695703,57.59834,156.9064,0.0047884034,1442850,933,220,-1824,8158
52098226,4006,0,-0.33522114,-0.46842402,-12.50266,0.007705342,-0.0023457846,-0.037798002,57.60111,156.9064,0.0047884034,1442850,-55,453,717,8159
52198220,4000,0,1.7280627,-0.5334257,-9.8061,0.0133948345,-0.0052318834,-0.043905966,57.587257,156.9064,0.0047884034,1442850,1454,-1240,-3348,8154
52302220,3993,0,-0.015481166,1.0587622,-9.799767,0.035686933,0.00012622494,-0.0869163,57.603878,156.9064,0.0047884034,1442850,-1781,830,-3927,8160
52402220,3993,0,-0.5971284,1.6873744,-11.325507,0.01782838,0.0037927716,-0.09653067,57.58172,156.9064,0.0047884034,1442850,-1588,477,-4510,8152
52502254,4034,0,-0.5306641,0.034060534,-10.543896,-0.021869898,-0.003077145,-0.030231044,57.609417,156.9064,0.0047884034,1442850,744,-771,-1859,8162
52606234,4014,0,1.0634643,0.64599866,-9.97879,0.0036714943,0.0021085148,-0.024972776,57.592796,156.9064,0.0047884034,1442850,2191,-80,-468,8156
52706220,4000,0,-0.020706903,0.9542462,-9.973441,-0.0016343356,0.000598009,-0.027854236,57.595566,156.9064,0.0047884034,1442850,927,-131,-1692,8157
52810220,4000,0,0.48060527,-0.79084265,-9.547642,-0.032705303,-0.01796473,-0.016676724,57.59834,156.9064,0.0047884034,1442850,1753,35,-1458,8158
52914220,4000,0,-1.6086906,-0.74276555,-8.976045,-0.014551356,0.0048725028,-0.032976888,57.60111,156.9064,0.0047884034,1442850,-1597,-1115,-2920,8159
53014224,4004,0,-0.9730075,1.0361794,-8.56964,-0.023224188,0.007914724,-0.03004091,57.58172,156.9064,0.0047884034,1442850,-733,-1134,-1102,8152
53118220,3959,0,-0.34597772,1.6631327,-10.337756,0.032866117,-0.003875216,-0.07401446,57.603878,156.9064,0.0047884034,1442850,-1229,861,-3024,8160
53218220,4000,0,-0.18138966,0.6189187,-10.940825,0.0422441,-0.0015416932,-0.033183374,57.628807,156.9064,0.0047884034,1442850,-1309,1251,-1161,8169
53318220,4000,0,-1.2872658,-1.7755955,-10.687198,0.00052696746,0.01297193,-0.07442683,57.592796,156.9064,0.0047884034,1442850,-2240,-783,-233,8156
53419021,4000,0,0.25221506,-0.7863318,-8.342769,-0.03984403,-0.0032124892,-0.02025615,57.603878,156.9064,0.0047884034,1442850,2028,-873,-4161,8160
53523040,4019,0,0.11986786,0.9476274,-7.1499567,-0.021991687,-0.0055921865,-0.012514072,57.595566,156.9064,0.0047884034,1442850,1282,45,-6023,8157
53623020,3979,0,0.584825,1.1844867,-9.464395,-0.017120268,-0.00949242,-0.0070722876,57.60111,156.9064,0.0047884034,1442850,429,453,520,8159
53727020,3993,0,-0.78803444,-0.9835466,-9.757141,0.014965067,0.00068865105,-0.055483233,57.609417,156.9064,0.0047884034,1442850,-1567,255,-2270,8162
53827056,4035,0,-1.8026466,-0.20438468,-9.815264,0.009636354,0.013252614,-0.056908764,57.63435,156.9064,0.0047884034,1442850,-2232,-383,-2842,8171
53927020,3999,0,-1.1635904,1.6286323,-9.741214,0.031593345,0.022796713,-0.05456756,57.65928,156.9064,0.0047884034,1442850,-2493,-488,-2331,8180
54031058,4038,0,1.1186281,1.860042,-9.758837,-0.002457846,-0.014265679,-0.005626398,57.65374,156.9064,0.0047884034,1442850,1540,632,365,8178
54131020,4000,0,1.8424121,0.23692003,-9.873854,-0.0033085877,-0.020895347,-0.017998178,57.645428,156.9064,0.0047884034,1442850,2369,1291,-519,8175
54235021,3945,0,0.13303506,-1.5490605,-9.054376,-0.017762084,0.0048853285,-0.025816802,57.63435,156.9064,0.0047884034,1442850,1103,-1094,-3330,8171
54339035,4015,0,-0.3975196,1.4524192,-9.163507,0.021822246,0.0111075435,-0.032893974,57.66205,156.9064,0.0047884034,1442850,-1152,-1065,-3199,8181
54439026,4006,0,0.48864287,1.6658561,-8.235395,0.027694032,0.0006378704,-0.04818345,57.65097,156.9064,0.0047884034,1442850,-98,417,-3571,8177
54539027,3972,0,0.1127535,1.032596,-9.9894905,0.04138283,-0.008662831,-0.06825778,57.63712,156.9064,0.0047884034,1442850,-1367,1081,-4426,8172
54643045,3989,0,1.0624051,-1.249692,-11.31933,-0.009574605,-0.00536192,-0.011394648,57.631577,156.9064,0.0047884034,1442850,2022,314,1196,8170
54743033,4011,0,0.8817402,-0.2795353,-9.791407,0.0034093987,0.004358899,-0.003595748,57.65097,156.9064,0.0047884034,1442850,2026,-195,-1004,8177
54847020,4000,0,-0.17905766,1.360449,-8.565368,-0.016151607,-0.00036447565,-0.029284406,57.6759,156.9064,0.0047884034,1442850,530,-773,-3134,8186
54947821,4000,0,-0.81546116,0.6051395,-8.326119,-0.03838482,-0.0098787,-0.020686787,57.66205,156.9064,0.0047884034,1442850,328,-329,-4691,8181
55047821,3994,0,0.5962225,-0.44957784,-8.54588,-0.025198523,-0.0067452984,-0.036455274,57.66205,156.9064,0.0047884034,1442850,1875,54,-5644,8181
55151820,3999,0,-1.3361535,-0.9591137,-10.366868,0.025006805,0.004124747,-0.034924824,57.65928,156.9064,0.0047884034,1442850,-2322,-492,-1540,8180
55759821,4001,0,0.1158557,1.696883,-9.603435,0.035240054,0.008521092,-0.02969423,57.65928,156.9064,0.0047884034,1442850,-755,455,-1222,8180
55859853,4033,0,-0.1840793,2.2268662,-10.724324,0.029973812,0.0034388285,-0.02411233,57.63989,156.9064,0.0047884034,1442850,-554,867,1029,8173
55963820,4000,0,-0.5703322,0.10246301,-9.730334,-0.029037971,-0.013132434,-0.036036156,57.648197,156.9064,0.0047884034,1442850,69,-153,-1268,8176
56067820,3965,0,-0.30556852,-1.4571837,-10.2265005,0.020436427,0.002754133,-0.07194832,57.63989,156.9064,0.0047884034,1442850,-1491,-759,-2591,8173
56167860,4033,0,0.013936484,-0.64258635,-9.500123,0.019342456,0.011742467,-0.049935088,57.67313,156.9064,0.0047884034,1442850,174,-480,-1720,8185
56271821,4001,0,-1.372423,1.5492821,-9.34139,-0.031755652,0.014969025,-0.056648068,57.65097,156.9064,0.0047884034,1442850,-475,-790,-1952,8177
56372621,4000,0,-1.0260732,1.475918,-9.514004,0.0006676223,0.0023611956,-0.0733355,57.65097,156.9064,0.0047884034,1442850,-1507,148,-4875,8177
56472627,4007,0,-0.4400615,-0.0138740735,-10.24255,0.047172356,-0.004709714,-0.0607407,57.65097,156.9064,0.0047884034,1442850,-1378,255,-2920,8177
56572668,4047,0,1.332895,-1.122361,-9.990723,-0.0016355868,-0.0135964975,-0.02962317,57.648197,156.9064,0.0047884034,1442850,2088,775,-2132,8176
56676627,4006,0,-1.4252065,0.042168327,-8.448493,0.0013085501,0.01541392,-0.03374877,57.66759,156.9064,0.0047884034,1442850,-2242,-989,-3524,8183
56776620,3964,0,-0.38857743,1.7014811,-9.424864,0.025013357,0.008457426,-0.04231552,57.64266,156.9064,0.0047884034,1442850,-2154,-850,-2329,8174
56880667,4046,0,0.6446112,0.3833509,-9.280514,-0.030128539,-0.016466644,-0.041212115,57.645428,156.9064,0.0047884034,1442850,1956,158,-3390,8175
56980667,4020,0,-0.62244797,-0.44237438,-9.463314,-0.012164647,-0.009681495,-0.03556837,57.648197,156.9064,0.0047884034,1442850,-952,764,-4389,8176
57080667,4040,0,-0.07288442,-1.3872114,-9.081209,0.032179058,-0.009403053,-0.064343825,57.65928,156.9064,0.0047884034,1442850,-1370,-154,-5054,8180
57184626,3960,0,0.3251004,0.036266517,-9.109872,-0.018619578,-0.004733494,-0.013764134,57.6205,156.9064,0.0047884034,1442850,2473,242,-1645,8166
57284626,3959,0,0.9665749,1.6706101,-10.3180895,-0.010020638,-0.0024754526,0.00083767157,57.67313,156.9064,0.0047884034,1442850,2534,823,333,8185
57384620,3944,0,0.5143798,0.69497734,-9.39874,-0.035185326,-0.0015801787,-0.05640793,57.67036,156.9064,0.0047884034,1442850,2146,-11,-3638,8184
57488649,4029,0,-0.2226524,-0.96687293,-9.771521,0.021038115,0.007291996,-0.0629815,57.65928,156.9064,0.0047884034,1442850,-1755,-1043,-2147,8180
57588620,4000,0,-0.49219072,-0.77412856,-9.485432,0.01606127,0.008378427,-0.06977522,57.68144,156.9064,0.0047884034,1442850,-868,-1231,-2727,8188
57692620,4000,0,-0.8080813,1.3443692,-9.172681,-0.025921576,0.019954987,-0.049668908,57.67036,156.9064,0.0047884034,1442850,-295,-177,-3056,8184
57793421,3994,0,-0.9004398,1.6181287,-10.176355,0.031957217,0.00091469125,-0.06922969,57.65097,156.9064,0.0047884034,1442850,-2095,674,-3286,8177
57893421,4000,0,0.48677936,0.040603254,-9.844823,0.03482661,-0.016080737,-0.048276998,57.65374,156.9064,0.0047884034,1442850,-935,623,-1303,8178
57997427,4006,0,-1.1578249,-1.2672898,-9.428375,-0.031077703,0.017791556,-0.054912254,57.65374,156.9064,0.0047884034,1442850,-504,-1251,-3252,8178
58101421,4001,0,1.0649092,1.378656,-10.128399,-0.0076153353,0.0034688585,-0.026315382,57.6759,156.9064,0.0047884034,1442850,2286,-142,95,8186
58201465,4011,0,0.455189,1.6088388,-10.201371,-0.02207153,-0.0063559357,-0.027856398,57.67313,156.9064,0.0047884034,1442850,2049,209,-1130,8185
58305427,3971,0,-1.0515088,-0.10911903,-10.474638,0.022489643,-0.006457435,-0.050739832,57.68144,156.9064,0.0047884034,1442850,-2640,659,-2399,8188
58405420,4000,0,-0.16375302,-0.6742861,-11.221461,0.030696515,-0.0024342304,-0.050784037,57.68975,156.9064,0.0047884034,1442850,-1415,648,155,8191
58505434,4013,0,0.40470847,-0.8134695,-10.065753,0.024947738,0.00794633,-0.060034305,57.64266,156.9064,0.0047884034,1442850,360,78,-2098,8174
58609420,3980,0,-0.38938567,1.4069856,-9.599943,-0.029454954,0.007352162,-0.022284282,57.65097,156.9064,0.0047884034,1442850,286,239,-1220,8177
58709420,4000,0,-1.5857613,1.3125839,-9.9889,-0.008296622,0.008347448,-0.05374165,57.69252,156.9064,0.0047884034,1442850,-2187,-236,-2039,8192
58809423,3968,0,-0.95377547,0.41184226,-9.730795,0.0008930201,-0.005596514,-0.075364746,57.63712,156.9064,0.0047884034,1442850,-1600,329,-5070,8172
58913420,3993,0,0.1612578,-1.125548,-10.919555,0.02411433,0.0011037092,-0.030983135,57.645428,156.9064,0.0047884034,1442850,58,321,223,8175
59013421,3983,0,-1.081713,-0.3372576,-10.333989,0.018478509,0.00907456,-0.056388587,57.67036,156.9064,0.0047884034,1442850,-546,-133,-393,8184
59114221,3987,0,0.8634211,1.5040478,-10.652322,-0.0037984475,0.00066482066,-0.048413176,57.664818,156.9064,0.0047884034,1442850,2573,662,-729,8182
59218221,3984,0,-0.8394251,1.571279,-9.930053,0.013763411,0.003065099,-0.07365891,57.67313,156.9064,0.0047884034,1442850,-2291,771,-3772,8185
59318244,4023,0,0.48902258,0.3490047,-10.809365,0.029775217,-0.005632413,-0.06649585,57.63435,156.9064,0.0047884034,1442850,-531,1200,-2345,8171
59418221,3994,0,-0.5974381,-1.0206693,-11.664287,0.02033711,0.0031780957,-0.05818733,57.67036,156.9064,0.0047884034,1442850,-1302,1003,-1207,8184
59522220,3999,0,-0.68218297,0.22098537,-9.884943,-0.012365818,0.008494463,-0.018906081,57.648197,156.9064,0.0047884034,1442850,56,-780,-1138,8176
59622225,4004,0,0.07831016,1.1734703,-9.046961,-0.034757793,0.015854273,-0.029419992,57.631577,156.9064,0.0047884034,1442850,1212,-691,-1066,8170
59726242,4001,0,-1.2305353,1.3878354,-10.359831,0.014952561,-0.004853159,-0.07557328,57.65651,156.9064,0.0047884034,1442850,-2421,874,-3128,8179
59826220,3993,0,-1.2582046,-0.62187344,-10.856215,0.00521426,-0.009561223,-0.030431353,57.67313,156.9064,0.0047884034,1442850,-2314,758,-1219,8185
59926220,4000,0,-1.3951589,-2.0802746,-9.510338,-0.019597529,0.008477385,-0.031041939,57.66759,156.9064,0.0047884034,1442850,-1135,-908,-2415,8183
60030226,4006,0,-1.6057444,0.92053294,-10.185583,0.028650645,0.021679342,-0.05252303,57.631577,156.9064,0.0047884034,1442850,-3060,-102,-768,8170
60130220,3998,0,-1.3146234,1.4233375,-9.509173,-0.02300805,0.01229262,-0.033662733,57.66205,156.9064,0.0047884034,1442850,-927,-806,-943,8181
60230255,4035,0,0.54463375,0.9495196,-9.459874,-0.025996603,-0.01904904,0.0060962625,57.664818,156.9064,0.0047884034,1442850,2312,671,-1414,8182
60334219,3999,0,1.0502777,-1.2593071,-10.530721,-0.02781779,-0.01669278,-0.018817622,57.65651,156.9064,0.0047884034,1442850,2051,901,-1706,8179
60434220,3991,0,0.30492944,-1.4579022,-10.703585,0.023314264,-0.006422657,-0.023043277,57.6759,156.9064,0.0047884034,1442850,-82,-127,696,8186
60538220,4000,0,-0.42313334,1.8213059,-10.837671,0.031831842,0.0048117945,-0.025980115,57.67036,156.9064,0.0047884034,1442850,-1160,774,1946,8184
60639021,4000,0,-1.3292928,1.5919925,-8.742031,0.013254302,0.0041304324,-0.041261543,57.67867,156.9064,0.0047884034,1442850,-2276,-394,-3778,8187
60739021,4000,0,0.6649814,0.79098296,-9.746254,-0.040580615,-0.0015677165,-0.070714206,57.7036,156.9064,0.0047884034,1442850,2256,62,-2689,8196
60839021,3979,0,1.6675991,-0.23967198,-11.6073,0.029773792,-0.009910114,-0.028386792,57.70083,156.9064,0.0047884034,1442850,831,1875,309,8195
60943021,3961,0,-0.07710665,-0.6762377,-10.085625,0.021108238,0.017452696,-0.04892169,57.6759,156.9064,0.0047884034,1442850,638,-756,-3131,8186
61043021,3995,0,-1.3996288,1.0300325,-10.090264,-0.026579576,-0.0037012794,-0.01003035,57.70914,156.9064,0.0047884034,1442850,299,148,-840,8198
61147037,4016,0,2.1462524,1.3411102,-10.051141,-0.0023695803,-0.013992158,-0.016380774,57.68144,156.9064,0.0047884034,1442850,3131,229,-1600,8188
61247020,3984,0,-1.019149,0.34232935,-9.837442,-0.0351156,0.0019874598,-0.068244696,57.71468,156.9064,0.0047884034,1442850,-450,360,-2652,8200
61347027,4007,0,-1.5217794,-0.8512355,-9.695319,0.020929037,-0.0012951987,-0.05001784,57.71191,156.9064,0.0047884034,1442850,-2363,-473,-4460,8199
61451020,3993,0,0.9758006,-0.6844255,-9.2396965,-0.03362551,0.001339288,-0.051923744,57.70914,156.9064,0.0047884034,1442850,3316,-1133,-5014,8198
61551020,3975,0,-0.5710031,0.124805585,-8.695065,-0.034237742,0.014154886,-0.02715566,57.71191,156.9064,0.0047884034,1442850,1152,-1721,-1885,8199
61651021,3971,0,-1.9796252,1.7731814,-9.4308605,-0.02402239,0.004740633,-0.037186436,57.68975,156.9064,0.0047884034,1442850,-1393,81,-1354,8191
61755073,4052,0,1.4435955,0.31442815,-10.887144,0.030903988,-0.018168107,-0.011536523,57.72576,156.9064,0.0047884034,1442850,48,1141,576,8204
61855020,4000,0,1.9405423,-0.6992418,-10.741279,-0.034784317,-0.016976934,-0.012737914,57.73407,156.9064,0.0047884034,1442850,3525,1090,-1019,8207
61959020,4000,0,-1.4047278,1.0928472,-9.755315,0.037285164,0.012168607,-0.028232226,57.71745,156.9064,0.0047884034,1442850,-2741,417,-1125,8201
62063020,4000,0,-1.1538159,1.4173355,-10.118574,-0.022977347,-0.009780295,0.001008478,57.722992,156.9064,0.0047884034,1442850,-587,560,1494,8203
62163020,3999,0,-1.0246676,0.13186836,-10.707513,0.05069668,-0.0052846856,-0.042584118,57.72853,156.9064,0.0047884034,1442850,-3463,1245,-255,8205
62263821,4000,0,1.0532618,-1.4342196,-9.584357,-0.03871336,0.00053354655,-0.043272756,57.73407,156.9064,0.0047884034,1442850,2878,-342,-2398,8207
62367821,3966,0,0.082392156,-0.46105877,-8.690721,-0.03787847,0.0074598286,-0.024033386,57.70914,156.9064,0.0047884034,1442850,2234,-1109,-2980,8198
62471821,3983,0,-0.66045785,1.8671343,-9.76291,-0.037833463,0.011820191,-0.031978916,57.68975,156.9064,0.0047884034,1442850,405,121,-462,8191
62571821,4000,0,0.3400166,1.7782283,-9.779447,-0.027983986,-0.008256232,0.0008835057,57.69806,156.9064,0.0047884034,1442850,2682,-145,-1915,8194
62675827,4001,0,-1.2643378,-1.185413,-9.532368,-0.024570417,0.005480843,-0.06627914,57.742382,156.9064,0.0047884034,1442850,-1424,-399,-3628,8210
62775826,4006,0,-0.7439172,-1.1671487,-9.245066,-0.03445352,0.006787632,-0.07864449,57.74792,156.9064,0.0047884034,1442850,193,-550,-4931,8212
62883826,4006,0,1.2058736,1.5771664,-8.779233,-0.027216481,-0.007855471,-0.027677495,57.72853,156.9064,0.0047884034,1442850,2982,-445,-2583,8205
62983826,4003,0,0.2683583,1.2638478,-8.627394,-0.022513092,-0.010441117,-0.02399257,57.739613,156.9064,0.0047884034,1442850,1326,225,-4341,8209
63083820,4000,0,1.0373237,0.4506608,-8.414866,-0.021214178,-0.012897061,-0.02102565,57.720222,156.9064,0.0047884034,1442850,2051,918,-4405,8202
63187823,4003,0,-1.1587064,-1.4229913,-10.185658,0.004085589,0.0056619076,-0.08141924,57.72576,156.9064,0.0047884034,1442850,-1755,-300,-2377,8204
63287855,4035,0,-0.6206037,-0.24551694,-8.935659,0.0015080988,0.022364922,-0.07078156,57.742382,156.9064,0.0047884034,1442850,-321,-1033,-3241,8210
63391860,4036,0,-0.110773906,1.7656938,-9.862414,0.006699852,-0.0047506588,-0.025296208,57.71468,156.9064,0.0047884034,1442850,321,580,-519,8200
63495820,3999,0,-0.9927311,-0.10679829,-9.431369,-0.017350275,-0.006644368,-0.042743847,57.74792,156.9064,0.0047884034,1442850,-1168,-16,-4175,8212
63599820,4000,0,-0.08414003,-1.0369619,-11.569834,0.022345785,0.0020960292,-0.048504934,57.71191,156.9064,0.0047884034,1442850,-270,264,1417,8199
63699833,4013,0,-0.32931244,-0.33677858,-11.016901,0.025587512,0.00092298415,-0.017583106,57.736843,156.9064,0.0047884034,1442850,-183,-545,858,8208
63803820,3999,0,-0.30465972,1.7857825,-8.333994,-0.024600584,0.0048778676,-0.031073272,57.74515,156.9064,0.0047884034,1442850,1142,-95,-4996,8211
63903821,4001,0,0.15466954,1.1895701,-9.17934,-0.016024284,-0.0014769406,-0.04190938,57.70637,156.9064,0.0047884034,1442850,1117,215,-2889,8197
64003827,4006,0,0.35494617,-0.3963376,-10.579913,-0.017053016,-0.009518718,-0.028144687,57.736843,156.9064,0.0047884034,1442850,372,548,-158,8208
64104620,3953,0,0.24677983,-0.7748228,-10.147383,-0.014932618,-0.011211877,-0.0018304032,57.72853,156.9064,0.0047884034,1442850,1418,935,-2094,8205
64208621,4000,0,-1.1955376,0.4618008,-8.637861,0.029484052,0.010599811,-0.061226822,57.69806,156.9064,0.0047884034,1442850,-2154,-1422,-4986,8194
64308620,3991,0,-1.3497659,2.0072315,-9.471262,0.021768298,0.015873859,-0.065598555,57.739613,156.9064,0.0047884034,1442850,-2560,-34,-2671,8209
65528620,4000,0,-0.95710456,-1.3257424,-9.690772,-0.0094899945,0.00377393,-0.0794434,57.70914,156.9064,0.0047884034,1442850,-1121,-746,-2941,8198
65629427,4006,0,-0.56906813,-1.1523284,-9.934239,-0.005438581,-0.00037472628,0.0064393007,57.7313,156.9064,0.0047884034,1442850,-523,-119,-1179,8206
65729421,3998,0,-0.4960258,0.36316112,-9.101918,-0.037180714,0.010799514,-0.04001772,57.71191,156.9064,0.0047884034,1442850,1340,-561,-2559,8199
65833421,4001,0,-1.188582,1.6525722,-9.158666,-0.02399367,-0.00092945003,-0.017276704,57.71468,156.9064,0.0047884034,1442850,-1166,551,-2360,8200
65937426,4003,0,-0.51713145,-0.61260337,-10.290548,-0.013942138,-0.005858354,-0.04917151,57.70914,156.9064,0.0047884034,1442850,-855,953,-2171,8198
66041440,4019,0,-1.3831648,-0.5015255,-8.84463,-0.007850194,0.010996871,-0.033360157,57.72853,156.9064,0.0047884034,1442850,-1196,-508,-4679,8205
66145427,4007,0,-0.25093323,2.2148674,-9.418941,0.04450436,0.006412196,-0.02934096,57.73407,156.9064,0.0047884034,1442850,-1451,-79,-2391,8207
66245420,4000,0,-1.4711479,1.728281,-9.05349,0.014465118,0.015917692,-0.067192286,57.72576,156.9064,0.0047884034,1442850,-2810,-217,-3644,8204
66345454,4033,0,0.039244965,-0.15562782,-9.4746895,-0.032758847,0.00061147404,-0.05495125,57.736843,156.9064,0.0047884034,1442850,1336,-491,-3404,8208
66449444,4016,0,0.23875658,-1.3336226,-10.338122,-0.040237233,-0.005125782,-0.006751436,57.739613,156.9064,0.0047884034,1442850,1675,722,-535,8209
66549420,4000,0,-0.18175624,-1.0170385,-9.795449,-0.005133209,0.013363732,-0.020879393,57.736843,156.9064,0.0047884034,1442850,1579,-980,-1985,8208
66649421,4001,0,1.1972572,0.11631639,-9.004417,0.0037111044,0.010817332,-0.04563836,57.75069,156.9064,0.0047884034,1442850,1698,-650,-3116,8213
66753420,3993,0,0.30475387,1.6317625,-10.185293,-0.045422733,-0.0044755912,-0.025065508,57.739613,156.9064,0.0047884034,1442850,2407,-278,-595,8209
66853420,3959,0,0.29447597,0.6381488,-9.686555,-0.034551375,-0.012041569,-0.004530759,57.71745,156.9064,0.0047884034,1442850,2489,314,-2284,8201
66957427,3968,0,-1.1429577,-1.5936003,-9.843326,-0.006742581,0.01272658,-0.060926314,57.753464,156.9064,0.0047884034,1442850,-1303,-375,-3451,8214
67058226,4002,0,-1.6397336,-0.44722167,-10.787043,0.012171226,0.022356384,-0.046606693,57.739613,156.9064,0.0047884034,1442850,-2252,-55,-1587,8209
67158251,4030,0,-1.1676967,1.4559226,-9.963921,0.012084672,0.031688083,-0.053059623,57.73407,156.9064,0.0047884034,1442850,-1809,141,-1679,8207
67258221,3994,0,-1.0455453,1.9173836,-10.355084,0.022562925,0.023683839,-0.05709201,57.736843,156.9064,0.0047884034,1442850,-2856,29,-1691,8208
67362220,4000,0,1.4157349,0.607072,-10.572052,-0.0076677003,-0.024261922,-0.010525621,57.75069,156.9064,0.0047884034,1442850,2018,538,135,8213
67462227,4007,0,1.4195018,-0.49549758,-10.671154,-0.009339701,-0.013277408,-0.010475942,57.736843,156.9064,0.0047884034,1442850,2766,212,-885,8208
67566220,3991,0,-1.2388268,-0.9959675,-8.870713,-0.0033788085,0.006392445,-0.029473085,57.759003,156.9064,0.0047884034,1442850,-1334,99,-3992,8216
67666220,3993,0,-0.7064729,0.5023721,-8.360035,0.022192819,0.005463957,-0.028980844,57.71468,156.9064,0.0047884034,1442850,-1374,-273,-4680,8200
67766220,4000,0,-0.41458353,1.6160458,-9.272988,0.041263312,-0.001343042,-0.04021669,57.74515,156.9064,0.0047884034,1442850,-1627,270,-3526,8211
67870227,4007,0,0.3030714,0.11973982,-9.467415,-0.036748193,-0.0013732067,-0.052100427,57.72853,156.9064,0.0047884034,1442850,1683,-1235,-3223,8205
67970220,3959,0,-0.22151186,-0.88426477,-8.775185,-0.030534696,-0.0036333883,-0.044816047,57.756233,156.9064,0.0047884034,1442850,477,-681,-3980,8215
68070220,4000,0,-0.7310497,-1.9209557,-9.487311,-0.021023402,0.0030248081,-0.0441251,57.72576,156.9064,0.0047884034,1442850,-699,-738,-3218,8204
68174246,4026,0,-0.9733941,0.91624796,-10.554029,0.02322393,0.019246513,-0.044970043,57.722992,156.9064,0.0047884034,1442850,-1057,-391,661,8203
68274220,4000,0,-0.86947924,1.7779353,-9.354429,0.030152258,0.019999389,-0.0443969,57.72576,156.9064,0.0047884034,1442850,-1793,-640,-1582,8204
68378255,4028,0,1.5857713,0.8825853,-9.904628,0.0062284293,-0.010222225,-0.02858985,57.70637,156.9064,0.0047884034,1442850,1840,169,-1305,8197
68482220,3989,0,-0.61259305,-1.4352427,-9.688273,-0.018990187,-0.0016851256,-0.04301862,57.74515,156.9064,0.0047884034,1442850,-41,-23,-3239,8211
68582226,4004,0,-1.1419847,-1.1264511,-10.367935,-0.024284113,0.009009167,-0.041736525,57.736843,156.9064,0.0047884034,1442850,-584,-114,-1448,8208
68686261,4034,0,-0.6193201,1.4417399,-9.1924715,0.03308343,0.0020187018,-0.03083089,57.70914,156.9064,0.0047884034,1442850,-1348,-294,-1840,8198
68787043,4022,0,-0.09084553,1.6670268,-9.198307,0.022079363,-0.0032374072,-0.05391474,57.71191,156.9064,0.0047884034,1442850,-795,99,-2979,8199
68887021,4000,0,0.18837902,0.15007839,-8.984932,0.03892326,-0.008423062,-0.056772016,57.70637,156.9064,0.0047884034,1442850,-1689,83,-4436,8197
68987020,3962,0,-0.42137408,-1.1110014,-10.291955,0.037727606,-0.00077562564,-0.07346743,57.65928,156.9064,0.0047884034,1442850,-2039,250,-3841,8180
69091020,3962,0,0.39053255,-0.73440254,-9.849093,-0.0031012623,0.005496199,-0.0051738783,57.68975,156.9064,0.0047884034,1442850,2183,-479,-1253,8191
69191032,4005,0,0.57479894,0.22429971,-9.48914,0.0055037453,0.0065941606,-0.04112445,57.66759,156.9064,0.0047884034,1442850,1545,-339,-1750,8183
69295021,4000,0,0.46948212,1.3669212,-10.153915,-0.031807937,-0.009886937,-0.029301569,57.66205,156.9064,0.0047884034,1442850,2249,-105,-678,8181
69395027,4006,0,1.3114623,0.71442664,-9.956011,0.009016988,-0.021753667,-0.025421677,57.69529,156.9064,0.0047884034,1442850,1686,1616,-3301,8193
69495027,4006,0,0.85998136,-1.2228696,-10.187892,0.023994695,-0.006617539,-0.036682483,57.67313,156.9064,0.0047884034,1442850,325,-35,-1016,8185
69599020,3999,0,0.9462721,-0.91002923,-10.030133,-0.01519659,0.003014173,-0.0063563674,57.7036,156.9064,0.0047884034,1442850,2667,-602,-1137,8196
69699021,3979,0,0.8124307,0.1988475,-9.169909,0.01401839,0.010628241,-0.02341538,57.7036,156.9064,0.0047884034,1442850,941,-340,-3086,8196
69803062,4041,0,0.8928779,1.898997,-10.562349,-0.00017271657,-0.0027946706,-0.044210732,57.67036,156.9064,0.0047884034,1442850,1165,830,-67,8184
69907042,4021,0,0.8342741,-0.6394947,-10.371875,-0.03534662,-0.0039685103,-0.051397,57.64266,156.9064,0.0047884034,1442850,1918,328,-2414,8174
70007021,4001,0,0.5173715,-1.7590694,-10.95203,-0.027250629,-0.0059737377,-0.02658763,57.67313,156.9064,0.0047884034,1442850,2076,-747,162,8185
70107021,4000,0,1.0023834,-0.7663941,-9.34989,-0.012822533,-0.0014959022,-0.017707422,57.68698,156.9064,0.0047884034,1442850,2644,-160,-2882,8190
70211020,3972,0,-0.5547203,1.4277034,-9.393365,-0.038659208,0.0028768862,-0.038513802,57.68698,156.9064,0.0047884034,1442850,572,-589,-1846,8190
70311820,3959,0,-0.03220628,1.143884,-8.23728,-0.029976059,-0.013071589,-0.01981591,57.68975,156.9064,0.0047884034,1442850,1281,439,-4435,8191
70411821,4000,0,1.7496337,0.060313202,-9.757794,-0.006601815,-0.013516511,-0.022798916,57.67313,156.9064,0.0047884034,1442850,2652,480,-1814,8185
70515827,3973,0,0.47172454,-1.469654,-10.283442,-0.04261005,-0.004300699,-0.014053986,57.65928,156.9064,0.0047884034,1442850,2162,318,-1143,8180
70615862,4041,0,0.78460795,-0.84601647,-9.660085,0.010605065,0.007265606,-0.028105848,57.69252,156.9064,0.0047884034,1442850,1303,-991,-1817,8192
70719821,4001,0,0.218835,1.3324304,-9.558356,-0.016682532,0.010243069,-0.061441436,57.67036,156.9064,0.0047884034,1442850,1475,-1084,-1900,8184
70819820,4000,0,1.2102797,1.3610158,-10.245166,-0.0012237635,-0.0059816553,-0.061870754,57.66759,156.9064,0.0047884034,1442850,1597,814,-1683,8183
70919833,4013,0,0.31911024,-0.063349515,-10.253268,0.037882857,-0.0114400815,-0.024603475,57.69529,156.9064,0.0047884034,1442850,-1130,928,-1623,8193
71023820,4000,0,0.80240536,-1.7402481,-10.295896,-0.025643907,0.0034962655,-0.062343173,57.70083,156.9064,0.0047884034,1442850,2271,-353,-2262,8195
71123820,3954,0,0.8018953,-0.35050076,-10.332763,-0.014129125,0.009319798,-0.015556004,57.63435,156.9064,0.0047884034,1442850,2531,-392,-1078,8171
71223850,4024,0,1.1804273,0.8466488,-9.332974,0.01637153,0.013513102,-0.027150676,57.68421,156.9064,0.0047884034,1442850,1113,-680,-1972,8189
71327827,4002,0,0.7569813,1.5939628,-10.525055,-0.010821854,0.0022468406,-0.04817059,57.68975,156.9064,0.0047884034,1442850,1357,764,-1100,8191
71427827,4007,0,0.2133591,-0.38384706,-10.761812,0.017868107,0.0043038586,-0.06978391,57.71191,156.9064,0.0047884034,1442850,-1198,-478,-782,8199
71531820,3993,0,0.037088174,-1.3784804,-10.060088,-0.008125894,0.0071741873,-0.054742817,57.70083,156.9064,0.0047884034,1442850,422,-337,-1416,8195
71631820,4000,0,0.14863323,-0.3793945,-9.300518,0.010899815,0.023361046,-0.062943086,57.71468,156.9064,0.0047884034,1442850,777,-977,-4991,8200
71731821,3989,0,-0.78041124,1.4336592,-10.324836,0.034815405,0.017483864,-0.03316618,57.73407,156.9064,0.0047884034,1442850,-1467,-372,708,8207
71836620,3999,0,0.8306557,1.8204896,-9.147275,-0.034120686,-0.0041023544,-0.049800728,57.73407,156.9064,0.0047884034,1442850,2958,72,-4239,8207
71940667,4046,0,-1.2032048,-1.435026,-10.511451,-0.02306662,-0.018443918,-0.024651838,57.68975,156.9064,0.0047884034,1442850,-816,516,-2022,8191
72040704,4083,0,-0.20772925,-1.4789555,-9.971753,-0.027721185,-0.0051770257,-0.014258593,57.69529,156.9064,0.0047884034,1442850,296,-399,-962,8193
72144647,3974,0,-1.4300382,1.1452272,-9.264288,0.008948707,0.017514832,-0.050138324,57.739613,156.9064,0.0047884034,1442850,-1876,-1068,-3094,8209
72244620,3946,0,-1.0058686,1.7815144,-9.892495,-0.006915237,0.019080572,-0.05309717,57.71468,156.9064,0.0047884034,1442850,-1782,-615,-1524,8200
72344620,3953,0,-0.78084517,1.7390549,-10.274125,-0.0066359295,0.0029379071,-0.05751958,57.73407,156.9064,0.0047884034,1442850,-1987,-5,-1273,8207
72448627,4007,0,0.8701337,-0.6174759,-10.674791,0.031193387,-0.003858955,-0.06278831,57.74792,156.9064,0.0047884034,1442850,-714,249,-2369,8212
72548661,4007,0,-1.0860438,-1.1797516,-10.037042,0.0267476,0.013143087,-0.07150037,57.759003,156.9064,0.0047884034,1442850,-1891,-249,-4008,8216
72648657,4037,0,-1.410783,-0.29789785,-9.80398,-0.0016152551,0.021167783,-0.05294755,57.77008,156.9064,0.0047884034,1442850,-1579,-873,-3223,8220
72752621,4001,0,-0.5161618,2.2843268,-9.926635,0.037313342,0.00058208057,-0.031116538,57.742382,156.9064,0.0047884034,1442850,-1350,364,-907,8210
72852620,4000,0,-0.94286764,1.4198288,-10.107972,0.035396352,-0.0034219387,-0.03958176,57.789474,156.9064,0.0047884034,1442850,-2171,675,-2100,8227
72952630,4001,0,-1.144489,-0.2807113,-9.423575,0.024928605,-0.0027874808,-0.04071985,57.74792,156.9064,0.0047884034,1442850,-2447,100,-3276,8212
73056620,3993,0,-0.5421222,-0.99876195,-10.3551445,0.028842645,0.008034383,-0.061992176,57.797783,156.9064,0.0047884034,1442850,-814,40,-2047,8230
73156621,3958,0,-1.2167315,0.41519314,-10.498238,0.027396832,0.01905167,-0.06348289,57.808865,156.9064,0.0047884034,1442850,-1947,-251,-1553,8234
73260667,4046,0,1.1222295,2.3543599,-9.618034,0.00582874,-0.011773622,-0.014331587,57.7867,156.9064,0.0047884034,1442850,1390,681,-2155,8226
73361421,3992,0,1.4110823,1.1884346,-9.303161,0.0015927865,-0.014651554,-0.04853289,57.806095,156.9064,0.0047884034,1442850,1961,680,-4377,8233
73461421,4000,0,1.7198658,-0.40089846,-9.774754,0.022968838,-0.010296593,-0.042997614,57.806095,156.9064,0.0047884034,1442850,1390,404,-3032,8233
73565421,4000,0,0.20137012,-0.74980986,-10.488585,-0.031112041,0.005425932,-0.023392485,57.795013,156.9064,0.0047884034,1442850,1544,-458,409,8229
73665433,4013,0,0.17001067,0.49089268,-10.322569,-0.024965325,0.0019699195,-0.035150304,57.778393,156.9064,0.0047884034,1442850,2292,-303,-4,8223
73765420,3999,0,1.2598395,1.7344229,-9.749877,-0.0065883826,-0.0046317056,-0.016870707,57.77008,156.9064,0.0047884034,1442850,2551,387,-1571,8220
73869421,3994,0,-0.10402526,0.86688864,-8.958271,-0.017659875,0.0028223828,-0.036363166,57.756233,156.9064,0.0047884034,1442850,-915,-175,-3729,8215
73973420,3999,0,-0.15238056,-0.9824539,-10.870145,0.030684039,-0.002527792,-0.046411186,57.76731,156.9064,0.0047884034,1442850,-1963,338,-262,8219
74073442,4011,0,-1.254853,-0.44639885,-11.040984,0.029026065,0.005474387,-0.041288506,57.778393,156.9064,0.0047884034,1442850,-1969,90,-340,8223
74177427,4000,0,1.3310602,1.7082884,-8.748506,-0.011746249,-0.0071005244,-0.018539006,57.80332,156.9064,0.0047884034,1442850,2552,209,-2221,8232
74277420,3993,0,1.3986183,1.745404,-9.055581,-0.011878961,-0.009401622,-0.01710038,57.797783,156.9064,0.0047884034,1442850,2300,11,-2325,8230
74381427,4006,0,0.09346717,-0.60574585,-9.568473,-0.035114847,0.0012738833,-0.049738437,57.792244,156.9064,0.0047884034,1442850,308,114,-2063,8228
74485420,3993,0,-0.9306745,-1.0958694,-9.5943365,-0.016371744,0.0077502625,-0.060625926,57.808865,156.9064,0.0047884034,1442850,-1328,-390,-2157,8234
74586221,4000,0,-1.7363546,0.62896144,-8.773529,-0.02712318,0.02218506,-0.0462454,57.800552,156.9064,0.0047884034,1442850,-1092,-1140,-2955,8231
74686221,3999,0,0.41118333,1.7107384,-8.3186,-0.0373373,0.0131235225,-0.0539672,57.76454,156.9064,0.0047884034,1442850,1643,-981,-3561,8218
74790221,4000,0,-0.89572793,1.4016211,-10.566406,0.03899046,0.004164377,-0.05739151,57.772854,156.9064,0.0047884034,1442850,-3078,992,-1774,8221
74894221,3992,0,0.8626178,-1.2225119,-10.603176,0.012513336,-0.016876845,-0.012850987,57.775623,156.9064,0.0047884034,1442850,1168,246,846,8222
74994221,4000,0,0.28316346,-0.5144202,-9.771252,0.022618575,0.0038275705,-0.02225935,57.792244,156.9064,0.0047884034,1442850,485,190,-960,8228
75098242,4022,0,-0.026946556,1.0599533,-8.514023,-0.010454657,0.0009969359,-0.024379918,57.7313,156.9064,0.0047884034,1442850,643,-660,-2364,8206
75198220,3994,0,1.0789778,1.7109156,-8.953269,-0.006632264,-0.002999364,-0.012777563,57.736843,156.9064,0.0047884034,1442850,1754,501,-1772,8208
75298220,3992,0,1.026697,0.09404809,-10.169872,-0.01423934,-0.015662959,-0.040452115,57.778393,156.9064,0.0047884034,1442850,1594,-343,-471,8223
75402271,4051,0,-0.024938188,-1.0396954,-10.3674755,-0.027052173,0.0034252992,-0.032151848,57.75069,156.9064,0.0047884034,1442850,1136,219,-754,8213
75502227,4007,0,-0.51233375,-0.33374506,-10.118946,-0.005366755,-0.001388326,-0.007773658,57.76454,156.9064,0.0047884034,1442850,-260,-290,936,8218
75602258,4038,0,-0.64493364,0.9237408,-8.66931,-0.016865958,-0.0034322562,-0.019949086,57.75069,156.9064,0.0047884034,1442850,168,-178,-3783,8213
75706219,3999,0,0.17203808,1.4216387,-10.479907,0.02570371,-0.0023443424,-0.08014904,57.756233,156.9064,0.0047884034,1442850,-1059,182,-1847,8215
75806220,4000,0,0.10069433,0.5839399,-10.646368,0.040945303,-0.014715959,-0.04083939,57.753464,156.9064,0.0047884034,1442850,-1817,1301,-2343,8214
75910220,3964,0,1.0388217,-1.1770097,-10.555856,-0.0046770833,0.0024563875,-0.043615505,57.736843,156.9064,0.0047884034,1442850,1668,-796,-808,8208
76014222,4002,0,-0.22902888,0.40083426,-8.349216,-0.019769205,0.009291009,-0.020360446,57.753464,156.9064,0.0047884034,1442850,577,-1283,-3811,8214
76114220,4000,0,0.50195557,1.6090177,-8.669491,-0.026965987,-0.00046264147,-0.053914405,57.76731,156.9064,0.0047884034,1442850,1376,-592,-2702,8219
76218220,4000,0,-0.031484038,-0.37186542,-9.075932,-0.015364099,-0.005370304,-0.048286237,57.7867,156.9064,0.0047884034,1442850,355,-424,-4308,8226
76318220,3993,0,-0.90691346,-1.7489053,-10.117836,0.0063802777,-0.0079680495,-0.055529032,57.781162,156.9064,0.0047884034,1442850,-1365,-546,-2227,8224
76418241,4014,0,-1.3683645,-1.0653867,-10.483268,-0.0030431515,-0.004966227,-0.021665277,57.76731,156.9064,0.0047884034,1442850,-1467,720,-1320,8219
76519050,4029,0,-0.9375315,0.28698817,-8.502343,-0.014608882,0.016711941,-0.06879709,57.7867,156.9064,0.0047884034,1442850,-1283,-1099,-2570,8226
76623021,4000,0,0.17766868,2.312643,-9.699732,0.021519752,-0.00042141927,-0.03947777,57.742382,156.9064,0.0047884034,1442850,-351,1657,-2160,8210
76723021,4001,0,0.10227882,0.6457539,-8.961944,0.011996359,-0.0031651347,-0.060478307,57.792244,156.9064,0.0047884034,1442850,-1140,-510,-4044,8228
76827020,3999,0,0.96340424,-1.327877,-10.648348,-0.00998206,-0.015562552,-0.022537727,57.778393,156.9064,0.0047884034,1442850,2813,170,-475,8223
76927020,3995,0,0.96696377,-1.1345973,-9.960846,-0.0037409123,-0.0025947213,-0.02142819,57.78393,156.9064,0.0047884034,1442850,1418,-623,-242,8225
77027020,3999,0,0.3093775,0.5229637,-10.052543,0.013979598,0.012697581,-0.03447601,57.76454,156.9064,0.0047884034,1442850,1217,-722,-1094,8218
77131063,4036,0,-0.13959794,1.368554,-9.095044,-0.0066117514,-0.012231085,0.0030297176,57.77008,156.9064,0.0047884034,1442850,198,659,-1744,8220
77231021,3988,0,0.07209398,0.10022556,-9.193485,-0.02307486,-0.013992903,-0.036868706,57.756233,156.9064,0.0047884034,1442850,985,79,-2444,8215
77331021,4000,0,0.18364446,-1.0362412,-9.699644,-0.035816092,-0.0053078085,-0.037672434,57.78393,156.9064,0.0047884034,1442850,1681,912,-3357,8225
77435053,4033,0,-1.192245,-0.56265587,-10.342687,0.017645966,0.0019344805,-0.032689467,57.742382,156.9064,0.0047884034,1442850,-1920,38,-2521,8210
77535064,4044,0,-1.0037723,0.9550747,-9.083309,0.030634353,0.011408644,-0.035483263,57.76731,156.9064,0.0047884034,1442850,-1635,-81,-3212,8219
77639021,3966,0,0.67435837,1.5599518,-10.772744,-0.0028199386,-0.011599544,-0.009415578,57.78393,156.9064,0.0047884034,1442850,1581,579,1486,8225
77739060,4039,0,0.9645015,-0.04295614,-10.742864,-0.01610665,-0.017722134,-0.0055754273,57.811634,156.9064,0.0047884034,1442850,1550,465,674,8235
77839020,4000,0,0.32547942,-0.90869695,-10.156343,-0.011627348,-0.008887804,-0.014395278,57.76731,156.9064,0.0047884034,1442850,405,271,-630,8219
77943020,3980,0,-1.742622,0.016655738,-10.331091,0.018800592,0.013127469,-0.04394629,57.78393,156.9064,0.0047884034,1442850,-2643,-135,-1994,8225
78043821,3966,0,-0.38089263,1.3357242,-10.129446,0.02227217,0.0057343687,-0.037065107,57.7867,156.9064,0.0047884034,1442850,-1030,-298,-1207,8226
78143821,4000,0,-0.27244,1.8622413,-9.662288,0.03707637,0.009698819,-0.03367208,57.819942,156.9064,0.0047884034,1442850,-1280,752,-2848,8238
78247835,4014,0,1.675546,-0.6556569,-11.121673,0.0035733692,-0.014746562,-0.003955132,57.76731,156.9064,0.0047884034,1442850,1467,676,1609,8219
78351820,4000,0,-0.67430925,-1.0230209,-8.975524,-0.009244874,0.0045674606,-0.04863477,57.80332,156.9064,0.0047884034,1442850,-298,-664,-4887,8232
78451820,3999,0,-0.25457463,1.0284578,-9.4238,0.0044369455,0.007592025,-0.03595382,57.806095,156.9064,0.0047884034,1442850,-618,397,-1074,8233
78555820,3971,0,1.3980699,1.3336177,-9.179102,0.00028793886,-0.0040295254,-0.024467077,57.789474,156.9064,0.0047884034,1442850,2187,32,-2502,8227
78655821,3978,0,0.7415075,-0.18901816,-9.701695,-0.033550628,-0.0016495171,-0.04429171,57.778393,156.9064,0.0047884034,1442850,2423,-154,-4178,8223
78755820,4000,0,0.23447995,-1.5503511,-9.095432,-0.030283036,0.005895281,-0.046265204,57.850414,156.9064,0.0047884034,1442850,1690,-112,-5640,8249
78859825,4005,0,-0.8514037,-0.5674849,-11.082495,0.0337843,0.0047329254,-0.033685584,57.811634,156.9064,0.0047884034,1442850,-1581,-25,486,8235
78959820,3999,0,0.43452144,1.425771,-10.374054,0.025162842,0.0026406962,-0.03143945,57.797783,156.9064,0.0047884034,1442850,653,706,42,8230
79063820,3994,0,-0.50934774,1.278874,-8.461764,-0.016203335,0.00603794,-0.028506579,57.792244,156.9064,0.0047884034,1442850,-1156,-753,-2902,8228
79163889,4062,0,-0.3216645,0.5657968,-9.299594,0.0052463035,-0.004196236,-0.07258018,57.75069,156.9064,0.0047884034,1442850,-1825,439,-3421,8213
79263820,4000,0,-0.38307726,-0.74740016,-10.343244,0.012494317,-0.008716734,-0.042461947,57.831024,156.9064,0.0047884034,1442850,-1150,879,-2130,8242
79367827,4007,0,-0.15830459,-0.5608859,-8.603472,-0.019630842,0.009496887,-0.06914569,57.822716,156.9064,0.0047884034,1442850,1531,-991,-6362,8239
79467821,4000,0,-0.29622823,1.0874128,-9.534764,-0.009614866,0.016363412,-0.088560335,57.822716,156.9064,0.0047884034,1442850,-146,-1422,-3182,8239
79568620,4800,0,-0.72760844,1.6497856,-10.334647,-0.009511294,0.012699408,-0.057920594,57.858727,156.9064,0.0047884034,1442850,-814,-542,-155,8252
79672621,3992,0,1.1597887,-0.07753191,-11.279855,-0.009258384,-0.01561659,-0.0012754961,57.842106,156.9064,0.0047884034,1442850,2016,531,685,8246
79772621,3966,0,-1.3202912,-1.1757196,-10.535599,0.008617531,-0.00071580696,-0.047545422,57.811634,156.9064,0.0047884034,1442850,-2603,553,-1329,8235
79872655,4034,0,0.40720588,-0.7381892,-11.213221,0.027689274,-0.0034132139,-0.024665002,57.842106,156.9064,0.0047884034,1442850,747,537,322,8246
79976620,3993,0,0.2812957,1.3174882,-10.275836,-0.014860035,0.010184623,-0.02645198,57.80332,156.9064,0.0047884034,1442850,1201,-63,-733,8232
80080673,4053,0,0.005475739,0.5534653,-9.306871,0.035630837,-0.009699539,-0.036401216,57.831024,156.9064,0.0047884034,1442850,-1302,345,-1621,8242
80180673,4053,0,1.7738307,-1.0706497,-10.30618,-0.024938658,-0.019834079,-0.015183257,57.819942,156.9064,0.0047884034,1442850,3064,180,-993,8238
80284620,3938,0,0.16278811,-1.0503095,-10.373035,0.0065548774,-0.0071476833,-0.021648599,57.811634,156.9064,0.0047884034,1442850,922,-757,514,8235
80384620,3953,0,-0.2246212,-0.09615264,-8.169224,-0.0218572,0.009495828,-0.02360098,57.808865,156.9064,0.0047884034,1442850,1074,-908,-5014,8234
80488627,4007,0,-0.4207249,0.8923739,-9.298403,-0.012255229,-0.0022894093,-0.02862914,57.792244,156.9064,0.0047884034,1442850,238,638,-1841,8228
80592620,4000,0,0.765295,-0.7185026,-11.212373,-0.006420459,-0.008934323,-0.06292688,57.822716,156.9064,0.0047884034,1442850,987,1192,-1377,8239
80692642,4022,0,-1.3305696,-1.1747037,-10.739058,-0.023963008,0.0059082126,-0.04576402,57.811634,156.9064,0.0047884034,1442850,-642,-803,-1208,8235
80792620,4000,0,-0.64795744,0.21584234,-10.595488,0.028430456,0.010096818,-0.058585405,57.842106,156.9064,0.0047884034,1442850,-1338,-861,135,8246
80896620,3999,0,-1.3592676,1.8765271,-9.365875,0.018687107,0.0075056427,-0.027035315,57.825485,156.9064,0.0047884034,1442850,-2562,157,-2389,8240
80996620,3994,0,1.020303,1.0341833,-10.304517,0.015342947,-0.016229978,-0.018310415,57.817173,156.9064,0.0047884034,1442850,1169,632,124,8237
81100674,4054,0,-0.8087635,-1.6960905,-10.988184,0.022670642,0.005496056,-0.08427662,57.822716,156.9064,0.0047884034,1442850,-1937,-41,-2788,8239
81201427,4006,0,0.37167633,-1.5455518,-10.404038,-0.023024932,0.019285876,-0.022138786,57.839336,156.9064,0.0047884034,1442850,2586,-947,-1810,8245
81301421,3966,0,-1.2934867,0.07726027,-9.098471,-0.016677484,0.015346584,-0.0723937,57.855953,156.9064,0.0047884034,1442850,-1004,-1374,-4286,8251
81405441,3979,0,1.1810107,1.4259907,-10.277677,-0.017516734,0.0012940067,-0.011943062,57.839336,156.9064,0.0047884034,1442850,2422,66,311,8245
81505435,4015,0,-0.8235932,0.47174194,-9.991484,-0.01057917,-0.00064755953,-0.06669098,57.831024,156.9064,0.0047884034,1442850,-1472,585,-2755,8242
81605420,3999,0,0.22076762,-0.4708882,-10.702774,0.03329733,-0.0031196738,-0.07102703,57.847645,156.9064,0.0047884034,1442850,-1140,658,-2260,8248
81709421,4001,0,-0.620128,0.07242455,-9.519652,-0.015658634,0.010683435,-0.070146665,57.828255,156.9064,0.0047884034,1442850,-671,119,-3641,8241
81809420,3993,0,-0.18660991,1.0997362,-10.466648,0.017439822,0.00034612592,-0.080981486,57.853184,156.9064,0.0047884034,1442850,-711,-655,-1340,8250
81909443,3981,0,0.54217756,1.6971763,-9.421855,-0.019848658,0.001988264,-0.03702844,57.842106,156.9064,0.0047884034,1442850,1795,-563,-2106,8246
82013427,4007,0,-0.57994753,0.47994027,-11.106208,0.0331811,0.009107805,-0.04919406,57.853184,156.9064,0.0047884034,1442850,-2075,715,-3,8250
82113427,4007,0,1.6828457,-0.64258516,-10.245143,0.02022883,-0.0009185234,-0.05066499,57.850414,156.9064,0.0047884034,1442850,1419,335,-1738,8249
82217421,4000,0,-1.3603367,0.27879497,-9.779754,-0.0030463529,0.025824677,-0.06587456,57.897507,156.9064,0.0047884034,1442850,-1409,-626,-3493,8266
82321427,4007,0,0.79873604,1.7445036,-9.45991,-0.0170945,0.010368052,-0.0117703155,57.875347,156.9064,0.0047884034,1442850,1498,-47,-818,8258
82421427,4007,0,-0.61390394,1.300907,-9.397802,0.00021403935,0.00424322,-0.08324034,57.833794,156.9064,0.0047884034,1442850,-1671,555,-4124,8243
82525424,4001,0,0.87344843,-0.96190816,-10.447952,-0.02458778,-0.0070583066,-0.02016884,57.864265,156.9064,0.0047884034,1442850,2263,312,-796,8254
82626221,3983,0,-0.98824775,-0.335069,-9.363882,0.000376957,0.01703354,-0.07185832,57.869804,156.9064,0.0047884034,1442850,-1755,-410,-3986,8256
82726221,4000,0,0.8008686,1.0392722,-9.114666,0.03510407,-0.0026593802,-0.06699808,57.875347,156.9064,0.0047884034,1442850,338,583,-4309,8258
82826248,4028,0,0.67876357,1.5119303,-9.098628,-0.027766006,-0.0064762714,-0.029865313,57.886425,156.9064,0.0047884034,1442850,2228,-337,-1565,8262
82930225,4004,0,-0.4712859,0.40900636,-9.82881,0.027996635,0.005538217,-0.081101835,57.858727,156.9064,0.0047884034,1442850,-2092,415,-4432,8252
83030221,3995,0,0.17802086,-1.6139898,-10.202292,0.007112176,-0.015843933,-0.05530322,57.878117,156.9064,0.0047884034,1442850,617,-225,-2198,8259
83134228,4008,0,-0.7841007,-0.37291873,-9.274092,-0.010768179,0.029095044,-0.055576418,57.867035,156.9064,0.0047884034,1442850,-374,-1502,-3570,8255
83234220,4000,0,-1.0442103,0.9732637,-9.320415,0.010607609,0.01658954,-0.0749958,57.869804,156.9064,0.0047884034,1442850,-2003,-875,-3234,8256
83334220,3962,0,-0.37228796,1.4122866,-9.997577,0.03710765,0.012020725,-0.07506055,57.864265,156.9064,0.0047884034,1442850,-1793,67,-3268,8254
83438220,3997,0,0.9969824,-0.16789703,-10.436779,-0.03575033,-0.009999948,-0.03513582,57.853184,156.9064,0.0047884034,1442850,1759,484,-1418,8250
83538223,4002,0,-0.7129312,-1.122505,-10.481898,-0.015155898,0.0072254385,-0.048972134,57.842106,156.9064,0.0047884034,1442850,-1138,262,-2114,8246
83638220,4000,0,-1.141631,-0.58904207,-10.749456,0.009697912,0.008526908,-0.076802924,57.861496,156.9064,0.0047884034,1442850,-1407,465,-2812,8253
83742220,3993,0,-0.0747759,1.1336029,-8.66621,-0.019762367,0.0037832945,0.0022863774,57.883656,156.9064,0.0047884034,1442850,1578,-177,-3468,8261
83842220,3993,0,-1.425518,1.842186,-9.334709,0.009431279,-0.0040385793,-0.041743256,57.864265,156.9064,0.0047884034,1442850,-2430,-28,-3169,8254
83946227,4007,0,0.3233914,-0.63431543,-10.169592,-0.034265615,-0.004194133,-0.057663597,57.883656,156.9064,0.0047884034,1442850,1830,-26,-3884,8261
84046227,3980,0,-1.1443672,-1.3922559,-9.854271,0.001779492,0.007243055,-0.054912195,57.853184,156.9064,0.0047884034,1442850,-1615,-289,-4352,8250
