timestamp,integral_dt,error_count,x,y,z,x_integral,y_integral,z_integral,temperature,range_m_s2,scaling,device_id,x_raw,y_raw,z_raw,temperature_raw
26648277,4000,0,0.37646782,0.37986863,-9.88918,0.004054649,-0.0049451836,-0.038032334,52.700832,156.9064,0.0047884034,1442850,35,186,-2102,6390
26752285,4008,0,-0.52174,0.91816443,-9.859192,0.0031757257,0.004163362,-0.036244947,52.720222,156.9064,0.0047884034,1442850,52,-787,-2063,6397
26852300,4017,0,0.006444552,0.9462674,-9.892191,0.00061830773,-0.0046531856,-0.03630388,52.74792,156.9064,0.0047884034,1442850,69,33,-1579,6407
26952291,4014,0,-0.33986914,-0.12656058,-9.888877,0.0048854155,0.00849814,-0.034319468,52.7036,156.9064,0.0047884034,1442850,-286,-689,-2143,6391
27056307,4030,0,-1.0695672,-2.4744775,-9.890617,0.0027565463,0.005992322,-0.03950581,52.722992,156.9064,0.0047884034,1442850,-471,-1240,-1582,6398
27156323,4046,0,-1.027244,-2.1916852,-9.644556,-0.005615525,-0.021418441,-0.03420522,52.7313,156.9064,0.0047884034,1442850,263,969,-2056,6401
27260285,4006,0,-0.9173195,-3.1065233,-10.066066,-0.0012542338,-0.008422021,-0.035015155,52.700832,156.9064,0.0047884034,1442850,70,-669,-2012,6390
27364277,4000,0,-0.19263098,-0.21517058,-9.8021555,0.009090159,0.019485245,-0.0335611,52.739613,156.9064,0.0047884034,1442850,-599,-1022,-1275,6404
27464292,4015,0,0.6204589,1.7861979,-9.570502,0.012069444,0.018152563,-0.03856271,52.761772,156.9064,0.0047884034,1442850,-201,-340,-2060,6412
27568277,3961,0,-0.81479174,-1.183783,-10.079454,-0.003949762,-0.0065798433,-0.035791464,52.736843,156.9064,0.0047884034,1442850,-11,20,-1218,6403
27668277,4000,0,1.3088877,0.61096823,-9.674153,0.008921102,-0.0049605845,-0.028601665,52.759003,156.9064,0.0047884034,1442850,93,-156,-1483,6411
27768277,3973,0,-1.1184703,-1.0044079,-10.009126,0.010686345,0.008079941,-0.041824512,52.76454,156.9064,0.0047884034,1442850,-837,-383,-1611,6413
27872277,3985,0,-0.7665347,-0.935558,-9.570201,0.014713095,0.022604588,-0.042385347,52.72576,156.9064,0.0047884034,1442850,-889,-1573,-1827,6399
27972246,3957,0,-0.5060186,0.6871106,-10.141005,0.014988955,0.00391891,-0.027514331,52.761772,156.9064,0.0047884034,1442850,-1274,462,-1242,6412
28072246,4000,0,0.9809074,1.15974,-9.801015,0.0037242416,0.029486133,-0.056810312,52.759003,156.9064,0.0047884034,1442850,223,-956,-1507,6411
28176252,4006,0,1.7137719,0.84881055,-9.276841,-0.0074766595,0.014893978,-0.035472803,52.753464,156.9064,0.0047884034,1442850,1236,-453,-3190,6409
28276245,3999,0,1.583455,-0.07744806,-9.331978,-0.011219081,0.018409975,-0.040636573,52.789474,156.9064,0.0047884034,1442850,1321,-713,-1980,6422
28380245,3999,0,-0.24612279,0.4061378,-9.301361,-0.017198358,-0.011144396,-0.04417422,52.759003,156.9064,0.0047884034,1442850,929,945,-2898,6411
28484252,3959,0,1.1078699,-0.11052411,-9.001858,-0.0074438276,0.0031278208,-0.033459518,52.756233,156.9064,0.0047884034,1442850,1102,-522,-3119,6410
28584290,4021,0,-0.5806847,0.10188889,-9.524699,0.014474573,-0.018773142,-0.018612612,52.781162,156.9064,0.0047884034,1442850,-799,726,-526,6419
28688330,4061,0,-3.2361176,-0.12939076,-9.151167,-0.022939783,-0.0036610633,-0.04920005,52.753464,156.9064,0.0047884034,1442850,-1243,-566,-3303,6409
28788269,4000,0,-0.2034803,0.1845176,-8.991084,-0.0074911276,-0.014652741,-0.018468328,52.76454,156.9064,0.0047884034,1442850,251,877,-1780,6413
28889076,4006,0,-2.9862056,0.00399966,-8.689097,0.026286937,0.0077919574,-0.064161874,52.772854,156.9064,0.0047884034,1442850,-3309,-908,-4371,6416
28989076,3999,0,2.0004103,0.6579359,-10.66857,-0.043954343,-0.0017988714,-0.028700665,52.76731,156.9064,0.0047884034,1442850,3421,191,-1242,6414
29093099,4030,0,0.9453882,0.16795151,-10.06239,-0.045937207,0.008774889,-0.06306557,52.778393,156.9064,0.0047884034,1442850,2948,-439,-2480,6418
29193096,4012,0,0.111398585,-0.08045782,-9.552638,0.047090083,0.004457215,-0.040632494,52.789474,156.9064,0.0047884034,1442850,-1113,-625,-2731,6422
29297071,3986,0,2.4656465,-0.37417352,-9.442936,-0.020453978,0.00075573334,-0.03061635,52.7867,156.9064,0.0047884034,1442850,3568,-319,-1655,6421
29397069,4000,0,-1.311599,-0.21253628,-8.784064,-0.023261726,0.008359924,-0.056211606,52.775623,156.9064,0.0047884034,1442850,-1590,-711,-3817,6417
29497845,4000,0,1.4397645,0.23765102,-10.529529,0.012679875,0.0011171524,-0.029450694,52.800552,156.9064,0.0047884034,1442850,1410,-465,-28,6426
29601852,4006,0,0.07868011,0.6007592,-10.4891205,0.014612382,-0.004872934,-0.04689996,52.789474,156.9064,0.0047884034,1442850,-436,-443,-2519,6422
29701852,4003,0,0.71976113,0.31170616,-10.095213,0.027004043,-0.008251809,-0.03986103,52.819942,156.9064,0.0047884034,1442850,193,61,-2377,6433
29801847,4001,0,0.838176,-0.09810634,-10.614595,-0.008812947,-0.007906666,-0.027271295,52.775623,156.9064,0.0047884034,1442850,1252,-131,-497,6417
29905845,4000,0,0.2584673,1.4714681,-10.68645,0.026315827,0.0033968245,-0.04718992,52.795013,156.9064,0.0047884034,1442850,261,44,-694,6424
30005868,3999,0,-0.0014005292,0.9668267,-10.1687765,-0.028584369,0.0087864185,-0.037223175,52.80332,156.9064,0.0047884034,1442850,1087,536,-2861,6427
30105869,3969,0,0.8931864,-0.46402583,-10.254197,0.006734633,-0.006926853,-0.033538945,52.817173,156.9064,0.0047884034,1442850,1876,259,-3075,6432
30210677,4796,0,0.72870797,-0.93425316,-9.191312,0.012237892,0.0020319847,-0.037687927,52.78393,156.9064,0.0047884034,1442850,1532,-1110,-958,6420
30310713,4036,0,-0.1555181,1.1119746,-9.887164,0.033060547,0.004020139,-0.019958593,52.761772,156.9064,0.0047884034,1442850,-1295,1262,607,6412
30410698,4021,0,-1.8493738,1.6575265,-10.246895,0.010456381,0.006694378,-0.04651127,52.778393,156.9064,0.0047884034,1442850,-2293,228,-1374,6418
30514677,4000,0,-0.59843606,0.23641472,-11.138132,0.035953782,-0.003789309,-0.049243376,52.792244,156.9064,0.0047884034,1442850,-2103,984,-2018,6423
30614677,4000,0,1.0199795,-0.47842264,-11.566766,0.009264917,-0.023347806,-0.0188281,52.811634,156.9064,0.0047884034,1442850,1051,1001,1236,6430
30714679,4002,0,-1.0392292,-0.4740934,-9.359229,-0.002779549,0.010094032,-0.043160476,52.839336,156.9064,0.0047884034,1442850,-1127,35,-5640,6440
30819470,3980,0,-1.2771661,1.068542,-9.930497,-0.0058063036,0.013662968,-0.045370948,52.80332,156.9064,0.0047884034,1442850,-1256,-189,-828,6427
30919494,4049,0,0.43444303,1.0118197,-9.407087,0.005099962,-9.594724e-05,-0.042809248,52.800552,156.9064,0.0047884034,1442850,-419,220,-4897,6426
31019452,4006,0,1.0342348,-0.10984299,-11.776815,-0.020855762,-0.0117852185,-0.054960154,52.814404,156.9064,0.0047884034,1442850,1799,752,-1308,6431
31123446,4000,0,0.0034533339,-2.0727935,-10.978965,-0.02954093,0.0044155493,-0.045402676,52.825485,156.9064,0.0047884034,1442850,1986,-1323,-1665,6435
31223445,3999,0,-1.4987663,0.3904616,-10.84026,0.030021021,0.0027009603,-0.060458727,52.836563,156.9064,0.0047884034,1442850,-2012,39,-1763,6439
31323445,3976,0,0.11133411,1.4076416,-9.73245,-0.028300557,0.021158822,-0.02393733,52.833794,156.9064,0.0047884034,1442850,623,-1576,-2347,6438
31427520,4036,0,-0.047393654,0.08886015,-9.717853,-0.021344746,0.005694857,-0.03192901,52.808865,156.9064,0.0047884034,1442850,-368,-1134,-3956,6429
31527485,4003,0,0.5673758,-1.1766574,-10.509529,0.007147106,-0.008006213,-0.038893294,52.819942,156.9064,0.0047884034,1442850,1218,39,-1056,6433
31628301,4024,0,0.08760423,-0.7341809,-8.710551,-0.021221966,0.0063446797,-0.023511995,52.797783,156.9064,0.0047884034,1442850,1185,-630,-2312,6425
31732312,4035,0,0.6425917,0.91201234,-8.985893,0.016858675,0.0025078952,-0.053936787,52.831024,156.9064,0.0047884034,1442850,554,-413,-1866,6437
31832279,4002,0,0.5628632,0.1664111,-9.375886,-0.023721095,-0.0046502734,-0.0083923545,52.819942,156.9064,0.0047884034,1442850,2245,-908,-2504,6433
31936277,3977,0,-0.034592893,-0.7900799,-10.425709,0.026672857,-0.012346247,-0.0497732,52.806095,156.9064,0.0047884034,1442850,-261,710,-1267,6428
32040277,4000,0,-1.4826916,0.66299504,-9.358894,0.0038784528,0.015305424,-0.062922485,52.836563,156.9064,0.0047884034,1442850,-2209,-714,-3076,6439
32140319,4043,0,-0.12276724,1.7968537,-10.290536,0.029590955,0.0072259065,-0.07757649,52.825485,156.9064,0.0047884034,1442850,-982,181,-1671,6435
32241069,3993,0,1.7529914,0.7830158,-10.502793,-0.0077566262,-0.005307312,-0.03987076,52.800552,156.9064,0.0047884034,1442850,2463,19,-1318,6426
32345052,4007,0,-0.287246,-0.76353955,-10.647778,0.025346197,-0.00945843,-0.037475407,52.814404,156.9064,0.0047884034,1442850,-895,593,-1113,6431
32445051,4006,0,-0.22014688,-0.3657408,-9.872865,-0.013117472,-0.0017544157,-0.0218129,52.817173,156.9064,0.0047884034,1442850,441,-1030,-970,6432
32545048,4002,0,-1.2391338,0.8691944,-8.487041,0.015882075,0.014322856,-0.036287077,52.770084,156.9064,0.0047884034,1442850,-2048,-727,-3292,6415
32649081,3997,0,0.13302983,0.0045831646,-9.737094,-0.026962135,-0.0004735894,-0.035495386,52.808865,156.9064,0.0047884034,1442850,1411,-199,-3670,6429
32753884,4839,0,0.43864778,-0.62345713,-11.383231,0.0107079055,-0.011057592,-0.028080339,52.789474,156.9064,0.0047884034,1442850,190,-18,-35,6422
32853891,4001,0,-0.990072,0.34742287,-10.549836,0.024098538,0.008249637,-0.079652034,52.80332,156.9064,0.0047884034,1442850,-2403,302,-2652,6427
32957894,4018,0,0.53357756,0.9938628,-9.17948,-0.007968588,0.00092263706,-0.008295707,52.828255,156.9064,0.0047884034,1442850,1137,-1312,-3383,6436
33057883,4006,0,0.6621648,0.78048974,-10.066603,-0.033357896,-0.0088333,-0.0727528,52.817173,156.9064,0.0047884034,1442850,1947,828,-4129,6432
33157889,3997,0,0.15767947,-0.75466746,-11.476482,-0.010841654,-0.020614984,-0.0074281646,52.831024,156.9064,0.0047884034,1442850,2055,-416,1245,6437
33261877,3964,0,-0.9623224,0.6949382,-10.918272,0.030871343,-0.004988997,-0.03023697,52.797783,156.9064,0.0047884034,1442850,-1653,-371,367,6425
33361883,4006,0,-1.2929534,0.4630321,-9.383698,-0.012775634,0.016399104,-0.03671114,52.828255,156.9064,0.0047884034,1442850,-1835,-1621,-2798,6436
33462670,3999,0,-0.5652353,0.5248162,-9.7120495,-0.042566873,0.0074938852,-0.029603444,52.817173,156.9064,0.0047884034,1442850,-240,-881,-2285,6432
33566670,4001,0,-0.1741525,-0.3576436,-9.099876,0.028535707,0.0026264142,-0.050367817,52.806095,156.9064,0.0047884034,1442850,-1181,539,-2773,6428
33666669,3993,0,-1.1062431,0.89715785,-8.472813,0.032706417,0.0044644186,-0.035831235,52.789474,156.9064,0.0047884034,1442850,-1893,115,-2167,6422
33766646,3928,0,1.0174526,0.6152111,-8.047074,-0.022861851,-0.0020755813,-0.040082403,52.80332,156.9064,0.0047884034,1442850,2242,-870,-2899,6427
33870651,4001,0,-1.8929228,-0.21370922,-8.924226,0.02997328,0.0073719854,-0.06012586,52.842106,156.9064,0.0047884034,1442850,-3074,-11,-2523,6441
33970678,4033,0,-0.49646053,-0.55411255,-8.454304,0.033369895,0.0042084293,-0.052722134,52.842106,156.9064,0.0047884034,1442850,-1559,-341,-2745,6441
34074646,4001,0,1.4792544,1.3885452,-8.181931,-0.01767429,0.0012110824,-0.042640522,52.814404,156.9064,0.0047884034,1442850,2941,-12,-2407,6431
35300247,3995,0,-0.55943674,1.8197669,-10.239787,-0.011560993,-0.00013635121,-0.039706983,52.880886,156.9064,0.0047884034,1442850,-948,965,-1945,6455
35400246,3994,0,1.5321608,0.26752174,-11.148662,-0.01221157,-0.0056814374,-0.04779428,52.875347,156.9064,0.0047884034,1442850,1888,747,-161,6453
35501070,3994,0,1.2048341,-1.3527507,-11.363236,0.0005239267,-0.020199876,-0.003174923,52.889194,156.9064,0.0047884034,1442850,2025,1645,704,6458
35601083,4014,0,0.3163371,-0.7351593,-11.096621,-0.002719839,-0.00067717023,-0.0060406933,52.847645,156.9064,0.0047884034,1442850,1819,-630,-589,6443
35705077,3992,0,0.07548695,1.8122853,-8.676923,0.00054783816,0.007447606,-0.051087808,52.930748,156.9064,0.0047884034,1442850,-424,-8,-4060,6473
35805077,3968,0,-0.77395487,1.9970721,-9.766916,0.017971506,-0.0035100332,-0.056383304,52.894737,156.9064,0.0047884034,1442850,-1964,266,-2941,6460
35905077,3994,0,-0.60602117,1.0711136,-10.949211,0.02824369,-0.010738414,-0.04417173,52.880886,156.9064,0.0047884034,1442850,-2140,848,-3736,6455
36009077,4000,0,0.77659196,-1.2421664,-11.06829,-0.031955548,0.00013922824,-0.027294952,52.897507,156.9064,0.0047884034,1442850,2630,219,-2150,6461
36109083,4000,0,-0.43421954,-0.19202478,-9.822168,-0.023880905,-0.00062663597,-0.01839356,52.897507,156.9064,0.0047884034,1442850,706,-744,-3466,6461
36209870,4000,0,-1.2109237,1.6215487,-9.42641,0.012493603,0.020641353,-0.07539894,52.861496,156.9064,0.0047884034,1442850,-2432,-543,-4245,6448
36313869,4000,0,1.1672461,0.7250381,-10.583595,-0.018489616,-0.0074717407,-0.02544203,52.886425,156.9064,0.0047884034,1442850,2284,-128,-1089,6457
36413881,4011,0,0.7146298,-0.27307594,-11.428623,-0.008898158,-0.0053755445,-0.045597814,52.891968,156.9064,0.0047884034,1442850,372,393,-590,6459
36517869,3984,0,-0.7571973,-0.9636307,-10.85452,0.032524806,0.007554497,-0.06497735,52.905815,156.9064,0.0047884034,1442850,-1493,145,-1860,6464
36617861,4009,0,-1.529993,0.7404744,-9.903373,0.04879736,-0.000603608,-0.034179524,52.875347,156.9064,0.0047884034,1442850,-2084,-147,-3522,6453
36717845,3993,0,-0.64046425,1.7689316,-8.391739,-0.005250736,0.023259912,-0.06248284,52.916897,156.9064,0.0047884034,1442850,-1375,-651,-3454,6468
36821851,3968,0,-0.38479626,-0.051332965,-9.11533,0.001043713,-0.017134136,-0.032375015,52.894737,156.9064,0.0047884034,1442850,-578,-44,-4434,6460
36922676,4005,0,1.2297006,-0.930068,-9.629225,-0.014446519,-0.00602157,-0.028025843,52.914127,156.9064,0.0047884034,1442850,1892,337,-2468,6467
37022669,4000,0,-1.3303099,-0.3768204,-9.341137,0.02641081,0.01187779,-0.05721529,52.905815,156.9064,0.0047884034,1442850,-1959,-524,-2740,6464
37126677,4001,0,-0.85428727,1.4028348,-8.450694,-0.021903297,0.019727955,-0.04502523,52.894737,156.9064,0.0047884034,1442850,-953,-1704,-1869,6460
37230676,3993,0,-0.67361474,0.9053885,-9.80002,-0.0045615686,-0.002532255,-0.028749242,52.933517,156.9064,0.0047884034,1442850,-994,1086,-1765,6474
37330677,3994,0,0.20371625,-0.96731126,-10.645509,0.02349528,0.00033694739,-0.040451415,52.891968,156.9064,0.0047884034,1442850,-747,712,418,6459
37534683,3962,0,-0.14427607,1.5113455,-9.511127,-0.015085008,0.01854081,-0.03643763,52.914127,156.9064,0.0047884034,1442850,858,-399,-1736,6467
37635469,3961,0,-0.46322536,2.3886092,-10.126633,0.03700629,-0.0059615774,-0.019684073,52.897507,156.9064,0.0047884034,1442850,-1752,1505,38,6461
37735470,4001,0,-1.1040941,0.85276747,-9.792038,-0.009837167,-0.00393714,-0.020221544,52.9446,156.9064,0.0047884034,1442850,-1824,419,-1876,6478
37839469,4000,0,-0.3594435,-1.4219462,-9.907308,-0.04090313,0.011439893,-0.049227115,52.92798,156.9064,0.0047884034,1442850,618,-99,-2285,6472
37939469,3999,0,-0.35803613,-0.46853134,-9.902964,0.03918931,0.015786286,-0.040609106,52.911358,156.9064,0.0047884034,1442850,-1299,-378,-2251,6466
38043446,4001,0,-0.56605166,1.8901185,-9.212676,0.029662682,0.008717611,-0.023844132,52.92521,156.9064,0.0047884034,1442850,-1161,-204,216,6471
38143466,4014,0,-0.77012116,1.2152469,-8.80091,-0.031563226,0.004013444,-0.036105197,52.922436,156.9064,0.0047884034,1442850,79,-561,-1882,6470
38244321,4046,0,1.9550351,-0.5308095,-9.728033,0.00545846,-0.021048596,-0.018585363,52.930748,156.9064,0.0047884034,1442850,1920,366,-2375,6473
38344269,4000,0,-1.2600515,-1.5300412,-9.701463,0.0070249024,-0.00651878,-0.041151993,52.9446,156.9064,0.0047884034,1442850,-1335,-604,-2605,6478
38448276,4000,0,-1.0127457,0.62193424,-8.30911,-0.0015688534,0.0109700225,-0.04221925,52.941826,156.9064,0.0047884034,1442850,-1276,-271,-2588,6477
38548277,3994,0,0.42556626,1.9125451,-8.876553,-0.02886708,0.01637508,-0.024177393,52.955677,156.9064,0.0047884034,1442850,1029,-691,-665,6482
38652283,3979,0,-0.887603,0.5938172,-9.283813,-0.026573535,0.011469163,-0.05144048,52.941826,156.9064,0.0047884034,1442850,-518,-122,-3370,6477
38752277,3975,0,0.5163412,-1.4479125,-9.592975,-0.0345326,0.0024434393,-0.0418585,52.919666,156.9064,0.0047884034,1442850,2122,-1025,-2845,6469
38852303,4020,0,0.67341435,-1.6855997,-9.474224,-0.025373673,0.007975301,-0.01296486,52.950138,156.9064,0.0047884034,1442850,2126,-1607,-1219,6480
38957078,3989,0,-1.4054914,2.030348,-9.325795,0.012221254,0.022658397,-0.069288805,52.922436,156.9064,0.0047884034,1442850,-2385,213,-2365,6470
39057069,4000,0,-1.2954531,2.157216,-9.061736,-0.013189215,0.016886387,-0.08010821,52.939056,156.9064,0.0047884034,1442850,-1689,-717,-3775,6476
39157069,3994,0,-1.1464803,1.2544708,-9.458578,0.0032539582,0.0070810164,-0.07102013,52.950138,156.9064,0.0047884034,1442850,-2139,220,-3520,6480
39261069,4000,0,0.15792084,-1.1339995,-11.529151,0.026565664,-0.015914638,-0.044443943,52.952908,156.9064,0.0047884034,1442850,-169,1184,-427,6481
39361088,4036,0,-0.16428848,-0.6259293,-10.538566,0.025250487,-0.0037221503,-0.07041601,52.97784,156.9064,0.0047884034,1442850,-228,157,-2646,6490
39461046,3978,0,-0.691484,0.8063754,-9.516345,0.03896838,0.010594968,-0.051857434,52.96122,156.9064,0.0047884034,1442850,-1464,37,-3040,6484
39565869,4000,0,-0.18346162,1.3551905,-9.551865,-0.0071030706,0.006031276,-0.03659361,52.96676,156.9064,0.0047884034,1442850,-364,219,-1965,6486
39665875,4006,0,-0.1629824,0.10924344,-9.298556,-0.017859716,-0.0028053506,-0.03761342,52.941826,156.9064,0.0047884034,1442850,241,844,-3450,6477
39765880,4000,0,-0.096547425,-1.6286645,-9.244809,-0.03672362,0.008461962,-0.03336575,52.96399,156.9064,0.0047884034,1442850,898,-420,-3403,6485
39869877,3969,0,-1.9024963,0.15395209,-9.6444645,0.024295114,0.022913925,-0.07135445,52.955677,156.9064,0.0047884034,1442850,-2823,-740,-3054,6482
39969884,4007,0,-1.3464081,1.1241289,-7.9989047,-0.0015958566,0.01882223,-0.0694802,52.952908,156.9064,0.0047884034,1442850,-1505,-594,-4623,6481
40073877,3994,0,0.032658435,1.3119657,-10.389648,0.04380308,-0.0030263413,-0.07161276,52.99446,156.9064,0.0047884034,1442850,-2081,776,-2674,6496
40177877,4000,0,1.2253013,-0.68864304,-11.411882,0.01855177,-0.017488433,-0.013003867,52.98061,156.9064,0.0047884034,1442850,1485,520,1178,6491
40278669,3999,0,-0.42478758,-0.06561623,-10.84748,0.026940813,-0.0072300183,-0.002198298,53.0,156.9064,0.0047884034,1442850,-253,279,-749,6498
40378670,4001,0,0.58473295,1.2678704,-10.29219,0.011503528,0.01317685,-0.0397924,52.98892,156.9064,0.0047884034,1442850,573,27,-238,6494
40482669,3934,0,-0.7208547,1.7783142,-10.036554,-0.010733158,-0.004760314,-0.04257045,52.96399,156.9064,0.0047884034,1442850,-447,685,-3284,6485
40582685,4016,0,-0.55457187,0.7656952,-10.706948,0.010751411,-0.015703395,-0.037207305,52.96399,156.9064,0.0047884034,1442850,-1537,1093,-3362,6485
40682670,3988,0,-0.2408287,-0.71346223,-9.623483,0.023783473,-0.0068079135,-0.042445052,52.99723,156.9064,0.0047884034,1442850,-1088,540,-4530,6497
40786645,3999,0,0.849073,0.63554317,-10.766961,0.0036122017,-0.0033222307,-0.03481595,53.02493,156.9064,0.0047884034,1442850,1425,359,1125,6507
40887469,3994,0,0.24716388,1.7441118,-10.353667,0.011031912,-0.010728561,-0.024739685,52.98892,156.9064,0.0047884034,1442850,1243,319,463,6494
40987469,3977,0,0.94827545,1.7552139,-10.627282,0.023777148,-0.02061957,-0.03778073,52.991688,156.9064,0.0047884034,1442850,-153,1783,-787,6495
41091482,4013,0,1.3963631,-1.418261,-9.844925,-0.014826065,-0.00975951,-0.026537593,53.01939,156.9064,0.0047884034,1442850,2597,-108,-1807,6505
41191495,4010,0,0.102850914,-0.90723276,-9.946324,0.0052837036,-0.0020552147,-0.025641464,52.975067,156.9064,0.0047884034,1442850,684,-613,-1302,6489
41291477,4000,0,0.5585694,0.8676932,-9.315123,0.010495858,-0.0042754724,-0.037111826,53.00554,156.9064,0.0047884034,1442850,990,286,-1959,6500
41395493,4016,0,1.1847701,1.7916873,-9.624734,-0.025253318,-0.004209835,-0.015490163,52.98061,156.9064,0.0047884034,1442850,2160,1475,-1405,6491
41495477,3987,0,0.7054517,-0.013786881,-10.755848,-0.0070238,-0.0076033766,-0.028418718,53.06094,156.9064,0.0047884034,1442850,407,320,356,6520
41599477,3990,0,-0.66219676,-0.982393,-9.670844,0.009406507,-0.0009969114,-0.03582385,53.02493,156.9064,0.0047884034,1442850,-564,-904,-1741,6507
41700270,3982,0,-1.140665,0.75704855,-8.992598,0.0412313,0.008741044,-0.04252296,53.04155,156.9064,0.0047884034,1442850,-1875,-1158,-2510,6513
41800269,4000,0,-0.3437638,1.4603165,-9.333039,0.039520852,0.002551809,-0.048016936,53.05817,156.9064,0.0047884034,1442850,-1814,368,-3469,6519
41904269,4000,0,1.3908751,-0.29391533,-10.264168,-0.019764002,-0.0035925903,-0.029405514,53.02493,156.9064,0.0047884034,1442850,2809,-6,-1662,6507
42004269,4000,0,0.9793114,-0.87070227,-9.919792,-0.020783722,-0.0017308323,-0.027320404,53.00554,156.9064,0.0047884034,1442850,1828,277,-2040,6500
42104245,3938,0,-0.4533054,-0.97508407,-9.878652,-0.012078928,0.010821202,-0.023806999,53.0554,156.9064,0.0047884034,1442850,646,-227,-2298,6518
42208269,4023,0,-0.09486224,1.3233905,-9.091133,0.005505689,0.002535039,-0.041455634,53.04155,156.9064,0.0047884034,1442850,-1038,-705,-2483,6513
42308245,4000,0,0.13041063,1.5523503,-9.352795,0.02183479,-0.0042978814,-0.026123505,53.00277,156.9064,0.0047884034,1442850,-1112,667,-630,6499
42409076,4007,0,-0.041964415,0.44034064,-10.327824,0.042663764,-0.00975203,-0.022240415,53.00277,156.9064,0.0047884034,1442850,-1102,1070,-1641,6499
42513083,4014,0,0.13313836,-1.1425563,-9.659934,-0.034458626,0.008716019,-0.039134674,53.04155,156.9064,0.0047884034,1442850,2020,-936,-4056,6513
42613077,4000,0,0.005000515,-0.14972964,-9.07356,-0.031530667,0.018598761,-0.03719668,53.00277,156.9064,0.0047884034,1442850,2150,-781,-5157,6499
42713118,4041,0,-0.34951335,1.1647265,-8.759539,-0.004520154,0.016945984,-0.045972824,53.02493,156.9064,0.0047884034,1442850,-132,-997,-3345,6507
42817093,4001,0,-0.51331925,1.120358,-10.604235,0.035597518,-0.0077683055,-0.035954423,53.01108,156.9064,0.0047884034,1442850,-1682,1917,-1590,6502
42917077,3994,0,-0.20973054,-0.47839275,-11.14418,0.03113033,-0.011643661,-0.045757905,53.01385,156.9064,0.0047884034,1442850,-1403,1140,-630,6503
43017870,4000,0,-0.23286377,-1.2313514,-11.037433,0.03135589,-0.013378818,-0.03260081,53.03601,156.9064,0.0047884034,1442850,-430,-256,148,6511
43121870,4000,0,-0.8419281,0.3574222,-8.6425905,-0.023494419,0.0190956,-0.040554237,53.02493,156.9064,0.0047884034,1442850,-25,-1189,-3247,6507
43221869,4000,0,-0.4374491,1.549946,-7.9296894,-0.031314716,0.018308729,-0.061835762,53.04155,156.9064,0.0047884034,1442850,373,-703,-6336,6513
43321869,3939,0,-0.90512544,1.0858746,-9.099972,-0.0100465035,0.01600958,-0.060961157,53.07202,156.9064,0.0047884034,1442850,-1662,-418,-3354,6524
43425873,3988,0,0.28986743,-0.5610843,-11.079048,0.033175975,-0.010236629,-0.043149114,53.01939,156.9064,0.0047884034,1442850,-1418,1047,237,6505
43525845,4000,0,0.09620956,-1.0164464,-10.508991,0.030727787,-0.009654219,-0.029430162,53.06094,156.9064,0.0047884034,1442850,-137,1179,-961,6520
43629846,3994,0,0.721634,0.36038917,-8.25247,-0.022439143,0.007864487,-0.021160137,53.063713,156.9064,0.0047884034,1442850,2453,-1081,-3664,6521
43730671,4001,0,-0.5120728,1.5713083,-8.724062,-0.029721076,0.0076485625,-0.03894738,53.03324,156.9064,0.0047884034,1442850,209,-57,-2890,6510
43830673,4004,0,0.71502405,0.5922279,-9.499404,-0.027297176,-0.003561494,-0.0555723,53.049862,156.9064,0.0047884034,1442850,1110,-811,-1813,6516
43930722,4046,0,0.98937416,-1.1135103,-9.450541,-0.035808142,0.0004756439,-0.04172588,53.07202,156.9064,0.0047884034,1442850,1948,-280,-3931,6524
44034677,4000,0,-0.9334693,-0.2737974,-10.018165,0.024740208,0.002287406,-0.030580584,53.04155,156.9064,0.0047884034,1442850,-2113,373,-1348,6513
44134677,3994,0,-1.3896439,0.9915628,-9.599978,0.01703981,0.012116188,-0.03397904,53.03601,156.9064,0.0047884034,1442850,-3128,24,-1605,6511
44238677,4000,0,1.4572983,1.4353393,-10.179862,0.009761874,-0.01147821,-0.032972403,53.01108,156.9064,0.0047884034,1442850,1452,4,385,6502
44342679,3996,0,0.3134442,-1.1606314,-9.814512,-0.03083158,-0.0012743578,-0.044977974,53.063713,156.9064,0.0047884034,1442850,1088,610,-3737,6521
44442705,4022,0,-0.4458631,-1.2552574,-10.066991,-0.03475271,0.0029507135,-0.042418867,53.07756,156.9064,0.0047884034,1442850,917,-585,-902,6526
44543482,4013,0,-0.7729577,0.67342067,-9.393507,0.00048564933,0.0130363805,-0.0416604,53.05263,156.9064,0.0047884034,1442850,-1417,-809,-1601,6517
44647469,4000,0,0.16410898,1.911677,-10.058188,0.036577057,-0.013898767,-0.03589508,53.047092,156.9064,0.0047884034,1442850,-988,951,-1529,6515
44747469,4000,0,0.7114174,0.9290079,-10.889378,0.029511027,-0.022314426,-0.04160259,53.07479,156.9064,0.0047884034,1442850,-101,1372,-98,6525
44847446,4001,0,0.77910113,-0.3625743,-11.500774,0.025386062,-0.024625352,-0.021978715,53.07756,156.9064,0.0047884034,1442850,85,1472,281,6526
44951445,3981,0,-0.7045804,-0.87314147,-8.800927,-0.036907047,0.017332347,-0.025533028,53.080334,156.9064,0.0047884034,1442850,140,-1395,-2476,6527
45051461,3975,0,-0.5469183,0.2627369,-8.109952,-0.021574145,0.017968712,-0.027314505,53.0554,156.9064,0.0047884034,1442850,-127,-915,-2922,6518
45152289,3977,0,-0.9016557,1.7614102,-8.539554,-0.0029732315,0.022221953,-0.059039067,53.085873,156.9064,0.0047884034,1442850,-2533,-733,-3805,6529
45256335,4058,0,1.3877546,0.08085323,-10.831148,0.0036560548,-0.024627235,-0.062338427,53.04432,156.9064,0.0047884034,1442850,1406,200,-1582,6514
45360283,4006,0,-0.0633319,-0.8916367,-9.550708,-0.02196022,0.004024406,-0.024867762,53.09141,156.9064,0.0047884034,1442850,976,-279,-3878,6531
45460277,4000,0,-0.6901017,-0.20840356,-9.697871,-0.015726844,0.014309727,-0.039585188,53.07756,156.9064,0.0047884034,1442850,-328,-1174,-1664,6526
45564277,3998,0,0.8856951,1.5577267,-9.476388,-0.0011971993,-0.007210455,-0.03036944,53.085873,156.9064,0.0047884034,1442850,1089,1076,-1906,6529
45664277,3989,0,0.19683778,1.0070643,-10.813424,-0.002743279,-0.01706207,-0.020943329,53.04432,156.9064,0.0047884034,1442850,500,1536,-272,6514
45768279,4002,0,-0.598572,-1.6157411,-9.352967,-0.006349382,-0.011215615,-0.03705763,53.07479,156.9064,0.0047884034,1442850,-486,-217,-2757,6525
45869080,4010,0,-0.16073702,-0.48754224,-9.492404,0.039148483,0.003341476,-0.04120021,53.119114,156.9064,0.0047884034,1442850,-1059,-502,-2242,6541
45969069,4000,0,0.65500575,1.0794115,-9.999535,0.0037395246,-0.005947391,-0.021666918,53.09695,156.9064,0.0047884034,1442850,1530,-624,-774,6533
46069070,4001,0,1.6230178,1.4828551,-9.309916,-0.0034203362,-0.012292312,0.0027813895,53.102493,156.9064,0.0047884034,1442850,2165,-158,-1518,6535
46173045,4000,0,-1.156321,-0.093301706,-9.595066,-0.0069206776,0.0115822125,-0.06318539,53.102493,156.9064,0.0047884034,1442850,-1836,-218,-3777,6535
46273045,4000,0,-1.4219981,-1.2190273,-10.014437,-0.012885093,0.010878824,-0.04936023,53.09141,156.9064,0.0047884034,1442850,-1077,-498,-3070,6531
46377046,3975,0,-0.16087635,-0.07195596,-10.462457,0.025175925,0.00096368324,-0.03430986,53.083103,156.9064,0.0047884034,1442850,-461,856,1143,6528
46477882,4013,0,0.75008464,1.5920988,-10.039202,0.021603964,-0.007917072,-0.014664244,53.080334,156.9064,0.0047884034,1442850,434,633,264,6527
46577883,4013,0,1.2473304,1.7070175,-9.979678,0.0035463017,-0.007166828,-0.02281834,53.102493,156.9064,0.0047884034,1442850,1397,399,-524,6535
46681877,3997,0,0.18490243,-1.16963,-9.0679245,-0.03310781,0.004421897,-0.053962484,53.13019,156.9064,0.0047884034,1442850,695,-942,-3438,6545
46785883,3984,0,-1.0903617,-0.35991818,-10.388273,0.026269015,0.009521541,-0.06571175,53.146812,156.9064,0.0047884034,1442850,-1941,-57,-1497,6551
46885877,4000,0,-1.264576,0.81252635,-9.779928,0.021504017,0.015631339,-0.06252013,53.149586,156.9064,0.0047884034,1442850,-2419,-1215,-2534,6552
46989877,3995,0,1.1398892,1.977452,-10.181734,0.0088624805,-0.009698154,-0.018913878,53.127422,156.9064,0.0047884034,1442850,1447,990,-1539,6544
47089877,4000,0,1.6539773,0.2845202,-10.382442,0.009793629,-0.018356103,-0.007134706,53.141273,156.9064,0.0047884034,1442850,1881,1069,-751,6549
47189877,4000,0,0.881092,-1.3178442,-10.798239,-0.0014042282,-0.018985325,-0.018212605,53.132965,156.9064,0.0047884034,1442850,1431,86,-1388,6546
47290675,4005,0,0.79587746,-1.5472429,-9.445101,-0.019736543,0.00055434415,-0.041062474,53.155125,156.9064,0.0047884034,1442850,2255,-1052,-2131,6554
47394669,3996,0,-1.3064631,0.7742646,-9.318957,-0.02730714,0.025774464,-0.06530151,53.141273,156.9064,0.0047884034,1442850,-898,-1272,-2889,6549
47494646,3931,0,-0.9889565,2.1985328,-9.589938,-0.0042006923,0.01121006,-0.059400488,53.146812,156.9064,0.0047884034,1442850,-1855,166,-2601,6551
47598645,4000,0,0.66333973,-0.1091789,-10.870766,0.03780593,-0.011097118,-0.034999218,53.138504,156.9064,0.0047884034,1442850,-916,615,-648,6548
47698673,4027,0,0.11312807,-1.2707958,-10.618545,0.019157132,-0.01657411,-0.044496622,53.155125,156.9064,0.0047884034,1442850,-147,-82,-1470,6554
47798645,3983,0,-0.6099291,-0.7852116,-10.186459,0.039017923,-0.0048975004,-0.036298193,53.160664,156.9064,0.0047884034,1442850,-1393,123,-2375,6556
47899477,4001,0,0.34182918,1.3250374,-10.120936,0.030378725,-0.004326895,-0.021000156,53.146812,156.9064,0.0047884034,1442850,-192,645,-1483,6551
48003484,4007,0,1.1699302,0.89786637,-8.65448,-0.020838592,-0.006962211,-0.031910688,53.13019,156.9064,0.0047884034,1442850,2194,-92,-2677,6545
48103477,3994,0,1.1490453,-0.37362844,-9.497212,-0.024248833,-0.0047331285,-0.011514187,53.132965,156.9064,0.0047884034,1442850,1715,50,-1475,6546
48207477,3962,0,-0.5441025,-0.88165665,-9.227077,-0.010466931,0.014139203,-0.07715511,53.152355,156.9064,0.0047884034,1442850,-569,-682,-4679,6553
48307479,4002,0,-1.4993292,0.36070552,-8.803906,-0.0058284793,0.024360852,-0.07407464,53.180054,156.9064,0.0047884034,1442850,-1811,-1515,-4166,6563
48407477,4000,0,-0.99054974,1.1160078,-8.761116,0.015450391,0.023934545,-0.06990597,53.160664,156.9064,0.0047884034,1442850,-2076,-1302,-3220,6556
48512277,4002,0,0.3517008,0.822261,-10.774723,-0.0031575738,-0.019585077,-0.009304234,53.163433,156.9064,0.0047884034,1442850,636,1002,66,6557
48612276,4006,0,0.7398391,-0.64059436,-11.122953,0.0028675436,-0.017802939,0.0019585872,53.163433,156.9064,0.0047884034,1442850,1110,501,915,6557
48712269,3963,0,-0.20493163,-1.2162043,-10.391243,-0.036676683,-0.0111441035,-0.013635142,53.174515,156.9064,0.0047884034,1442850,1101,63,-785,6561
48816256,4011,0,-0.33259535,1.5356632,-9.019775,0.029780071,0.015086009,-0.061208498,53.182823,156.9064,0.0047884034,1442850,-1281,-329,-2208,6564
48916245,3974,0,0.64945096,2.3816848,-9.684525,0.038438454,0.0015459072,-0.061736017,53.180054,156.9064,0.0047884034,1442850,-530,505,-2438,6563
49016265,3995,0,0.6528424,2.1554537,-11.070572,0.028276019,-0.0077293315,-0.059713136,53.196674,156.9064,0.0047884034,1442850,-178,1101,-179,6569
49120258,4013,0,1.9023111,-1.1537371,-9.865155,-0.031775557,-0.014275247,-0.010574989,53.191135,156.9064,0.0047884034,1442850,3184,-166,-2499,6567
49220310,4034,0,1.2200875,-1.6020489,-9.72088,-0.008108593,-0.00807457,-0.016102757,53.182823,156.9064,0.0047884034,1442850,2214,30,-992,6564
49324269,3987,0,-0.68033415,0.2196574,-8.94661,-0.031119393,0.014008421,-0.046368726,53.168976,156.9064,0.0047884034,1442850,1156,-939,-2781,6559
49425077,4000,0,0.14387695,1.3713082,-9.283861,-0.031398375,0.0071093044,-0.029551364,53.160664,156.9064,0.0047884034,1442850,1456,16,-1309,6556
49525077,4000,0,1.371689,0.7384695,-10.550867,-0.0152459,-0.013415424,-0.007003765,53.171745,156.9064,0.0047884034,1442850,2776,487,-649,6560
49625077,3984,0,1.1021677,-0.40071234,-11.049865,0.019300843,-0.02314019,-0.034766134,53.224377,156.9064,0.0047884034,1442850,269,905,-288,6579
49729077,3984,0,0.5343803,-1.428867,-9.714459,-0.02461056,0.0077187098,-0.04209195,53.177284,156.9064,0.0047884034,1442850,2646,-1513,-2628,6562
49829077,3994,0,1.1388289,0.20429708,-9.866098,0.0028579952,0.0024197483,-0.033889916,53.188366,156.9064,0.0047884034,1442850,2166,245,-1426,6566
49929870,4000,0,0.9342231,2.4098835,-10.613328,0.016273733,0.00031800737,-0.02636213,53.193905,156.9064,0.0047884034,1442850,1050,176,1241,6568
50033896,4027,0,0.8042056,0.79944676,-9.307016,-0.009945305,-0.003013812,-0.030579438,53.207756,156.9064,0.0047884034,1442850,833,448,-2245,6573
50133845,3999,0,0.7306003,-0.4123922,-10.841468,0.0010207768,-0.0044375258,-0.04987032,53.207756,156.9064,0.0047884034,1442850,468,915,-2633,6573
50237846,4000,0,0.12532143,-0.16344206,-9.665125,-0.028615188,0.006537862,-0.03290803,53.193905,156.9064,0.0047884034,1442850,1672,-431,-1025,6568
50337846,4001,0,1.0773216,1.2084363,-9.430143,0.01547368,0.0102121625,-0.031304896,53.221607,156.9064,0.0047884034,1442850,1028,659,-1004,6578
50437877,4031,0,-0.31111878,2.316867,-9.458059,0.0346148,0.007660034,-0.06702655,53.196674,156.9064,0.0047884034,1442850,-1376,661,-3537,6569
50541885,4010,0,1.0298339,-0.24949293,-10.722091,0.017877303,-0.024907075,-0.031745855,53.221607,156.9064,0.0047884034,1442850,675,945,-1982,6578
50641869,3994,0,-0.8954627,-1.2613878,-9.413772,-0.009745564,0.009775198,-0.04646726,53.268696,156.9064,0.0047884034,1442850,-828,-583,-2683,6595
50741884,4010,0,0.37726957,-0.94100255,-9.086122,-0.025986116,0.011224648,-0.026122095,53.23546,156.9064,0.0047884034,1442850,1934,-990,-3131,6583
50846677,4000,0,0.1548434,1.4899553,-8.248957,-0.03481428,0.0151156,-0.03304686,53.232685,156.9064,0.0047884034,1442850,619,-1848,-3606,6582
50946677,3985,0,1.7474899,1.9319609,-10.355877,-0.00068723597,-0.008721966,-0.045703236,53.249306,156.9064,0.0047884034,1442850,2250,393,-1514,6588
51046687,4003,0,0.38716987,0.970032,-11.169052,0.04161053,-0.012987488,-0.03484043,53.243767,156.9064,0.0047884034,1442850,-1988,1051,1018,6586
51150683,3991,0,0.37699422,-1.2801391,-10.244354,0.010697147,-0.00027012336,-0.049537368,53.213295,156.9064,0.0047884034,1442850,1338,682,-1458,6575
51250701,4018,0,-1.6411582,0.3404407,-10.009139,0.035834093,0.0074831573,-0.033418465,53.227146,156.9064,0.0047884034,1442850,-2568,790,-1581,6580
51350677,3965,0,-0.24003772,0.6778619,-8.410523,-0.033739667,0.014134211,-0.022600736,53.260387,156.9064,0.0047884034,1442850,421,-1602,-2482,6592
51455453,4007,0,-0.9058847,1.4526662,-9.777859,-0.009304997,-0.0033518188,-0.039489955,53.249306,156.9064,0.0047884034,1442850,-1219,1124,-3241,6588
51559445,3994,0,-0.9683584,-1.4857864,-9.909528,-0.023079231,-0.0067622215,-0.06661121,53.224377,156.9064,0.0047884034,1442850,-335,373,-4659,6579
51659445,4000,0,0.84518635,-1.2140906,-10.707167,-0.018435724,-0.00014169491,-0.019625077,53.257618,156.9064,0.0047884034,1442850,2425,-152,1354,6591
51763465,4019,0,0.405675,0.9457501,-8.670943,-0.031426325,0.018883053,-0.046651937,53.246536,156.9064,0.0047884034,1442850,1944,-1178,-2244,6587
51863469,4000,0,1.0344194,2.1554801,-10.281577,-0.008336302,-0.008794118,-0.038448237,53.257618,156.9064,0.0047884034,1442850,2163,653,-1694,6591
51963476,4007,0,0.080777615,1.274315,-10.314146,0.03285312,-0.0056899115,-0.040989693,53.265926,156.9064,0.0047884034,1442850,-1946,270,-268,6594
52067469,3994,0,0.28246957,-1.4063241,-10.318688,0.018504364,-0.0012744535,-0.061528537,53.252075,156.9064,0.0047884034,1442850,156,45,-1525,6589
52167514,4045,0,-1.0976614,-1.3411179,-10.499536,0.024057768,0.004533211,-0.045729466,53.277008,156.9064,0.0047884034,1442850,-2333,-100,-900,6598
52268287,4010,0,-1.1152929,0.23272766,-8.73506,0.02270209,0.013233751,-0.028994344,53.282547,156.9064,0.0047884034,1442850,-2526,-1250,-3534,6600
52372277,3994,0,0.13853417,2.3738952,-10.290455,0.031462267,0.0020788154,-0.0698507,53.229916,156.9064,0.0047884034,1442850,-1151,774,-2877,6581
52472277,3994,0,-0.80689025,1.7548864,-10.645048,0.014422936,-0.00060063764,-0.07261652,53.27424,156.9064,0.0047884034,1442850,-2614,993,-669,6597
52572277,3994,0,-0.13889964,-0.6465559,-9.558852,-0.025916303,-2.1501794e-05,-0.060227826,53.27424,156.9064,0.0047884034,1442850,-137,65,-3761,6597
52676284,3980,0,-1.3995389,-0.83093613,-9.929771,0.0211835,0.0048681353,-0.03616513,53.285316,156.9064,0.0047884034,1442850,-2588,-594,-1162,6601
52776303,4026,0,-1.0086187,0.5033232,-9.412445,0.01804189,0.01458868,-0.03789887,53.30748,156.9064,0.0047884034,1442850,-2283,-647,-2593,6609
52877048,4002,0,0.040094376,1.8311424,-8.958371,0.01737556,0.014183141,-0.029743616,53.282547,156.9064,0.0047884034,1442850,-660,417,-3088,6600
52981064,4018,0,0.9065731,-0.6237875,-10.196481,0.019392418,-0.018450622,-0.02944576,53.28809,156.9064,0.0047884034,1442850,-3,271,-1409,6602
53081046,4000,0,0.83171904,-0.787116,-10.131559,-0.008077763,-0.010858217,-0.039681803,53.27424,156.9064,0.0047884034,1442850,1091,719,-1799,6597
53181075,3967,0,-0.21999434,-0.7414283,-9.735338,-0.015850447,0.01176612,-0.034897383,53.285316,156.9064,0.0047884034,1442850,1295,-364,-910,6601
53285083,4008,0,-1.1132679,1.4700832,-9.269089,-0.01997574,0.018992743,-0.05286689,53.268696,156.9064,0.0047884034,1442850,-1065,-790,-2714,6595
53385111,4021,0,-0.72599053,2.2896454,-9.100124,0.012870101,0.012123079,-0.06017088,53.2964,156.9064,0.0047884034,1442850,-1475,667,-4489,6605
53489082,3997,0,1.4155338,-0.42871606,-11.30549,0.012842752,-0.029040525,-0.00026884116,53.2964,156.9064,0.0047884034,1442850,1682,989,1467,6605
53589876,3983,0,0.977208,-1.87147,-9.666813,-0.030829199,-0.016011244,-0.010940244,53.33241,156.9064,0.0047884034,1442850,3056,-938,-2329,6618
53689877,3988,0,0.80370885,-0.8736766,-9.517196,-0.009767409,-0.0015148893,-0.007262448,53.30471,156.9064,0.0047884034,1442850,2115,-1281,-1156,6608
53793883,4006,0,-0.8036851,1.3485494,-8.560877,0.0046894243,0.018449137,-0.060223185,53.28809,156.9064,0.0047884034,1442850,-1751,-395,-4651,6602
53893883,3967,0,-0.8401193,1.3079532,-8.692742,0.03311219,0.0043549007,-0.049526397,53.2964,156.9064,0.0047884034,1442850,-2588,863,-5173,6605
53993883,4006,0,-1.2957091,-0.28927177,-9.874737,0.029391421,-0.006829093,-0.059285205,53.30748,156.9064,0.0047884034,1442850,-3289,529,-3155,6609
54097877,4000,0,0.42440757,-1.6537716,-10.347397,-0.019320609,0.0049112923,-0.042961027,53.318558,156.9064,0.0047884034,1442850,1883,-1274,-1498,6613
54201883,4006,0,-0.5484655,1.2782505,-9.174326,0.000564225,0.013526771,-0.047049984,53.263157,156.9064,0.0047884034,1442850,-940,-567,-1681,6593
54301877,4000,0,-1.0148951,1.5458354,-9.4263315,0.010365437,0.00859481,-0.04774313,53.29363,156.9064,0.0047884034,1442850,-2658,102,-1735,6604
54402645,3962,0,-0.54037994,0.6415177,-10.488626,0.002842566,-0.008664468,-0.06473255,53.301937,156.9064,0.0047884034,1442850,-1292,470,-1180,6607
54506688,3969,0,0.8449566,-0.94218725,-10.382022,0.006447798,0.00034565572,-0.01781666,53.34072,156.9064,0.0047884034,1442850,1392,-539,159,6621
54606688,4013,0,0.24708015,0.0063932254,-9.968756,-0.00039747474,-0.002695389,-0.030019194,53.29086,156.9064,0.0047884034,1442850,486,-759,-1387,6603
54710675,4000,0,0.70468795,1.3249114,-8.502221,-0.026725624,0.0050954674,-0.03466849,53.33241,156.9064,0.0047884034,1442850,1467,-270,-2884,6618
54810669,4000,0,0.20592967,0.18948226,-9.739413,0.0010485667,-0.0018932215,-0.034750283,53.30748,156.9064,0.0047884034,1442850,302,-69,-1692,6609
54911477,4000,0,0.066103436,-1.0135833,-10.053369,-0.025521185,-0.008643449,-0.04869972,53.285316,156.9064,0.0047884034,1442850,646,8,-3356,6601
55011477,3975,0,-0.08967568,-0.64609766,-10.474843,-0.020384163,0.016870007,-0.050049145,53.301937,156.9064,0.0047884034,1442850,832,-810,-155,6607
55115481,3979,0,-1.0625229,1.4475147,-8.679915,0.010471667,0.0200874,-0.037514556,53.35457,156.9064,0.0047884034,1442850,-2553,-686,-3230,6626
55215519,4036,0,-0.6853452,1.4927866,-8.729358,-0.024588106,0.016707983,-0.074303254,53.337948,156.9064,0.0047884034,1442850,-896,-1309,-4744,6620
55319483,4006,0,-0.72461385,-0.5234075,-10.383422,0.021399217,0.0034980199,-0.05520336,53.299168,156.9064,0.0047884034,1442850,-2079,-637,-1318,6606
55419483,4006,0,-0.43454847,-1.0803342,-9.188753,0.01012964,0.008765608,-0.04430279,53.30748,156.9064,0.0047884034,1442850,-908,-10,-4559,6609
55519477,4000,0,-1.4889642,-0.13449448,-10.415779,-0.032369606,0.014162976,-0.037817214,53.31025,156.9064,0.0047884034,1442850,-451,-7,51,6610
55623477,3986,0,-1.2698342,1.3730412,-8.376708,0.005637835,0.027822819,-0.052674986,53.35457,156.9064,0.0047884034,1442850,-2753,-975,-3328,6626
55724269,3974,0,-0.09429736,0.94652253,-9.466625,-0.018328244,-0.0022953572,-0.044193048,53.32687,156.9064,0.0047884034,1442850,46,415,-3934,6616
55824275,3986,0,1.0037377,-0.44187778,-10.672053,-0.005761247,-0.022920389,-0.021252321,53.33241,156.9064,0.0047884034,1442850,901,1,-957,6618
55928269,3974,0,0.069410235,-0.9318766,-11.058938,0.024605248,-0.004088174,-0.025427226,53.34349,156.9064,0.0047884034,1442850,-835,1122,617,6622
56028275,3997,0,-1.3350391,-0.05889841,-8.639621,-0.010367824,0.020717448,-0.029420825,53.36288,156.9064,0.0047884034,1442850,-1054,-1657,-3178,6629
56128269,3973,0,-0.32288232,1.8521911,-10.111562,-0.0141682355,0.003077528,-0.055743877,53.32964,156.9064,0.0047884034,1442850,636,-785,-1847,6617
56232279,4010,0,0.85118437,0.24191731,-9.829873,-0.032400467,-0.004470204,-0.05041732,53.35457,156.9064,0.0047884034,1442850,2333,519,-3352,6626
56332275,4006,0,0.6042325,-0.49096546,-11.0565195,0.037343703,-0.01725801,-0.02351226,53.37119,156.9064,0.0047884034,1442850,-1009,1658,-918,6632
56433077,3998,0,-1.4994434,-1.3954287,-9.810958,0.021977764,0.009210998,-0.06045176,53.3518,156.9064,0.0047884034,1442850,-3120,-944,-3490,6625
56537083,4007,0,-1.3673108,1.2187575,-9.303012,0.03880143,0.0056096846,-0.035029136,53.34903,156.9064,0.0047884034,1442850,-2301,-840,-3245,6624
56637089,4012,0,0.69870454,1.3938539,-8.457363,-0.032391153,0.01354403,-0.044040527,53.34349,156.9064,0.0047884034,1442850,1887,-979,-2324,6622
56737087,4010,0,0.7585173,1.3978672,-10.51426,0.040285192,-0.005600583,-0.06003888,53.34626,156.9064,0.0047884034,1442850,-764,1028,-1711,6623
56841077,4000,0,0.9817171,-0.9783044,-10.462094,0.024018949,-0.007126573,-0.028231636,53.36565,156.9064,0.0047884034,1442850,297,499,-124,6630
56941045,4000,0,-1.2911674,-0.8978405,-9.577997,-0.0056967903,0.016515877,-0.06820476,53.38227,156.9064,0.0047884034,1442850,-1851,-838,-2468,6636
57045045,3999,0,-0.58589506,1.050385,-8.21262,-0.01838308,0.010225399,-0.051883362,53.409973,156.9064,0.0047884034,1442850,-223,-1819,-3391,6646
57145869,3994,0,1.0389823,1.8217031,-9.103958,-0.020955626,-0.00089215545,-0.023932457,53.36288,156.9064,0.0047884034,1442850,2394,179,-2902,6629
57245869,3999,0,0.8422173,0.96147007,-11.559177,0.035446424,-0.014718119,-0.048226506,53.396122,156.9064,0.0047884034,1442850,-677,1825,-40,6641
57349875,3985,0,0.0073550367,-1.1608332,-11.057644,0.027024167,0.00039037596,-0.070979394,53.39889,156.9064,0.0047884034,1442850,-427,-601,-1085,6642
57453875,3964,0,-0.68418074,0.70865154,-9.041694,0.034249693,0.01185227,-0.044715706,53.36565,156.9064,0.0047884034,1442850,-2023,-879,-2738,6630
57557906,4037,0,-0.65127474,2.2339168,-10.074308,0.030572478,-0.006000108,-0.03768311,53.38781,156.9064,0.0047884034,1442850,-1555,1009,-750,6638
57657870,4001,0,0.41124028,-0.11794805,-9.629388,-0.042877883,-0.007004042,-0.015630063,53.33518,156.9064,0.0047884034,1442850,2157,50,-1763,6619
57761869,3999,0,-0.21053371,-0.8470954,-10.550077,-0.044606198,0.00011517631,-0.053368315,53.409973,156.9064,0.0047884034,1442850,1748,428,-1236,6646
57862677,4000,0,0.59477454,-0.28906882,-10.083048,-0.0031792787,-0.0065259687,-0.021196192,53.38504,156.9064,0.0047884034,1442850,1946,15,-1440,6637
57962683,4002,0,-0.4533708,1.5127797,-9.462768,0.030747239,0.00077255955,-0.04009243,53.41828,156.9064,0.0047884034,1442850,-1106,-93,-3064,6649
58066677,3961,0,0.26389113,1.2381883,-10.344252,0.042909004,0.0033866572,-0.07469182,53.36011,156.9064,0.0047884034,1442850,-1974,-258,-1994,6628
58166677,4000,0,-0.57844895,-0.35510612,-9.823426,-0.0175533,0.0016001926,-0.05953799,53.40443,156.9064,0.0047884034,1442850,-72,727,-3868,6644
58266646,4000,0,0.6424705,-1.059461,-10.753204,-0.016017227,0.0037300163,-0.04951787,53.42382,156.9064,0.0047884034,1442850,1499,-388,-196,6651
58370660,4015,0,0.31999716,0.58462673,-9.269202,-0.021770995,0.003689899,-0.012275955,53.396122,156.9064,0.0047884034,1442850,1408,-640,-1278,6641
58470645,3992,0,0.70106405,1.7391665,-9.118812,-0.0076407306,0.0013094129,-0.040965196,53.3795,156.9064,0.0047884034,1442850,1425,-191,-1898,6635
58571470,3977,0,0.9683415,1.4210733,-9.451656,0.022964893,-0.0015202693,-0.054687466,53.434902,156.9064,0.0047884034,1442850,877,692,-3915,6655
58675476,4007,0,1.7864753,-1.5370938,-10.500573,-0.020524684,-0.025293872,-0.015936911,53.409973,156.9064,0.0047884034,1442850,3151,184,-1884,6646
58775512,4036,0,1.2437892,-1.5765599,-10.266293,-0.011364567,-0.005709605,-0.009660743,53.415512,156.9064,0.0047884034,1442850,2574,-465,-1850,6648
58875469,3999,0,0.44300315,-0.7706019,-9.928446,0.01053936,0.004519951,-0.015981443,53.432133,156.9064,0.0047884034,1442850,1002,-69,-862,6654
58979469,3981,0,0.06468454,1.5701877,-9.630956,-0.035895135,0.009392485,-0.036751367,53.41828,156.9064,0.0047884034,1442850,1908,-776,-1428,6649
59079508,4038,0,1.7906741,1.5980233,-10.235537,-0.00859561,-0.015841167,-0.03399159,53.415512,156.9064,0.0047884034,1442850,2228,1346,-1847,6648
59183470,3989,0,1.3865772,-1.7296793,-9.472553,-0.03303643,-0.009855921,-0.018693617,53.42105,156.9064,0.0047884034,1442850,2395,-687,-3026,6650
59692245,4000,0,0.6121659,-1.1029044,-10.6289015,0.026329357,-0.006214501,-0.04838017,53.412743,156.9064,0.0047884034,1442850,166,1189,153,6647
59796245,3990,0,0.2272157,-0.37410957,-9.471898,0.027110869,0.011647267,-0.049131572,53.451523,156.9064,0.0047884034,1442850,-270,-176,-1818,6661
59896269,4000,0,-1.1431768,1.4731964,-8.949884,-0.021828683,0.020063125,-0.059500016,53.42105,156.9064,0.0047884034,1442850,-496,-314,-3685,6650
59996269,3987,0,2.0463867,2.1149263,-9.743643,0.0036515556,-0.010309327,-0.029906098,53.445984,156.9064,0.0047884034,1442850,2246,547,-1632,6659
60097070,4000,0,0.60993385,1.4282105,-9.7282915,0.042769585,-0.0031530862,-0.056415036,53.45706,156.9064,0.0047884034,1442850,-1257,332,-3472,6663
60201070,4001,0,-1.8421841,-1.1398014,-9.959052,-0.010406902,0.00063034415,-0.043531425,53.454292,156.9064,0.0047884034,1442850,-2108,570,-492,6662
60301069,3991,0,0.7814222,-0.17701972,-10.485825,0.015914321,-0.0067716343,-0.02185705,53.43767,156.9064,0.0047884034,1442850,1148,1118,1515,6656
60405070,4001,0,-1.2429177,1.838212,-8.604676,0.028106805,0.016182173,-0.05961585,53.443214,156.9064,0.0047884034,1442850,-2823,-282,-4197,6658
60505078,4009,0,1.8409071,1.840311,-8.776434,-0.0071025966,-0.009722228,-0.043132327,53.443214,156.9064,0.0047884034,1442850,2780,549,-4779,6658
60605084,4008,0,-0.63380283,0.6542026,-10.181335,-0.011149947,0.003724887,-0.055797003,53.462605,156.9064,0.0047884034,1442850,-1079,601,-2815,6665
60709093,4023,0,-0.19865781,-1.70761,-9.537322,-0.033410456,0.009267215,-0.04199173,53.448753,156.9064,0.0047884034,1442850,-301,-914,-1618,6660
60809863,4017,0,0.48096588,-0.12698124,-10.357475,0.025180256,0.0009401662,-0.036865413,53.45706,156.9064,0.0047884034,1442850,202,428,-426,6663
60909846,4000,0,-2.250281,1.3696969,-9.907698,-0.006328947,0.016789,-0.03211121,53.462605,156.9064,0.0047884034,1442850,-2213,-38,-952,6665
61013845,3988,0,0.37399602,1.3508066,-9.0825205,-0.03588816,0.012116205,-0.06750186,53.473682,156.9064,0.0047884034,1442850,1014,-656,-3372,6669
61113850,4005,0,0.92928284,1.1227987,-11.308955,0.02847687,-0.01737114,-0.03507492,53.47645,156.9064,0.0047884034,1442850,-391,1956,1618,6670
61213846,3961,0,0.80652463,-1.078863,-10.250782,-0.03601607,-0.007345368,-0.025349284,53.43767,156.9064,0.0047884034,1442850,1826,-328,-964,6656
61317869,3996,0,0.34199232,-0.013569125,-10.049231,-0.025112819,0.0011999004,-0.02650031,53.465374,156.9064,0.0047884034,1442850,2647,-698,-798,6666
61417875,3968,0,-1.3988612,1.075114,-9.112041,0.027164357,0.01383538,-0.031952385,53.451523,156.9064,0.0047884034,1442850,-2343,-1099,-3483,6661
61518670,3995,0,0.9990597,1.5529313,-9.137999,-0.033391073,0.013606684,-0.06301746,53.459835,156.9064,0.0047884034,1442850,1582,-1026,-3387,6664
61622676,4007,0,1.3313558,-0.8510263,-9.42748,-0.023746753,-0.012778015,-0.04108105,53.479225,156.9064,0.0047884034,1442850,2748,-333,-3271,6671
61722670,4001,0,-0.4575185,-0.9083726,-10.717656,0.02533342,0.001490962,-0.05965305,53.459835,156.9064,0.0047884034,1442850,-1296,290,-1270,6664
61822669,3999,0,-0.05313033,-1.2061739,-9.3662195,-0.050192416,7.362105e-06,-0.023316363,53.495846,156.9064,0.0047884034,1442850,2606,-1111,-2099,6677
61926670,4001,0,0.025715426,1.0738844,-9.123311,-0.036685973,0.0024942658,-0.033689983,53.45706,156.9064,0.0047884034,1442850,1756,-503,-3005,6663
62026677,4001,0,-0.28711808,1.9564844,-10.499542,0.043788385,-0.0050243307,-0.030071996,53.459835,156.9064,0.0047884034,1442850,-2020,709,-1287,6664
62130669,3961,0,-0.15954417,-0.05720225,-10.460396,0.031727575,0.005850128,-0.076815695,53.479225,156.9064,0.0047884034,1442850,-2181,293,-3319,6671
62231446,3958,0,0.27316046,-1.1611176,-9.758224,-0.021213133,-0.008700522,0.00864053,53.501385,156.9064,0.0047884034,1442850,676,130,-693,6679
62331445,4000,0,0.032500885,-0.16864033,-8.698807,0.02160458,0.021575,-0.06347445,53.470913,156.9064,0.0047884034,1442850,139,-1364,-3391,6668
62431469,4000,0,-0.12761891,1.6363641,-9.783077,-0.015153442,0.006215332,-0.034548752,53.484764,156.9064,0.0047884034,1442850,980,-27,-1621,6673
62535469,4000,0,1.3813695,1.5413787,-9.300288,0.018170362,-0.0055707395,-0.048647717,53.473682,156.9064,0.0047884034,1442850,995,568,-4062,6669
62635469,3968,0,-0.59754974,-0.61975527,-10.194256,-0.013329715,-0.0051042517,-0.05738499,53.487534,156.9064,0.0047884034,1442850,-1090,193,-1168,6674
62739509,4028,0,-0.93530494,-0.9520383,-10.240026,-0.02490222,0.006018305,-0.040160637,53.473682,156.9064,0.0047884034,1442850,-883,82,508,6669
62843476,3992,0,-0.34898877,1.8456261,-9.069582,-0.029940087,0.018618168,-0.04236176,53.512466,156.9064,0.0047884034,1442850,1033,-480,-3433,6683
62944275,3983,0,0.8236164,2.563804,-9.843695,0.016812181,-0.017201668,-0.01538652,53.506924,156.9064,0.0047884034,1442850,635,1981,-1386,6681
63044288,4012,0,-1.2689958,1.3697075,-9.128605,0.0020771818,0.005953214,-0.06897038,53.509693,156.9064,0.0047884034,1442850,-2270,789,-4908,6682
63148295,4026,0,-1.5355824,-1.8802506,-9.537563,-0.01775001,0.0067252787,-0.04698264,53.473682,156.9064,0.0047884034,1442850,-1537,-1043,-2167,6669
63248278,3990,0,0.50993913,-0.98560923,-10.329742,-0.016498223,0.007595215,-0.029825494,53.493073,156.9064,0.0047884034,1442850,2329,-706,-1840,6676
63352285,4016,0,1.2411679,1.363244,-9.492107,0.016571388,0.00076072663,-0.014699539,53.506924,156.9064,0.0047884034,1442850,1405,-818,737,6681
63452295,4020,0,-0.10917621,2.561899,-9.466852,0.02547477,0.0150785,-0.07317951,53.495846,156.9064,0.0047884034,1442850,-1731,679,-3716,6677
63552269,3986,0,-0.24488296,0.5826805,-9.986905,-0.00058968225,-0.0105658565,-0.013780813,53.548477,156.9064,0.0047884034,1442850,-531,1316,-1242,6696
63653046,3984,0,1.0837938,-1.172897,-10.217885,-0.017897928,-0.008714875,-0.04165169,53.518005,156.9064,0.0047884034,1442850,1584,8,-3279,6685
63757069,4000,0,0.44227466,-1.3435647,-9.628408,-0.026261603,0.01675111,-0.050818074,53.498615,156.9064,0.0047884034,1442850,1926,-1350,-1444,6678
63857091,4022,0,0.58792615,1.3542541,-10.810861,0.019890582,-0.0021046416,-0.04217536,53.537395,156.9064,0.0047884034,1442850,549,968,1441,6692
63961069,3974,0,0.8923873,1.8061498,-10.884612,0.029437343,-0.009259605,-0.06029001,53.523544,156.9064,0.0047884034,1442850,10,651,-24,6687
64061069,4000,0,-1.1921746,0.051550217,-10.533709,-0.00059699453,0.00097072276,-0.03733862,53.523544,156.9064,0.0047884034,1442850,-2428,27,-37,6687
64161069,3999,0,1.5831974,-1.3438531,-10.293324,-0.010827879,-0.0070166783,-0.0127446,53.520775,156.9064,0.0047884034,1442850,1846,-263,901,6686
64265069,3993,0,0.16581076,0.6197408,-10.161905,0.018271407,-0.007927757,-0.007628917,53.520775,156.9064,0.0047884034,1442850,1040,8,-1417,6686
64365069,3977,0,-0.8728603,1.187004,-8.111744,-0.0048027867,0.0128505975,-0.027061673,53.498615,156.9064,0.0047884034,1442850,-1626,-251,-3134,6678
64465876,3975,0,0.90774673,1.6673468,-10.76553,-0.014205985,-0.0014554132,-0.037618987,53.531857,156.9064,0.0047884034,1442850,1483,930,1264,6690
64569903,4034,0,1.622972,-0.7495431,-11.245669,-0.0009831749,-0.024328846,-0.023659704,53.534626,156.9064,0.0047884034,1442850,2059,1534,-1873,6691
64669869,4000,0,-1.3620709,-1.4536335,-10.405617,-0.0022238092,0.015105266,-0.08243337,53.509693,156.9064,0.0047884034,1442850,-1717,-279,-3039,6682
64769870,3995,0,-0.11560576,-0.52575475,-9.870029,-0.020640343,0.0058596255,-0.02706572,53.518005,156.9064,0.0047884034,1442850,1352,-1666,-995,6685
64873846,4001,0,0.9098306,2.047626,-8.799482,0.0075808195,0.008545286,-0.036426354,53.542934,156.9064,0.0047884034,1442850,934,432,-1375,6694
64973863,4018,0,0.25055534,1.2349181,-10.464498,-0.03988773,-0.015275829,-0.043178353,53.551247,156.9064,0.0047884034,1442850,1614,513,-1029,6697
65077846,3979,0,1.945264,-0.77411664,-10.852704,0.022258984,-0.008853525,-0.04061243,53.520775,156.9064,0.0047884034,1442850,1754,690,-1294,6686
65178669,3978,0,-1.1926202,-0.93286204,-9.1345005,-0.020167273,0.025227688,-0.06030743,53.540165,156.9064,0.0047884034,1442850,-1377,-1278,-3429,6693
65278689,4019,0,-0.094572,1.0520145,-10.082084,0.041214075,0.001624116,-0.029757299,53.537395,156.9064,0.0047884034,1442850,-144,66,-1346,6692
65378674,4005,0,0.6086476,1.838317,-9.437482,-0.019232979,0.005040654,-0.051325522,53.515236,156.9064,0.0047884034,1442850,1791,-261,-1851,6684
65482669,3992,0,1.4197023,-0.25417018,-9.0544615,0.023843668,0.002290551,-0.07580852,53.534626,156.9064,0.0047884034,1442850,874,-512,-4853,6691
65582670,3994,0,2.2721474,-1.1599163,-10.041942,-0.026711553,-0.017618338,-0.019790612,53.540165,156.9064,0.0047884034,1442850,3665,63,-2379,6693
65686690,4021,0,-0.46974343,0.36090758,-10.482246,0.04263178,0.0017603476,-0.01277567,53.567867,156.9064,0.0047884034,1442850,-504,-275,-81,6703
65790669,3972,0,0.15347667,0.95205265,-8.840898,0.021858867,-0.0017906507,-0.030033922,53.551247,156.9064,0.0047884034,1442850,-618,-886,-3027,6697
65891470,4000,0,1.5026834,0.83548915,-10.233993,0.0002408959,-0.014048743,-0.067722306,53.548477,156.9064,0.0047884034,1442850,1911,461,-2019,6696
65991470,4000,0,-0.39751983,-1.4025903,-9.397934,-0.022012059,0.010643119,-0.052874442,53.570637,156.9064,0.0047884034,1442850,-710,-1190,-2173,6704
66095446,3970,0,0.28089443,-0.8580846,-10.49754,-0.0074706962,0.012139496,-0.04168199,53.512466,156.9064,0.0047884034,1442850,1614,-968,-467,6683
66195445,3990,0,-0.53054124,0.8074316,-8.789638,-0.010266187,0.014397252,-0.0029369676,53.545708,156.9064,0.0047884034,1442850,-226,-1496,-2313,6695
66295445,3994,0,-0.13589996,2.548766,-9.46676,0.03651786,-0.00622783,-0.029187743,53.529087,156.9064,0.0047884034,1442850,-1518,1019,-2038,6689
66399451,4005,0,-0.021151878,0.2293179,-10.369856,-0.04147596,-0.011500806,-0.022130642,53.559555,156.9064,0.0047884034,1442850,1070,1335,-1853,6700
66499475,4028,0,-0.61433184,-0.70467883,-10.747611,0.034825772,0.0026923597,-0.080004334,53.576176,156.9064,0.0047884034,1442850,-1695,-309,-3280,6706
66600269,3998,0,0.9705603,-1.0350924,-9.635299,-0.030886967,-0.012903127,-0.008760555,53.576176,156.9064,0.0047884034,1442850,2327,18,-1597,6706
66704269,3999,0,-1.0859932,1.6910917,-9.522327,0.036607396,0.0060578757,-0.031441983,53.556786,156.9064,0.0047884034,1442850,-2418,-177,-2157,6699
66804329,4060,0,1.5756869,1.7421274,-9.711921,0.0047088666,-0.0028354744,-0.0373279,53.562325,156.9064,0.0047884034,1442850,2024,674,-1471,6701
66908307,4031,0,-0.49950376,-0.32558635,-9.874504,0.033130445,-0.0049147177,-0.051724043,53.559555,156.9064,0.0047884034,1442850,-2031,-72,-4327,6700
67008269,3987,0,1.5073407,-1.0239314,-10.692952,-0.0053867903,-0.0034151457,-0.021386553,53.556786,156.9064,0.0047884034,1442850,2500,988,-306,6699
67108269,4000,0,-1.3393823,-0.62914455,-9.516975,-0.027621957,0.0080802785,-0.022637505,53.587257,156.9064,0.0047884034,1442850,-704,-747,-540,6710
67209069,4800,0,0.65442747,1.0865875,-9.29899,0.031360034,0.015630234,-0.060319353,53.61773,156.9064,0.0047884034,1442850,-97,-71,-1938,6721
67313045,3974,0,-1.1966084,1.659801,-9.242792,0.026151631,-0.0044784658,-0.038229845,53.573406,156.9064,0.0047884034,1442850,-1809,96,-3239,6705
67413046,3979,0,2.1241398,-0.15399984,-9.720897,0.0060197813,-0.0066952705,-0.044587143,53.578945,156.9064,0.0047884034,1442850,2638,193,-4078,6707
67517074,4009,0,0.6596686,-1.4966565,-10.093428,0.0131108835,-0.00575908,-0.022554213,53.584488,156.9064,0.0047884034,1442850,557,21,-874,6709
67617045,3999,0,-1.7409961,-0.10209536,-9.257889,-0.006457177,0.023328878,-0.053308673,53.573406,156.9064,0.0047884034,1442850,-1890,-1162,-3264,6705
67717052,4006,0,1.1402742,1.2550622,-10.369851,-0.0036372002,-0.0009631866,-0.013978075,53.545708,156.9064,0.0047884034,1442850,1401,242,1339,6695
67821076,4007,0,1.2947693,1.0722303,-9.948475,0.028619131,-0.010042922,-0.04839191,53.587257,156.9064,0.0047884034,1442850,811,332,-1496,6710
67921110,4041,0,-1.4218994,-0.20855099,-9.650299,0.0008713957,0.005025587,-0.06397553,53.603878,156.9064,0.0047884034,1442850,-2146,194,-3724,6716
68021069,3976,0,1.5322112,-1.3053339,-10.8245325,-0.020486342,-0.009670158,-0.01517893,53.576176,156.9064,0.0047884034,1442850,1967,613,255,6706
68125075,4006,0,0.83236706,-0.41280472,-9.096214,-0.0071997168,0.008755904,-0.01045097,53.628807,156.9064,0.0047884034,1442850,2156,-864,-601,6725
68225874,3999,0,0.5993391,1.6924049,-9.82888,0.033685565,0.0055871415,-0.050028257,53.592796,156.9064,0.0047884034,1442850,36,606,-1210,6712
68325894,4012,0,-1.7031772,2.3775616,-9.990708,0.007885746,0.00836806,-0.05370091,53.609417,156.9064,0.0047884034,1442850,-2562,707,-2487,6718
68429884,3985,0,-0.63075376,-0.4709506,-9.746922,0.045614254,0.004249407,-0.05413308,53.631577,156.9064,0.0047884034,1442850,-2541,392,-4738,6726
68529876,4007,0,-1.0377997,-1.2857267,-9.254665,-0.030095275,0.012470752,-0.07097343,53.645428,156.9064,0.0047884034,1442850,89,-1077,-5701,6731
68633908,4039,0,-0.5818537,0.5118107,-8.45703,0.0050501823,0.009443056,-0.035005234,53.603878,156.9064,0.0047884034,1442850,-208,-1770,-3979,6716
68733869,4000,0,0.16496044,1.71805,-9.067335,-0.013883752,-0.0017588311,-0.027405351,53.592796,156.9064,0.0047884034,1442850,563,-253,-2537,6712
68834645,4000,0,1.3728049,0.5612682,-10.336192,0.009308539,-0.0028396465,-0.06709589,53.61496,156.9064,0.0047884034,1442850,1491,280,-2400,6720
68934652,3984,0,-0.63732564,-0.549894,-10.941279,0.020397443,-0.013367198,-0.04844494,53.573406,156.9064,0.0047884034,1442850,-1798,311,-1691,6705
69038705,4030,0,-1.602879,-0.7143859,-10.652245,0.02837884,0.00975901,-0.07969087,53.65651,156.9064,0.0047884034,1442850,-1953,-978,-2731,6735
69138701,4032,0,-1.9769834,0.91616696,-9.916469,0.008099928,0.008372877,-0.024845146,53.648197,156.9064,0.0047884034,1442850,-2479,32,-1061,6732
69242675,4006,0,-0.45571283,2.4646528,-10.163236,0.03113971,0.0061118603,-0.07197149,53.648197,156.9064,0.0047884034,1442850,-2325,795,-3685,6732
69342669,3990,0,-0.6398093,0.6360382,-9.891969,-0.0020034974,-0.007068771,-0.05045842,53.65651,156.9064,0.0047884034,1442850,-1405,-522,-2866,6735
69442677,4000,0,-0.3682002,-1.333957,-9.813853,-0.022157103,-0.0071138088,-0.029868944,53.66205,156.9064,0.0047884034,1442850,146,-714,-1405,6737
69543470,4001,0,0.09719203,-1.4360751,-9.854797,-0.04343102,0.0048522134,-0.058145124,53.628807,156.9064,0.0047884034,1442850,2896,-879,-3290,6725
69647475,3977,0,-0.46773416,0.05164507,-8.297579,-0.042432323,0.0048428127,-0.026018701,53.612186,156.9064,0.0047884034,1442850,964,-1879,-3675,6719
69747495,4025,0,0.6339765,1.3677355,-9.644756,-0.0035779637,-0.0062190806,-0.039068945,53.62327,156.9064,0.0047884034,1442850,1020,-516,-911,6723
69851469,4000,0,1.4108783,0.17768876,-10.90097,-0.0006915154,-0.02670185,-0.018179117,53.65651,156.9064,0.0047884034,1442850,1361,706,-442,6735
