timestamp,integral_dt,error_count,x,y,z,x_integral,y_integral,z_integral,temperature,range_m_s2,scaling,device_id,x_raw,y_raw,z_raw,temperature_raw
24367669,4200,0,0.3613237,-0.1682714,-9.636588,0.0006767682,0.0070388825,-0.043401334,46.5,78.0,0.0023928226,1114658,-564,261,-3755,8714
24468470,4201,0,0.37053624,0.2058298,-9.889284,-0.0036751032,0.0003379679,-0.043528777,46.375,78.0,0.0023928226,1114658,487,367,-3352,8193
24575579,5261,0,0.04476798,1.3953133,-10.484543,-0.0006239747,0.0017974923,-0.05325486,46.5,78.0,0.0023928226,1114658,622,791,-3088,16954
24672195,5276,0,-0.3708138,-1.7391602,-9.144527,-0.008714624,-0.009625482,-0.048416715,46.375,78.0,0.0023928226,1114658,621,-178,-3598,-5
24772984,4159,0,0.6078789,1.8033288,-9.805627,-0.0026193329,-0.0100192325,-0.0380504,46.375,78.0,0.0023928226,1114658,1822,504,-2560,8193
24874819,4200,0,0.69038624,1.9599786,-9.328692,0.0077119526,0.006532242,-0.036089633,46.375,78.0,0.0023928226,1114658,721,616,-4242,8193
24979819,4201,0,0.7291095,1.1267508,-9.649292,0.0035530063,-0.0066498164,-0.041397087,46.375,78.0,0.0023928226,1114658,1393,169,-3305,8193
25076419,4200,0,1.0278809,1.2657495,-10.182715,0.0048917476,-0.0019844896,-0.040754635,46.25,78.0,0.0023928226,1114658,1037,1146,-2824,8717
25180369,4201,0,0.30863726,-0.45195338,-9.663029,-0.014478514,-0.005633797,-0.031170813,46.375,78.0,0.0023928226,1114658,247,-1370,-2989,8720
25286549,4331,0,-1.6395121,0.55918974,-9.033963,0.008157605,0.007970188,-0.05595135,46.5,78.0,0.0023928226,1114658,93,1472,-4675,8708
25387297,4278,0,1.3047428,0.53154576,-10.744485,0.0239145,-0.0075172912,-0.055639215,46.375,78.0,0.0023928226,1114658,1532,1495,-2742,8715
25489069,4148,0,-0.76673305,0.74027383,-9.464392,0.0053602583,0.011561846,-0.042743936,46.375,78.0,0.0023928226,1114658,1085,1646,-4703,8723
25589869,4172,0,0.20093714,1.6342913,-10.202159,-0.020796297,-0.013916119,-0.044533335,46.25,78.0,0.0023928226,1114658,3510,-1214,-448,8461
25693827,4130,0,1.0115834,1.1468649,-10.073386,-0.010313064,0.0008128133,-0.03793627,46.375,78.0,0.0023928226,1114658,28,-1350,-2756,8472
25794647,4130,0,-0.21431153,-0.12855153,-9.856087,-0.051482517,-0.010562563,-0.027810222,46.5,78.0,0.0023928226,1114658,1596,-2162,-3287,8735
25896469,4200,0,-1.5186975,-0.34670457,-9.733462,-0.04142471,-0.009389293,-0.006381252,46.5,78.0,0.0023928226,1114658,1094,1387,-3322,8193
25997268,4199,0,0.505724,0.2640985,-9.69856,0.01617976,-0.012417343,-0.04549079,46.625,78.0,0.0023928226,1114658,1040,-3573,-3727,8714
26097053,4116,0,0.24218097,0.4539777,-11.276093,0.0033577816,-0.0014449995,-0.020349639,46.5,78.0,0.0023928226,1114658,623,-1217,-3032,-4
26197834,4110,0,-0.59608614,0.60574275,-11.295631,0.014486258,-0.0060377363,-0.089227974,46.375,78.0,0.0023928226,1114658,2618,3060,-7589,0
26301769,4201,0,0.32201472,0.31300932,-12.604088,0.008393956,0.00903567,-0.03328683,46.375,78.0,0.0023928226,1114658,294,947,-3660,-4
26406768,4195,0,-0.55708975,0.22792986,-11.837917,0.00434871,-0.0024153865,-0.095178895,46.5,78.0,0.0023928226,1114658,2255,2131,-5245,8193
26510733,4192,0,0.3457766,1.523115,-11.929517,0.0034334485,-0.0048241075,-0.0043615005,46.5,78.0,0.0023928226,1114658,-294,-1054,278,2048
26610577,5358,0,-0.45987222,0.86622924,-11.454015,0.009889091,0.004306339,-0.026084712,46.5,78.0,0.0023928226,1114658,-736,1751,-685,8727
26715514,4167,0,0.1836289,-0.940757,-11.33716,0.01912965,-0.011776271,-0.098497495,46.25,78.0,0.0023928226,1114658,1737,1250,-2679,16953
26816269,4146,0,0.11568249,-1.2296171,-10.293239,0.017046973,0.004287347,-0.043714773,46.5,78.0,0.0023928226,1114658,-1677,-1683,-2682,8721
26918161,4242,0,0.62023026,0.62266415,-10.576229,-0.00014315001,0.0043680416,-0.0038732828,46.5,78.0,0.0023928226,1114658,194,-2360,2762,8192
27016921,4298,0,0.90874213,1.1957452,-8.838671,-0.0061244247,0.01518592,-0.03206761,46.5,78.0,0.0023928226,1114658,-716,-1059,-6596,8725
27118669,4115,0,-0.8170968,0.061237816,-9.447914,0.01465626,-0.014830259,-0.05294271,46.5,78.0,0.0023928226,1114658,1395,4222,-5582,8193
27219477,4159,0,0.8183046,-0.6036944,-10.048296,0.005350389,-0.014035921,-0.021887828,46.375,78.0,0.0023928226,1114658,198,-2597,-1732,2048
27321318,5197,0,-0.34103945,-0.25935543,-10.125499,-0.031682182,0.022305245,-0.0110014565,46.375,78.0,0.0023928226,1114658,-290,743,-3827,8192
27422158,4240,0,-0.0489827,1.0943433,-10.103877,-0.018899646,-0.00077987113,-0.044848528,46.375,78.0,0.0023928226,1114658,-1168,-1422,-3654,-4
27526118,4249,0,1.0796312,0.43464637,-9.462635,-0.013978826,0.0025652526,-0.036112085,46.375,78.0,0.0023928226,1114658,-754,-2564,-6670,2049
27632163,4226,0,1.1927218,-0.7408595,-10.33054,0.015783655,-0.006507439,-0.058803108,46.375,78.0,0.0023928226,1114658,2939,-2119,-5043,-4
27730862,4244,0,-0.67725074,-0.05547592,-9.222993,-0.011256914,0.014011794,-0.06215156,46.375,78.0,0.0023928226,1114658,-1031,1943,-6895,8193
27834768,4199,0,-0.29688036,1.1028072,-10.410533,-0.02850492,-0.0052840635,-0.047621418,46.25,78.0,0.0023928226,1114658,-604,-3124,932,8192
27935569,4170,0,0.28378764,1.0588363,-9.857684,-0.015860083,-0.0019207341,-0.015371401,46.5,78.0,0.0023928226,1114658,-13,-467,202,16954
28035348,4183,0,0.40670946,-0.21435578,-9.436225,-0.022600947,-0.0007536188,-0.036485497,46.375,78.0,0.0023928226,1114658,1676,-3957,-3322,8722
28140319,4185,0,-1.4601407,-0.345886,-8.988841,-0.022674726,0.0053936876,-0.027396586,46.5,78.0,0.0023928226,1114658,-281,2746,-1776,8192
28240121,4252,0,-0.8324116,0.6094116,-8.770079,-0.042255152,0.017064994,-0.03521867,46.375,78.0,0.0023928226,1114658,-760,-1147,-2118,8723
28340964,4295,0,0.34715748,0.83027583,-8.846125,0.03002772,-0.0141897295,-0.02985164,46.5,78.0,0.0023928226,1114658,761,49,-1333,8720
28441727,4258,0,-0.14025605,0.3011254,-9.637717,0.03510798,-0.0067717973,-0.049563795,46.625,78.0,0.0023928226,1114658,1441,3935,401,8727
28543519,4170,0,-0.1737054,-0.6756283,-8.890056,0.036370672,0.010300381,-0.062581204,46.375,78.0,0.0023928226,1114658,-542,3419,-3098,2048
28645368,5244,0,-0.24909537,0.029958112,-9.0781,-0.0039717024,0.00065103045,-0.05870093,46.5,78.0,0.0023928226,1114658,301,3743,-8002,-4
28748308,4148,0,-1.1475986,0.9729415,-8.693413,0.019189253,-2.1291606e-05,-0.04227037,46.5,78.0,0.0023928226,1114658,492,4430,-4785,8728
28850158,5229,0,0.73178685,0.5043737,-9.193836,0.007115045,-0.0061706547,-0.044511076,46.5,78.0,0.0023928226,1114658,-194,691,-4102,-5
28955158,4240,0,0.0727486,-0.9735698,-10.953059,-0.029425543,-0.0010693913,-0.01626978,46.5,78.0,0.0023928226,1114658,-1917,-1739,13,-5
29054879,5158,0,0.13509269,-0.04210561,-11.222155,0.013680506,0.014439506,-0.055220447,46.375,78.0,0.0023928226,1114658,1015,2888,-7551,8193
29155669,4199,0,-0.22105704,0.8492159,-10.247479,0.004586766,0.016036453,-0.04320348,46.5,78.0,0.0023928226,1114658,-892,702,-3787,16954
29259619,5251,0,-0.303495,0.120089054,-9.194556,-0.0056147007,-0.012950928,-0.028806515,46.5,78.0,0.0023928226,1114658,915,-2667,-2935,2048
29360418,4199,0,0.12850153,-0.54664755,-10.304198,0.009833512,0.0040713525,-0.027809512,46.5,78.0,0.0023928226,1114658,968,1682,-3891,8742
29459158,6229,0,-0.92117316,-0.39671522,-10.275549,0.02279395,0.0059605315,-0.08589573,46.5,78.0,0.0023928226,1114658,-34,2686,964,-5
29560998,5279,0,0.10234589,0.22150305,-9.29303,-0.029812254,0.011947481,-0.026745772,46.375,78.0,0.0023928226,1114658,-563,-2120,-3923,8193
29665969,4184,0,0.7152306,2.1065469,-10.387161,0.0027773036,0.013550031,-0.029195054,46.375,78.0,0.0023928226,1114658,-302,-484,837,8193
29763623,4205,0,0.24423213,0.80403197,-9.431525,-0.004154832,0.005026316,-0.04910317,46.375,78.0,0.0023928226,1114658,621,-1718,-6852,-5
29868619,4179,0,1.3251436,-0.8316566,-10.910955,0.020346686,-0.0148319015,-0.051176924,46.5,78.0,0.0023928226,1114658,876,-949,-1436,2048
29970481,5258,0,-1.4242741,-0.51991284,-10.559969,-0.03981003,0.00822132,-0.059276093,46.5,78.0,0.0023928226,1114658,-1899,-1290,-1205,8193
30073369,4192,0,0.26460007,1.4524455,-9.409638,0.030258741,-1.8370583e-05,-0.039601214,46.5,78.0,0.0023928226,1114658,-198,1118,-1434,8731
30173120,4191,0,0.7252101,0.8321654,-9.232857,0.033109847,-0.0036960961,-0.034318577,46.375,78.0,0.0023928226,1114658,2901,-469,-3237,8727
30273938,4189,0,-0.46613216,-0.2777063,-9.031149,0.02150497,0.00065229286,-0.0670264,46.375,78.0,0.0023928226,1114658,1654,2991,-6879,2049
30374719,4192,0,-0.85339236,-0.41900632,-8.274408,-0.04926161,0.001250817,-0.033800483,46.375,78.0,0.0023928226,1114658,-209,-579,-5218,8730
30474530,4262,0,0.15314032,0.340727,-8.739886,-0.028749267,-0.004081137,-0.018495573,46.5,78.0,0.0023928226,1114658,-846,-4045,-2821,8732
30576319,4174,0,1.0051383,0.74081737,-9.913972,-0.013755387,-0.002464181,-0.048316147,46.375,78.0,0.0023928226,1114658,-632,-5707,1646,8193
30681319,4159,0,-0.14146131,-0.14119808,-9.728127,-0.024379915,-0.006519739,-0.015229142,46.625,78.0,0.0023928226,1114658,2455,-2367,-1436,-4
30781069,4172,0,0.41261894,-0.8365886,-9.87649,0.014011577,0.0071970657,-0.047496013,46.5,78.0,0.0023928226,1114658,-164,-530,-3056,8724
30881869,4137,0,-0.8446971,0.16325597,-8.904418,0.033257835,-0.0040776464,-0.031843342,46.5,78.0,0.0023928226,1114658,2588,3732,-3546,8724
30983718,4199,0,-0.29656422,1.4914575,-9.566946,0.042785287,0.0006671084,-0.054783907,46.375,78.0,0.0023928226,1114658,263,3874,-1169,-4
31084519,4200,0,-0.10397633,0.439637,-9.314545,0.047654893,-0.0048374976,-0.06856233,46.375,78.0,0.0023928226,1114658,-1246,3150,-4612,8722
31186368,5209,0,-0.5077598,-0.5724332,-8.533782,0.042056985,-0.009060969,-0.06343927,46.375,78.0,0.0023928226,1114658,29,4395,-5844,8192
31289269,4169,0,0.9727251,0.42829272,-8.467388,0.029265044,-0.009054675,-0.04433277,46.5,78.0,0.0023928226,1114658,2244,-1884,-7171,8730
31391158,4240,0,-0.38499376,0.29382852,-9.270426,0.025862848,0.0010687317,-0.07806916,46.5,78.0,0.0023928226,1114658,249,3664,-5101,8734
31492989,5271,0,-0.7891754,0.6965109,-9.286279,-0.0002353653,-0.009829864,-0.039607983,46.5,78.0,0.0023928226,1114658,1229,3937,-4479,8193
31591669,4198,0,-0.35788012,0.39666313,-9.413588,-0.018273072,0.0023834258,-0.061817054,46.375,78.0,0.0023928226,1114658,1106,3077,-1628,0
31697766,5297,0,0.73319274,-0.084674746,-10.341029,0.031203356,-0.0056298207,-0.058535878,46.5,78.0,0.0023928226,1114658,2246,73,-2328,-4
31800656,4236,0,0.76563257,0.63503754,-9.270641,0.015496604,-0.0005142992,-0.026222344,46.5,78.0,0.0023928226,1114658,-403,-305,757,-4
31902516,5298,0,1.1321567,0.34267592,-10.266124,0.009080243,-0.0009887513,-0.050682742,46.5,78.0,0.0023928226,1114658,129,-3556,1693,8727
32003303,4235,0,1.3432009,-0.21320912,-9.33512,0.008417503,0.0018339835,-0.046784285,46.5,78.0,0.0023928226,1114658,1233,-3784,-3395,8730
32103048,4229,0,0.45900393,-0.37550366,-9.574859,0.038105536,-0.00535887,-0.023196433,46.5,78.0,0.0023928226,1114658,-1439,-82,-1384,-4
32203819,4201,0,0.036165476,0.3429611,-9.63117,0.018425964,-0.00085963885,-0.06442718,46.5,78.0,0.0023928226,1114658,-50,379,-2609,8193
32305699,5271,0,0.5178573,0.47492757,-9.816901,0.034915615,-0.011016431,-0.036820058,46.5,78.0,0.0023928226,1114658,-1266,326,1052,8732
32410668,4132,0,1.3159643,-0.09659368,-9.69973,-0.038218636,0.003999617,-0.007330891,46.375,78.0,0.0023928226,1114658,1658,-5231,-3217,8726
32512519,4200,0,-0.7850148,0.351192,-10.257941,-0.017199432,0.008920943,-0.0688984,46.5,78.0,0.0023928226,1114658,-981,3215,-1310,8192
32614368,4199,0,-0.02276,1.1999828,-10.0250225,0.03335593,-0.0028880425,-0.057570957,46.5,78.0,0.0023928226,1114658,-513,-479,-868,8192
32714163,5239,0,0.973994,0.60305977,-9.440142,0.010193749,-0.008149106,-0.03295657,46.5,78.0,0.0023928226,1114658,23,-1947,-5434,8192
32819157,4239,0,-0.48417288,-0.6572488,-10.563221,0.03541647,0.006583227,-0.07460811,46.375,78.0,0.0023928226,1114658,488,4756,-4402,2049
32920976,4208,0,0.8519699,0.14388487,-10.44469,0.0107973935,0.007706861,-0.0655208,46.375,78.0,0.0023928226,1114658,-240,-3202,-3720,8193
33023868,4151,0,0.646303,1.3825977,-10.621652,0.010489191,0.012079592,-0.04173137,46.5,78.0,0.0023928226,1114658,1342,-476,-5638,-4
33125741,4222,0,-0.015722217,0.35615674,-9.853474,0.0071027204,-0.003057566,-0.015799386,46.375,78.0,0.0023928226,1114658,921,1669,-5760,8745
33229728,4250,0,0.47519153,-0.4374516,-10.704695,-0.0023129436,0.007355821,-0.00791577,46.375,78.0,0.0023928226,1114658,-569,-1358,-3228,8728
33330530,4262,0,-0.32423177,0.1400225,-10.232422,0.023727305,-0.0060302983,-0.03894976,46.5,78.0,0.0023928226,1114658,1229,820,-3775,8734
33428156,4238,0,-0.08180753,0.0027747154,-10.508502,-0.019989455,-0.0051691006,-0.02648668,46.5,78.0,0.0023928226,1114658,-1736,-2184,-1054,8767
33532099,5280,0,0.30035952,0.8495196,-11.152141,-0.0047087464,0.0008015014,-0.076621875,46.5,78.0,0.0023928226,1114658,-350,779,-1373,8777
33632941,4273,0,0.21156633,-0.17745428,-11.5921955,-0.0075949514,-0.01583679,-0.06830377,46.5,78.0,0.0023928226,1114658,2016,417,-1825,8747
33734718,4161,0,0.07184018,-1.031886,-9.8105,-0.02101696,0.012913952,-0.030195655,46.5,78.0,0.0023928226,1114658,-597,-1960,-8752,8730
34526521,4302,0,0.70932823,0.78191465,-8.124691,-0.046134196,-0.011161594,-0.01329962,46.5,78.0,0.0023928226,1114658,50,-4702,-2424,8724
34628269,4172,0,0.062267147,0.93834424,-8.823564,0.0225092,-0.020711709,-0.013381614,46.625,78.0,0.0023928226,1114658,1501,1471,1893,8812
34730163,5246,0,-0.9836,-0.6249161,-8.978386,0.029186744,-0.0064239423,-0.05652487,46.5,78.0,0.0023928226,1114658,190,4062,-5862,8192
34830918,4199,0,-0.62351793,-0.59522146,-9.759249,-0.00279463,0.0014105892,-0.076028995,46.5,78.0,0.0023928226,1114658,-714,3992,-2467,-4
34929728,4304,0,0.07581454,-0.004574187,-9.215654,-0.02785598,0.0030520563,-0.07022931,46.625,78.0,0.0023928226,1114658,1105,-1989,-5764,8733
35033569,4186,0,-0.18217902,0.96954155,-10.319014,0.023927817,0.0140651455,-0.052793253,46.625,78.0,0.0023928226,1114658,488,1388,-2744,0
35133321,5248,0,0.3611806,0.9058144,-9.338489,0.011497979,-0.002819376,-0.015724218,46.5,78.0,0.0023928226,1114658,671,849,-4109,-4
35237269,4192,0,0.60235274,-0.5100438,-10.325202,-0.00013026292,0.0029352338,-0.023425786,46.5,78.0,0.0023928226,1114658,-1438,-899,-4449,-4
35339146,4228,0,-0.64845085,-0.122654244,-11.742926,0.0133993495,0.0072616455,-0.05662396,46.625,78.0,0.0023928226,1114658,-702,1507,-1670,8192
35437837,4094,0,-0.42311952,0.22114004,-11.255073,0.0024941724,-0.00733069,-0.10463623,46.5,78.0,0.0023928226,1114658,391,1030,-5921,-4
35540718,4200,0,0.4927536,1.6930411,-11.381626,-2.3216737e-05,-0.0028518224,-0.08155186,46.625,78.0,0.0023928226,1114658,3279,-1468,-2910,8192
35641519,4184,0,0.47888312,1.8098502,-10.770321,0.0254493,-0.009390269,-0.048310105,46.5,78.0,0.0023928226,1114658,3430,1838,-3502,8192
35742318,4163,0,-0.52171147,-0.3331408,-10.222994,0.012114811,-0.00031046654,-0.056640904,46.5,78.0,0.0023928226,1114658,1077,3436,-8380,8193
35850540,5321,0,0.41380453,-0.6029796,-10.242442,0.003823817,0.006540601,-0.0046657408,46.5,78.0,0.0023928226,1114658,-1776,-1448,-1172,8738
35947069,4200,0,-0.097793736,0.8492101,-10.197163,-0.014397911,0.0069497,-0.084924586,46.625,78.0,0.0023928226,1114658,1725,-128,-3802,8726
36051019,4200,0,0.4694635,1.9687793,-9.512814,0.014873893,-0.000853941,-0.03412298,46.625,78.0,0.0023928226,1114658,2792,1773,-5128,-4
36154970,4201,0,-0.7037908,-0.19923037,-9.481846,-0.013879649,0.0034649782,-0.05959043,46.5,78.0,0.0023928226,1114658,550,3204,-8561,2049
36255814,4246,0,0.068842314,-1.1120247,-9.984532,0.0020511013,0.0062657106,-0.019246232,46.75,78.0,0.0023928226,1114658,-1542,1792,-2375,-4
36356591,4223,0,-0.55215466,-0.49346864,-10.114529,-0.035218406,0.012949735,-0.027713919,46.625,78.0,0.0023928226,1114658,-875,-802,-1274,2049
36456319,4195,0,-0.15266277,0.69195163,-9.688438,-0.023129737,0.010841269,-0.029808221,46.5,78.0,0.0023928226,1114658,754,-2060,-91,8736
36557159,4234,0,-0.17907985,0.7844227,-8.791376,-0.038068447,0.0044053406,-0.03915331,46.625,78.0,0.0023928226,1114658,-3127,-262,-3580,-5
36658969,4185,0,0.22416781,0.74130434,-9.285584,0.0005877808,0.0031190293,-0.077268586,46.5,78.0,0.0023928226,1114658,2332,21,-5476,8193
36761869,4090,0,0.034535844,-0.3031502,-8.659723,-0.032527592,0.010361126,-0.037844352,46.625,78.0,0.0023928226,1114658,-1602,-2418,-5296,8193
36863719,4200,0,-0.41128662,0.5395553,-8.974912,-0.014145086,-0.011949865,-0.052323833,46.625,78.0,0.0023928226,1114658,711,1353,-1531,-5
36969805,5287,0,-0.3753547,0.93177915,-8.835583,0.017300956,-0.0011467339,-0.03841535,46.5,78.0,0.0023928226,1114658,1326,3547,-5529,8739
37070580,4211,0,0.76799345,-0.78230983,-10.691934,0.0050567226,-0.015203279,-0.044169404,46.625,78.0,0.0023928226,1114658,461,-3073,-56,8733
37172436,4218,0,-0.7430106,-0.19621901,-9.803285,-0.0040284973,0.006136673,-0.026227979,46.625,78.0,0.0023928226,1114658,-150,1369,-1883,8192
37275360,4237,0,1.1599866,0.50551575,-9.85353,0.00936646,0.0014242668,-0.039299045,46.625,78.0,0.0023928226,1114658,-1947,-3289,-3979,8755
37372969,5250,0,-0.5257555,0.70331585,-9.672469,-0.04208487,0.001965453,-0.03445854,46.625,78.0,0.0023928226,1114658,-1423,-380,-4027,8193
37475868,4187,0,0.75918007,-0.48810658,-10.730119,0.0033956724,-0.020206457,-0.05384343,46.625,78.0,0.0023928226,1114658,868,-340,-1420,-5
37577743,5273,0,1.7721972,-0.501956,-10.794476,-0.019273033,-0.0124273,-0.034927033,46.5,78.0,0.0023928226,1114658,1908,-5453,-1147,8731
37680618,4199,0,-0.5334282,0.2173247,-9.204288,0.033983976,-0.0033600673,-0.08273128,46.625,78.0,0.0023928226,1114658,-149,3465,-8319,-5
37780369,4169,0,0.6781634,1.0740318,-9.663039,-0.002413677,0.0043810466,-0.054517545,46.5,78.0,0.0023928226,1114658,310,-4938,-4849,-5
37883346,4277,0,-1.074107,1.1114522,-9.748317,-0.009566991,-0.0019201019,-0.020776777,46.5,78.0,0.0023928226,1114658,2197,4033,-1935,8736
37985159,4210,0,-0.7165158,-0.62253004,-9.942169,-0.015160843,-0.01588444,-0.04470288,46.5,78.0,0.0023928226,1114658,531,2338,-3400,8960
38085920,4172,0,-0.913494,-0.6787885,-9.689814,0.0016943007,0.0005246633,-0.044883337,46.625,78.0,0.0023928226,1114658,346,4773,-1192,2049
38187823,4254,0,-0.09924375,0.9274644,-9.834995,-0.006539461,-0.006780785,-0.0452553,46.625,78.0,0.0023928226,1114658,1668,657,-1526,0
38286578,4310,0,0.025455432,1.1727664,-9.770089,0.0015051631,-0.0016755174,-0.0456691,46.5,78.0,0.0023928226,1114658,-1004,869,-2986,8753
38390547,4329,0,0.87184614,0.5206517,-8.845402,-0.015999148,-0.0001667821,-0.049296156,46.375,78.0,0.0023928226,1114658,23,-3317,-9014,8733
38489159,4234,0,0.5230217,-0.47706708,-9.877007,-0.027954316,-0.007912226,-0.038678225,46.75,78.0,0.0023928226,1114658,-531,-3126,-1798,2049
38595169,4196,0,0.23421772,-0.46972156,-10.147647,0.010162879,-0.0019595842,-0.072282076,46.625,78.0,0.0023928226,1114658,1858,-45,-4321,2048
38697019,5206,0,0.46225056,0.7422656,-10.364203,0.030870467,-0.002439478,-0.054574,46.5,78.0,0.0023928226,1114658,755,-760,1245,8740
38797821,4124,0,0.26323855,0.5913599,-10.267684,-0.025391724,-0.012832854,-0.028494164,46.5,78.0,0.0023928226,1114658,-1544,-3507,-881,0
38902819,4200,0,-0.21937445,-0.4661544,-9.830484,-0.009645832,-0.0007174824,-0.07912063,46.5,78.0,0.0023928226,1114658,-85,1596,-6955,8729
39000469,4196,0,-1.7733219,-1.0949839,-9.5395,-0.026318911,-0.0056310724,-0.032778572,46.625,78.0,0.0023928226,1114658,-586,4334,-4306,8193
39101269,4200,0,-0.6091817,-0.32253608,-8.847252,0.01971391,0.0021936668,-0.038993362,46.75,78.0,0.0023928226,1114658,782,3198,-6891,8192
39203161,4242,0,-0.789279,0.6006071,-9.250478,0.013791738,0.0019787683,-0.053195667,46.625,78.0,0.0023928226,1114658,371,2626,-4464,8193
39306018,4199,0,1.09178,0.46191952,-9.893489,-0.006064885,0.004418458,-0.06231131,46.625,78.0,0.0023928226,1114658,-264,-4245,-5006,-5
39407869,4200,0,0.13089873,-0.8937751,-9.695828,-0.026416192,0.007069879,-0.033748515,46.625,78.0,0.0023928226,1114658,-576,-1744,-6435,0
39509734,5249,0,-0.4296017,-0.83884084,-9.598529,-0.03334227,0.009817801,-0.08159927,46.625,78.0,0.0023928226,1114658,-131,-1294,-8595,9015
39612619,4165,0,-1.1743426,0.49440736,-9.7252,0.04676733,0.0052197576,-0.05094913,46.625,78.0,0.0023928226,1114658,557,5421,-1558,2049
39714520,5302,0,0.586343,0.769629,-8.807023,0.053557824,0.0011707114,-0.09317303,46.625,78.0,0.0023928226,1114658,854,2406,-7899,8743
39817368,4194,0,-0.0029678477,-0.37838784,-9.205655,0.029302523,-0.0031572962,-0.06450336,46.625,78.0,0.0023928226,1114658,-206,2016,-6050,-5
39919321,4302,0,-0.19388336,-0.79979116,-9.2563715,0.031672124,-0.0041052247,-0.038967468,46.625,78.0,0.0023928226,1114658,168,3269,-1992,8755
40022158,4239,0,0.9116444,0.18333517,-9.694805,-0.007698876,0.008346457,-0.06739075,46.5,78.0,0.0023928226,1114658,-1623,-2866,-3085,-5
40121868,4194,0,-0.07332337,1.0755323,-9.964877,0.025441902,0.0054191602,-0.057775572,46.5,78.0,0.0023928226,1114658,-291,2893,-5994,8192
40222670,4120,0,1.394387,0.5959078,-9.779512,0.03456799,-0.007302392,-0.07803754,46.625,78.0,0.0023928226,1114658,435,-706,-5646,8744
40324525,4206,0,1.0056243,-0.60006016,-10.298431,0.011465981,-0.0035130843,-0.0464193,46.75,78.0,0.0023928226,1114658,538,-2202,-6081,8192
40425318,4159,0,1.3551002,-0.70522344,-10.303167,-0.004185137,0.008993169,-0.034418587,46.625,78.0,0.0023928226,1114658,286,-2887,-988,-5
40529269,4184,0,-1.2983563,0.5897504,-9.515008,-0.005514448,-0.0015168957,-0.0030815585,46.5,78.0,0.0023928226,1114658,1495,3764,-4656,8192
40630115,4216,0,0.18794508,1.5294703,-9.119926,-0.022345254,-0.0004844566,-0.034478474,46.625,78.0,0.0023928226,1114658,911,513,-6650,2049
40729831,4134,0,-1.624748,0.773551,-8.751917,-0.019031812,0.0045392327,-0.019534627,46.625,78.0,0.0023928226,1114658,2147,4249,-5694,8744
40834819,4199,0,0.50774115,-0.5666582,-11.210297,0.005358374,-0.0048532174,-0.06737607,46.625,78.0,0.0023928226,1114658,1121,329,2023,8761
40932469,4175,0,-0.8062392,-0.8653951,-10.650315,0.019816788,0.009044975,-0.06881449,46.625,78.0,0.0023928226,1114658,1031,4280,-2578,8193
41033269,4200,0,-0.38879463,-0.3244693,-9.881747,0.039186493,0.0036201824,-0.045536693,46.625,78.0,0.0023928226,1114658,129,3217,-3150,8756
41135118,5249,0,0.4352452,1.103114,-10.201164,0.013322308,-0.0026877238,-0.04323458,46.5,78.0,0.0023928226,1114658,698,-804,-1670,8192
41238018,4199,0,0.44312197,0.31731802,-9.209019,-0.037817705,-0.0034916007,-0.061229974,46.75,78.0,0.0023928226,1114658,387,-4087,-7708,-5
41339869,5250,0,-0.32903364,-0.6613436,-10.126081,-0.013636381,0.0032519365,-0.048601013,46.625,78.0,0.0023928226,1114658,555,1229,-1347,8193
41442769,6300,0,-1.3449223,-0.16880988,-10.090424,-0.015683627,0.0060993144,-0.045709573,46.75,78.0,0.0023928226,1114658,1286,4642,-3527,8192
41542550,4232,0,0.094159886,1.2632841,-7.863588,0.023082644,0.008835416,-0.0361492,46.75,78.0,0.0023928226,1114658,1063,1173,-8705,-5
41643376,4218,0,-0.46061894,1.3514949,-10.036198,0.021940082,0.006702266,-0.07117676,46.75,78.0,0.0023928226,1114658,191,2660,-5026,8767
41747341,4273,0,1.364403,-0.9101389,-11.139509,-0.02035545,-0.00685302,-0.035634987,46.625,78.0,0.0023928226,1114658,-1468,-3291,251,8756
41845969,4197,0,0.4075592,-0.7086007,-9.503249,0.028599843,-0.010723457,-0.037459757,46.75,78.0,0.0023928226,1114658,888,529,-3678,8193
41949919,4133,0,0.6048223,0.23844032,-9.969825,-0.012668838,0.0114147635,-0.027248492,46.75,78.0,0.0023928226,1114658,-268,-3531,-476,2049
42050719,4133,0,0.12677044,0.8154162,-9.626664,-0.024925953,0.022310128,-0.0023917856,46.625,78.0,0.0023928226,1114658,-144,-1599,-1563,8193
42152568,5227,0,-0.6796235,1.1343455,-10.162472,-0.038904566,0.0039046793,-0.062343046,46.625,78.0,0.0023928226,1114658,-1339,-158,-888,-5
42255507,6297,0,-0.4921555,0.2797207,-9.683914,-0.030864649,-0.014707508,-0.046339355,46.625,78.0,0.0023928226,1114658,1183,3799,-6991,16954
42357319,5192,0,-1.5250828,-0.9380184,-9.8149,-0.01603716,-0.0035117785,-0.07589536,46.625,78.0,0.0023928226,1114658,1038,3725,-3285,8193
42456127,4300,0,-0.26644668,-0.3761877,-10.158189,-0.026939936,0.015888788,-0.015214375,46.625,78.0,0.0023928226,1114658,527,-524,573,8759
42556897,4278,0,0.11703544,-0.16331318,-10.219357,-0.029411271,0.00053187844,-0.021553235,46.625,78.0,0.0023928226,1114658,-2182,-2221,-833,8763
42660793,4225,0,-0.48900244,1.4648241,-10.01169,-0.032684244,0.011541851,-0.040741555,46.75,78.0,0.0023928226,1114658,666,1967,-2451,8766
42760518,5170,0,-0.5568795,1.0957997,-9.814724,-0.041050676,-0.010949173,-0.030918796,46.625,78.0,0.0023928226,1114658,1612,-1244,-262,8764
42861319,4160,0,0.25331163,-0.40470424,-9.254505,-0.03191527,-0.004876148,-0.019067127,46.75,78.0,0.0023928226,1114658,1253,-3123,-7242,8193
42965295,5184,0,-0.7980576,-0.84693444,-10.091343,-0.02702143,0.0093396725,-0.034264177,46.625,78.0,0.0023928226,1114658,-268,-88,289,8766
43066114,4222,0,-0.08834246,0.5361549,-10.091832,-0.01881365,0.012055565,-0.00742209,46.625,78.0,0.0023928226,1114658,9,-2123,-2107,2049
43166869,4162,0,0.43151575,1.327074,-9.7970705,-0.026572688,-0.0059173102,-0.0326988,46.75,78.0,0.0023928226,1114658,-855,-3358,-1141,9134
43268719,4200,0,1.2725298,0.7252808,-9.793008,-0.019049551,0.0012038114,-0.045655813,46.625,78.0,0.0023928226,1114658,-74,-3563,-6234,8193
43372669,4200,0,-0.63982165,-0.7093576,-9.798216,-0.016820654,-0.0006943031,-0.02631345,46.625,78.0,0.0023928226,1114658,958,1475,-4681,2048
43476627,5255,0,-1.2365162,0.018376805,-9.112652,0.012568237,0.0114628095,-0.04762577,46.625,78.0,0.0023928226,1114658,-468,4523,-4094,-5
43577430,4211,0,-0.8531037,1.4838517,-10.113026,0.004643569,0.009299651,-0.06747632,46.625,78.0,0.0023928226,1114658,413,3320,-4625,-5
43680369,4178,0,1.1859775,0.91807127,-10.394912,0.034518424,-0.00976472,-0.040446464,46.75,78.0,0.0023928226,1114658,3285,-1533,-1985,8783
43782169,4200,0,0.7802855,-0.4133149,-10.094839,0.024936192,-0.008740283,-0.034404505,46.75,78.0,0.0023928226,1114658,664,-1122,-2177,-5
43882976,4207,0,-0.32230616,-0.7084962,-10.234828,0.015895886,0.0057981797,-0.050678756,46.75,78.0,0.0023928226,1114658,-758,1504,-3214,8193
43984921,4253,0,0.07248899,0.46558985,-9.892016,0.019434297,0.016106114,-0.050910313,46.625,78.0,0.0023928226,1114658,-246,-2806,-2798,8777
44085699,4267,0,-0.39873138,1.4823699,-10.82564,0.035633776,0.008664171,-0.051744647,46.625,78.0,0.0023928226,1114658,1864,2546,-2152,8775
44187469,4172,0,-0.5621241,0.7174368,-9.757203,0.036721285,-0.0008135589,-0.045187462,46.625,78.0,0.0023928226,1114658,2439,3470,-5696,8193
44289319,5163,0,-1.1675663,-0.76479197,-9.948319,0.013772874,-0.0046793628,-0.042588864,46.625,78.0,0.0023928226,1114658,668,5915,-2541,8193
44388149,4330,0,0.68101573,-0.5883668,-10.021144,-0.03736165,-0.010991746,-0.03871386,46.625,78.0,0.0023928226,1114658,279,-1636,-5364,8773
44488935,4301,0,-0.5373905,-0.0054174666,-9.016119,-0.025613174,0.0008003719,-0.016062766,46.75,78.0,0.0023928226,1114658,770,276,-7337,8786
44590669,4134,0,-0.2205477,1.1322476,-8.571337,-0.027813409,-0.00020351596,-0.06610509,46.75,78.0,0.0023928226,1114658,-392,-150,-7763,8192
44692519,5222,0,-0.5889514,0.90765876,-9.785982,-0.008160036,-0.006928397,-0.0571238,46.75,78.0,0.0023928226,1114658,702,4174,-3363,2048
44797519,4200,0,-0.6999641,-1.1276503,-10.271759,0.036207736,-0.002092319,-0.03334367,46.625,78.0,0.0023928226,1114658,98,3451,-3195,8779
44901471,4157,0,-0.25317943,-0.07740745,-9.795676,0.01905773,0.012556599,-0.033396445,46.625,78.0,0.0023928226,1114658,-573,63,-1716,8193
45002285,4173,0,0.38892862,0.85728514,-9.210776,0.030656565,0.00075775845,-0.05027785,46.75,78.0,0.0023928226,1114658,933,-1695,-6833,8193
45104152,4234,0,0.19014965,0.6472308,-9.530693,0.03717566,-0.005768285,-0.05244598,46.625,78.0,0.0023928226,1114658,-728,1373,-4652,8192
45204921,4202,0,-1.4958422,0.1732001,-9.436121,0.024847887,-0.00945511,-0.055772074,46.625,78.0,0.0023928226,1114658,572,6153,-6551,8782
45306769,5249,0,-0.83537626,-0.7528183,-8.964409,0.009015505,-0.004560501,-0.07287615,46.625,78.0,0.0023928226,1114658,22,4949,-7714,8775
45407618,4249,0,-1.3480803,0.40099,-9.550145,-0.01489654,0.0053150123,-0.045740377,46.75,78.0,0.0023928226,1114658,-1149,4052,-2004,2049
45509452,4233,0,-1.0442761,1.5640678,-9.810895,-0.029165605,0.006398359,-0.026643515,46.75,78.0,0.0023928226,1114658,2443,1049,-2763,2049
45613369,5179,0,-0.7070745,-0.00019794535,-9.633973,-0.03195456,-0.008192415,-0.015767535,46.625,78.0,0.0023928226,1114658,2206,1209,-3405,-4
45714168,4199,0,0.86877906,-1.0193081,-9.941212,-0.022030253,0.0025936444,-0.029502522,46.625,78.0,0.0023928226,1114658,-390,-3509,-4524,8192
45816186,4368,0,0.0067381854,0.12856506,-10.318353,0.02992995,0.016223377,-0.066917256,46.75,78.0,0.0023928226,1114658,615,1521,-3157,8775
45921020,4073,0,-1.3139049,1.3949531,-9.261754,0.045802027,0.006850678,-0.03379531,46.625,78.0,0.0023928226,1114658,1218,6334,-6069,8776
46022869,5148,0,-0.4629163,1.0275415,-10.806089,-0.010042002,0.006396888,-0.065844946,46.625,78.0,0.0023928226,1114658,528,4129,-5077,2048
46125811,4230,0,-0.49079004,-1.3662933,-10.374903,-0.04112345,0.0069716256,-0.005667397,46.625,78.0,0.0023928226,1114658,247,-748,-378,8780
46227619,5250,0,0.81857467,-0.72330004,-9.67762,0.020444682,0.012271151,-0.07582986,46.625,78.0,0.0023928226,1114658,-1897,-2021,-7141,8778
46324219,4122,0,0.51416075,-0.30134162,-9.999701,-0.048999015,0.01071801,-0.042572215,46.75,78.0,0.0023928226,1114658,-1957,-5816,-2649,8192
46427133,4214,0,0.8222514,1.3796581,-10.423429,0.017391482,-0.0020330413,-0.023188025,46.75,78.0,0.0023928226,1114658,1331,-2136,-1412,2049
46528975,4207,0,0.710577,1.1403859,-9.196709,0.026916176,0.0034246468,-0.061150644,46.75,78.0,0.0023928226,1114658,539,4365,-9267,8193
46630819,5250,0,-0.21706702,-0.058046013,-9.604302,-0.037795663,-0.0014204544,-0.035436288,46.75,78.0,0.0023928226,1114658,1259,-3755,535,8749
46733722,4203,0,-0.08895633,-0.6752797,-9.3594885,0.027592076,0.007559549,-0.060226157,46.75,78.0,0.0023928226,1114658,-1202,105,-4027,8764
46835568,5249,0,-1.3939186,1.602294,-9.640537,0.005244741,0.016273787,-0.032058563,46.625,78.0,0.0023928226,1114658,253,4068,-4259,16954
46938531,6338,0,2.0687034,0.8753897,-9.382738,-0.024724264,0.002906145,-0.07584243,46.75,78.0,0.0023928226,1114658,612,-4139,-4719,8770
47042523,4304,0,1.1218327,-0.522801,-10.455728,-0.025339838,-0.014888721,-0.042546075,46.625,78.0,0.0023928226,1114658,-40,-5046,-3944,8772
47143331,4313,0,-1.2624459,-0.8230733,-9.546691,0.022594232,0.007980373,-0.074987344,46.5,78.0,0.0023928226,1114658,-224,4597,-6836,8769
47245069,4120,0,0.4538812,0.10557246,-9.672841,-0.052452594,0.0004798074,-0.014887309,46.75,78.0,0.0023928226,1114658,336,-5739,-3811,8764
47346918,5197,0,0.53436583,1.718129,-9.397643,0.029424082,-0.0017937294,-0.07094917,46.75,78.0,0.0023928226,1114658,875,-1139,-8538,8762
47449865,4155,0,-0.042207994,0.046201292,-10.822188,0.03370362,-0.0071425075,-0.049261738,46.625,78.0,0.0023928226,1114658,993,5064,740,-5
48465169,4194,0,-0.042306725,-0.8569239,-10.093339,-0.029645324,0.0028570083,-0.044797417,46.625,78.0,0.0023928226,1114658,803,-669,-957,8782
48570169,4158,0,-0.8180424,0.11724357,-9.6328535,-0.02506483,0.012033962,-0.00028607476,46.75,78.0,0.0023928226,1114658,-138,1778,-76,8794
48667827,4208,0,0.5631403,0.1529882,-9.8033085,0.018033093,-0.0006617125,-0.049897738,46.75,78.0,0.0023928226,1114658,873,-4213,-1508,0
48771769,4174,0,0.7761081,1.3279561,-9.277536,-0.006276122,-0.010154926,-0.041104753,46.75,78.0,0.0023928226,1114658,-374,-4423,-5569,8789
48876769,4200,0,-0.10657853,-0.14196755,-10.903579,-0.04006681,-0.0040480806,-0.060788486,46.75,78.0,0.0023928226,1114658,963,-1344,141,8192
48978621,5252,0,1.0185683,-1.0864081,-10.422507,-0.022680735,-0.004097521,-0.037865493,46.875,78.0,0.0023928226,1114658,456,-5231,-465,8786
49075321,4290,0,-0.68418753,-0.975417,-9.668273,0.012607172,0.0070948116,-0.07861883,46.625,78.0,0.0023928226,1114658,382,2110,-7298,8793
49180218,4046,0,0.32010803,1.3306726,-9.121686,0.04590854,-0.0026732716,-0.036068734,46.625,78.0,0.0023928226,1114658,2469,934,-5131,-5
49279991,4223,0,-1.4814978,1.5082479,-9.949991,0.016253954,0.009984066,-0.02628374,46.75,78.0,0.0023928226,1114658,1092,5262,-2363,2049
49382869,4200,0,-0.89844537,0.57402897,-9.995389,0.0154647995,-0.0002049921,-0.02319018,46.75,78.0,0.0023928226,1114658,894,4694,-4324,8804
49484738,4219,0,-0.86613,-0.6844754,-9.225059,-0.004474584,-2.2475964e-05,-0.020864733,46.75,78.0,0.0023928226,1114658,1229,3024,-4757,8192
49587619,4153,0,-1.6315223,-0.1862518,-9.021939,-0.005252836,0.019772658,-0.031777408,46.875,78.0,0.0023928226,1114658,-353,4024,-6650,8192
49689468,6300,0,0.2008565,-0.24223657,-9.130318,-0.026988413,0.016968472,-0.07740391,46.625,78.0,0.0023928226,1114658,-2770,1036,-3981,8193
49789219,4182,0,0.9641967,0.7030554,-9.28167,-0.004140431,0.000476307,-0.04337281,46.75,78.0,0.0023928226,1114658,-1640,-3237,-5199,0
49887918,4198,0,0.4101719,0.8196154,-9.278551,0.025129238,-0.020864956,-0.047391854,46.75,78.0,0.0023928226,1114658,3710,1462,-3192,2049
49990819,4151,0,0.6086127,-0.32899827,-9.549393,0.032286365,-0.008381162,-0.0356786,46.75,78.0,0.0023928226,1114658,1231,2148,-2845,8801
50092668,4199,0,-0.6275344,-0.16485602,-9.520545,0.037852816,-0.00030503728,-0.03977678,46.75,78.0,0.0023928226,1114658,1678,4884,-4547,-5
50194527,5259,0,-0.4327476,0.9513403,-8.481829,0.021531636,-0.0010194415,-0.05742229,46.75,78.0,0.0023928226,1114658,1845,3792,-8045,8795
50297418,6259,0,-1.3716978,1.1323725,-8.744979,0.021278648,0.0032130575,-0.06689267,46.75,78.0,0.0023928226,1114658,511,4745,-7707,-5
50399337,5318,0,-0.461798,-0.14211239,-9.810885,0.050629854,-0.0030514586,-0.08069773,46.75,78.0,0.0023928226,1114658,1089,4595,-6579,8804
50502187,4205,0,-0.69998294,-0.74281293,-10.65371,0.036718484,0.0046773376,-0.04400044,46.75,78.0,0.0023928226,1114658,666,2951,-424,8794
50601934,4179,0,-0.6241433,0.7178902,-9.576865,0.030375985,0.012230723,-0.0558225,46.75,78.0,0.0023928226,1114658,1926,2581,-3044,8806
50702719,4170,0,-1.4835432,1.2333716,-10.211917,-0.004564153,0.01829182,-0.057726886,46.75,78.0,0.0023928226,1114658,239,4533,-2960,8817
50803519,4198,0,0.20227626,0.52776676,-9.354433,-0.017655717,-8.055018e-05,-0.065575734,46.625,78.0,0.0023928226,1114658,712,506,-7197,8816
50909614,4223,0,0.11197721,-0.50551885,-10.051603,0.03444393,0.00010322794,-0.03592151,46.875,78.0,0.0023928226,1114658,1500,1467,-3444,8192
51011419,4090,0,-0.45195466,0.3181884,-9.617288,0.025406124,0.006524439,-0.03170889,46.875,78.0,0.0023928226,1114658,1114,2101,-931,8826
51112267,4136,0,-0.11125253,1.519126,-9.397955,0.03412342,0.00954062,-0.061183717,46.875,78.0,0.0023928226,1114658,953,2493,-1935,8192
51213018,4121,0,-0.27405506,1.0742931,-10.151992,0.02270154,0.003228093,-0.076820426,46.75,78.0,0.0023928226,1114658,-350,4123,-4691,-5
51316970,4201,0,1.2348928,-0.47928244,-10.592685,0.021897767,-0.006008539,-0.060613085,46.75,78.0,0.0023928226,1114658,1734,-3485,912,8193
51423020,5222,0,-1.2610339,-0.28063872,-9.14642,-0.039946157,0.010460439,-0.044325095,46.625,78.0,0.0023928226,1114658,-767,1126,-4857,8811
51519639,5270,0,0.54938084,-0.30091596,-10.92952,-0.0090362225,0.0134223895,-0.054862425,46.75,78.0,0.0023928226,1114658,-1511,-3100,1960,-5
51624619,4165,0,-0.9046714,1.2369124,-9.243063,-0.038250756,0.008190303,-0.008514563,46.75,78.0,0.0023928226,1114658,206,1777,-4019,8804
51726529,4260,0,0.10672943,0.3985974,-9.213116,-0.030176833,-0.0034087605,-0.016447961,46.625,78.0,0.0023928226,1114658,2216,-146,-4986,8814
51830521,4302,0,-0.5792458,-1.0132511,-8.55135,0.01516142,-0.0054102396,-0.04074324,46.75,78.0,0.0023928226,1114658,426,4474,-8733,8800
51931330,4305,0,-1.3978992,0.022810122,-9.358032,0.0019379269,0.012731783,-0.04154882,46.75,78.0,0.0023928226,1114658,702,4892,-6053,8794
52032097,4269,0,-0.8401878,1.1701432,-8.589763,-0.00991149,0.012358476,-0.048474055,46.875,78.0,0.0023928226,1114658,263,2385,-7377,8801
52133868,5249,0,-0.8210464,1.6350422,-8.597047,0.0053899176,0.009133666,-0.04061084,46.875,78.0,0.0023928226,1114658,541,4894,-5520,8804
52236803,4235,0,-1.0124416,0.1563868,-9.829847,0.032466166,-0.0075707487,-0.06763271,46.875,78.0,0.0023928226,1114658,2693,4835,-6439,2049
52336519,4200,0,-0.7157322,-0.13041449,-8.402482,0.028190132,-0.0028090114,-0.058332525,46.875,78.0,0.0023928226,1114658,1562,3394,-6774,8192
52437318,4159,0,-1.5035248,-0.5970131,-9.501989,0.019015186,0.005151613,-0.061835393,46.75,78.0,0.0023928226,1114658,296,5390,-5055,8193
52540219,4098,0,0.67411953,1.2494957,-9.384329,0.025541827,-2.0806066e-05,-0.06773813,46.75,78.0,0.0023928226,1114658,1270,-2031,-7000,8192
52642096,4197,0,0.61188215,0.91100687,-10.064379,0.012162288,-0.007883876,-0.046825793,46.625,78.0,0.0023928226,1114658,-79,-1781,-5101,9456
52741819,5236,0,0.9989962,0.03581917,-9.631104,0.018148273,-0.009887389,-0.030498916,46.75,78.0,0.0023928226,1114658,18,-1040,-2908,9476
52846819,4200,0,-1.3088864,-0.43965915,-9.806044,-0.00972866,0.0017649746,-0.06675552,46.75,78.0,0.0023928226,1114658,413,3282,-6286,-4
52950769,4170,0,1.1857648,0.86376035,-10.088333,0.009275929,0.0041314187,-0.055521954,46.875,78.0,0.0023928226,1114658,958,-4307,-3035,2048
53054745,5276,0,-0.84662235,0.35325775,-10.209462,-0.028124943,0.014052659,-0.060984883,46.75,78.0,0.0023928226,1114658,830,1627,-5283,-4
53155541,4194,0,-0.20401734,-0.6466818,-9.4772415,0.019998712,0.0019508358,-0.054920964,46.875,78.0,0.0023928226,1114658,535,3454,-7857,-5
53256363,4212,0,0.5837011,-0.56853867,-9.304758,0.018443517,0.003826448,-0.051620096,46.75,78.0,0.0023928226,1114658,1079,-1255,-6683,8802
53358176,4207,0,0.3445659,-0.1411817,-9.797089,-0.024323659,0.0063661137,-0.037287727,46.75,78.0,0.0023928226,1114658,-2884,-2195,-1528,8193
53464219,5250,0,0.056120083,0.84290683,-9.152717,0.037806906,0.0059318077,-0.07937178,46.625,78.0,0.0023928226,1114658,1323,3443,-6722,8193
53562919,4200,0,-0.059532426,-0.2949179,-9.17092,0.010183805,0.00035877476,-0.054008055,46.875,78.0,0.0023928226,1114658,1528,1957,-8334,2048
53663719,4200,0,-0.3489603,-1.0213442,-9.333978,-0.0012528069,-0.005810794,-0.05290859,46.75,78.0,0.0023928226,1114658,-812,1894,-4117,8816
53765568,5248,0,-0.3887262,-0.07092598,-9.484808,0.027612366,-0.00416179,-0.047981452,46.75,78.0,0.0023928226,1114658,389,2135,-2363,8192
53868468,4191,0,1.0684767,0.99137616,-9.396834,-0.018187327,-0.006504619,-0.04056656,46.875,78.0,0.0023928226,1114658,-405,-4080,-3419,8193
53965077,4156,0,-0.12011455,1.3861061,-9.186958,0.02172015,0.0015233395,-0.06406685,46.75,78.0,0.0023928226,1114658,2210,-62,-2511,8192
54071159,4240,0,0.79557157,-0.950211,-8.768013,-0.019016257,-0.005763473,-0.028793618,46.875,78.0,0.0023928226,1114658,1308,-2460,-9595,-5
54172977,4181,0,-0.9386395,-0.67202777,-8.870235,-0.027493995,0.004545305,-0.044504732,46.75,78.0,0.0023928226,1114658,-346,1415,-9012,-5
54273799,4211,0,-0.50579625,0.4439438,-8.515735,0.0030950652,0.008498704,-0.035194818,46.75,78.0,0.0023928226,1114658,-1491,3691,-6159,-5
54372481,4198,0,0.5765898,0.6801907,-9.070185,-0.022903325,0.009820899,-0.030680854,46.875,78.0,0.0023928226,1114658,-144,-3486,-4823,-5
54476418,5215,0,-0.5138173,0.50812846,-9.392905,0.035125628,0.0032583936,-0.06744208,46.75,78.0,0.0023928226,1114658,-309,6106,-5664,-5
54579323,6304,0,-0.25595003,-0.58922553,-10.429124,0.012380446,-0.0030402828,-0.102358766,46.75,78.0,0.0023928226,1114658,674,1132,-2719,8833
54675919,4196,0,-1.4671285,-0.95964134,-9.259557,0.009212052,-0.001083172,-0.04496735,46.875,78.0,0.0023928226,1114658,1480,5224,-7589,2048
54781972,4190,0,0.6252722,0.37851438,-10.537114,-0.014710618,0.003932862,-0.04576423,46.75,78.0,0.0023928226,1114658,-2399,-2366,2291,8193
54883819,4200,0,-0.21412416,1.1235856,-9.967346,-0.0012268699,0.0015692533,-0.030709893,46.875,78.0,0.0023928226,1114658,487,2571,-872,-5
54984624,4196,0,0.45195785,0.56698877,-9.537595,0.003235237,0.003088596,-0.024262087,46.75,78.0,0.0023928226,1114658,2851,181,-5696,-5
55085418,4200,0,-0.474,-0.21561107,-10.589219,-0.016211195,-0.0032286402,-0.06821419,46.875,78.0,0.0023928226,1114658,326,3095,-946,-5
55185169,4200,0,-0.9145743,-0.4814047,-10.082464,0.010097176,0.0075484416,-0.059216734,46.75,78.0,0.0023928226,1114658,1617,3310,-7611,8836
55287018,4200,0,0.6783587,0.22040294,-10.057533,0.01962144,0.009027552,-0.04895943,46.75,78.0,0.0023928226,1114658,-1218,-1513,-4472,-5
55387856,4237,0,1.200181,0.7639402,-9.657869,-0.0028926607,0.005169955,-0.0516986,46.75,78.0,0.0023928226,1114658,113,-5017,-4510,0
55491769,4200,0,-0.42360163,0.059088856,-10.088769,0.008401274,0.008861844,-0.04857914,46.625,78.0,0.0023928226,1114658,-388,4467,-3376,8193
55590506,5287,0,0.70958865,-0.9632844,-9.365193,-0.012306043,-0.0037790877,-0.023424862,46.75,78.0,0.0023928226,1114658,-671,-264,-2653,9544
55695470,4141,0,-0.7370477,0.18260226,-10.270939,0.026041655,0.014245307,-0.06544756,46.75,78.0,0.0023928226,1114658,725,3523,-4042,16955
55797319,4173,0,0.9574341,1.5598401,-10.084064,0.03741057,0.009290665,-0.0713073,46.75,78.0,0.0023928226,1114658,1793,-1681,-2837,8193
55898159,4240,0,1.0884258,1.3858312,-10.827127,-0.0042718537,0.010028138,-0.053909868,46.75,78.0,0.0023928226,1114658,-1459,-1465,-1730,0
56004213,4244,0,-0.35598698,-0.20990041,-9.990453,-0.02862568,-0.006963609,-0.038904198,46.75,78.0,0.0023928226,1114658,1106,379,-3300,-5
56101819,5250,0,-0.001285389,-0.312104,-9.6595955,-0.01665448,-0.0020770547,-0.055060934,46.75,78.0,0.0023928226,1114658,529,-4672,-7281,8846
56202619,4146,0,-0.039399587,-0.20766379,-8.970164,-0.026539357,0.0047790515,-0.02008357,46.75,78.0,0.0023928226,1114658,-290,-1343,-5752,-5
56307620,4201,0,-0.79504377,0.6795085,-8.928814,-0.01779909,0.0072615054,-0.07618446,46.875,78.0,0.0023928226,1114658,-1006,2833,-5454,8846
56407375,4193,0,-1.0826019,0.6815674,-9.135887,-0.016097516,0.0059275334,-0.02340246,46.75,78.0,0.0023928226,1114658,1166,3410,-6687,8851
56509219,4200,0,-0.15978125,-0.3375536,-9.188514,-0.014933503,-0.0030852677,-0.03461603,46.875,78.0,0.0023928226,1114658,1686,989,-5750,-5
56610018,4196,0,-0.988984,-0.56231487,-9.688481,-0.0039059592,0.003753429,-0.004487569,46.75,78.0,0.0023928226,1114658,964,3409,-4494,-5
56710818,4198,0,-0.06920132,0.28936955,-9.8419075,-0.03438643,0.012103724,-0.047270656,46.75,78.0,0.0023928226,1114658,907,-640,-1431,8193
56817919,5250,0,0.93298346,0.84976995,-9.837787,0.010798307,-0.0140269715,-0.07053104,46.75,78.0,0.0023928226,1114658,1079,-1803,-2132,0
56920897,4279,0,1.8000672,-0.7902021,-10.305138,-0.017170547,-0.000883191,-0.042279713,46.75,78.0,0.0023928226,1114658,234,-4954,-2195,8843
57021728,4310,0,0.9536985,-1.077102,-9.726317,-0.0020415545,0.0008589262,-0.027778933,46.75,78.0,0.0023928226,1114658,-2029,-3266,-1311,8834
57123469,4120,0,0.42588672,-0.1482116,-9.557778,-0.006812239,0.004098691,-0.032887608,46.75,78.0,0.0023928226,1114658,-1896,-3100,-2198,2048
57224269,4172,0,0.92549294,1.5964164,-9.276976,0.035502244,-0.0027313335,-0.03397794,46.75,78.0,0.0023928226,1114658,2127,-1422,-5779,8846
57326150,4231,0,0.3039073,1.61525,-9.362714,0.03212502,-0.0072434535,-0.04094036,46.875,78.0,0.0023928226,1114658,3073,1134,-4693,8192
57424980,4361,0,-0.8607639,0.3856234,-10.058524,-0.03033202,-0.0037117675,-0.021845957,46.875,78.0,0.0023928226,1114658,552,1771,-2545,8842
57526669,4164,0,1.0664032,-0.5207077,-10.031131,-0.02514541,0.00019089499,-0.02735856,46.875,78.0,0.0023928226,1114658,1314,-4012,-1021,9598
57627469,4172,0,0.91134334,-0.44896236,-10.425223,0.030426223,0.008775523,-0.07109126,46.875,78.0,0.0023928226,1114658,-124,-1266,338,8193
57733519,4200,0,1.2968078,1.1670928,-9.527664,0.0015754412,-0.0071243807,-0.04442446,46.875,78.0,0.0023928226,1114658,359,-2635,-643,8192
57830159,4219,0,-1.0128875,1.1316963,-9.22255,-0.018350547,0.010200975,-0.0454403,46.875,78.0,0.0023928226,1114658,270,1665,-6276,8848
57931969,4193,0,0.3446611,1.28484,-10.473675,-0.036514252,0.0023185082,-0.04180923,46.875,78.0,0.0023928226,1114658,1101,-824,-232,8193
58033819,5250,0,-0.15433279,0.54047436,-10.185058,-0.024136668,-0.0024196813,-0.048828192,46.875,78.0,0.0023928226,1114658,2273,-5640,-32,8846
58136718,4199,0,0.111450925,-0.4751733,-9.87155,-0.054972548,0.006788578,-0.01193882,46.75,78.0,0.0023928226,1114658,1126,-3850,-3744,8192
58239619,4200,0,0.03579959,0.77248603,-8.8492565,-0.026265698,0.017403193,-0.029722128,46.875,78.0,0.0023928226,1114658,-450,-1008,-7791,8844
58345723,4253,0,0.14588347,0.84670526,-9.997171,0.020466307,-0.01611258,-0.047692426,46.875,78.0,0.0023928226,1114658,2075,3446,-5105,8846
58443357,5289,0,-0.28932375,1.1000903,-10.867163,-0.029143173,0.0061755516,-0.03438934,46.875,78.0,0.0023928226,1114658,2026,587,-1379,9643
58548319,4172,0,-0.6296729,-1.2862158,-9.269519,0.029458039,-0.0056363777,-0.047161154,46.875,78.0,0.0023928226,1114658,626,3922,-6207,-5
58646023,4213,0,-0.87327623,-1.2018877,-9.545617,-0.039109956,0.0018772837,-0.018200641,46.875,78.0,0.0023928226,1114658,92,1576,-2968,8193
58750969,4200,0,-1.2766833,1.2733388,-8.710527,0.009444195,0.0053936737,-0.077705145,46.875,78.0,0.0023928226,1114658,-997,3603,-8283,8193
58850718,4190,0,-0.8506894,1.425138,-8.607802,-0.0132385325,0.0062661376,-0.032515075,46.875,78.0,0.0023928226,1114658,-38,2844,-7138,8848
58951518,4169,0,0.030567434,0.60486877,-9.67759,-0.042835705,0.00042086645,-0.034452584,46.75,78.0,0.0023928226,1114658,10,-1616,-3690,9655
59053369,4198,0,-0.110187516,-0.8115625,-9.884896,-0.04202022,-0.0036781945,-0.053936258,47.0,78.0,0.0023928226,1114658,47,-896,-3865,8853
59156269,4122,0,-0.8512873,-0.25982234,-10.110027,-0.035936356,0.0035196047,-0.05553698,46.875,78.0,0.0023928226,1114658,629,1239,-612,8867
59258158,4240,0,-0.16208702,1.0420237,-9.48995,-0.020103928,0.017963856,-0.031174762,46.875,78.0,0.0023928226,1114658,1079,685,-925,0
59358955,4237,0,0.32687682,1.0090138,-10.868358,-0.033165794,0.012044348,-0.018730406,46.875,78.0,0.0023928226,1114658,25,-3484,86,-5
59464987,4218,0,-1.3680809,-0.3604213,-8.923378,0.0043051015,-0.007950708,-0.0350955,46.875,78.0,0.0023928226,1114658,800,5117,-7895,8193
59563673,4204,0,0.021347461,-1.2801214,-10.17406,-0.040537704,-0.0021918856,-0.019202417,46.875,78.0,0.0023928226,1114658,-239,-1794,-1410,8192
59667619,4193,0,-1.126407,-0.45326596,-9.198398,-0.033488095,0.0074177044,-0.05983607,46.875,78.0,0.0023928226,1114658,-1062,2171,-4612,9664
59768420,6257,0,0.30311114,0.3776146,-9.241412,-0.024219485,0.02209664,-0.051834773,46.875,78.0,0.0023928226,1114658,-1051,422,-3604,8863
59868203,4234,0,0.43956843,0.7899259,-9.839886,-0.025797622,0.0056589544,-0.050985638,46.75,78.0,0.0023928226,1114658,-2179,-3863,-3418,8872
59970027,4208,0,0.82921803,-0.003215078,-9.840411,-0.022181796,-0.007257237,-0.050256714,46.75,78.0,0.0023928226,1114658,-550,-3540,-4318,8855
60070819,4200,0,0.44213668,-0.91747946,-9.550986,0.002608785,-0.0109462375,-0.02873338,46.875,78.0,0.0023928226,1114658,-292,-1702,-4405,8859
60174768,4189,0,-1.3009605,-0.27628744,-9.602527,-0.032060362,0.009446439,-0.05919226,47.0,78.0,0.0023928226,1114658,-1579,2556,-4506,8192
60275568,4199,0,-0.15085244,0.48531452,-8.540988,-0.026662469,0.004644959,-0.0428009,46.625,78.0,0.0023928226,1114658,-948,-1376,-8036,16954
60375349,5280,0,1.3731093,0.9109665,-9.4923115,-0.02436637,-0.004759552,-0.038416397,46.875,78.0,0.0023928226,1114658,369,-4802,-1889,9680
60480319,4198,0,-0.5409166,-0.5797683,-10.042784,-0.026477257,-0.009111555,-0.07186966,46.875,78.0,0.0023928226,1114658,-264,1866,-6154,8865
60580168,5349,0,-0.5164562,-0.37723595,-9.407615,-0.030513482,-0.0047638956,-0.035122138,46.875,78.0,0.0023928226,1114658,931,1952,-5586,-5
60680959,4290,0,-0.99523133,-0.2552501,-8.642608,-0.02761268,0.0058033713,-0.041752487,46.875,78.0,0.0023928226,1114658,-305,1757,-6216,-5
60784927,5318,0,0.48955035,0.70569146,-9.620023,0.033186182,0.0051826886,-0.080338195,46.875,78.0,0.0023928226,1114658,-175,4317,-10087,8878
60883519,4194,0,-0.66868395,1.1672711,-9.107672,-0.015104762,0.004465667,-0.033412233,46.75,78.0,0.0023928226,1114658,691,4546,-7312,-5
60987471,4197,0,-0.08346079,-0.57280654,-10.399649,0.024673153,-0.0067330427,-0.07481184,46.75,78.0,0.0023928226,1114658,1488,3021,-3887,8193
61090369,4200,0,0.52212745,-1.175529,-10.343831,0.025424447,-0.00609927,-0.06264959,46.875,78.0,0.0023928226,1114658,610,-380,-1984,-5
61188133,5364,0,-1.4483943,-0.8643698,-9.683873,-0.038195822,0.016284518,-0.048664145,46.75,78.0,0.0023928226,1114658,-340,2120,-2985,8862
61288941,4323,0,-1.326176,0.6981449,-9.941832,-0.03279009,0.017719775,-0.05421379,46.875,78.0,0.0023928226,1114658,-1127,1964,-2336,8857
61393818,4089,0,-0.70914537,1.4072388,-9.511907,0.006825082,-0.0039159185,-0.028777795,46.875,78.0,0.0023928226,1114658,940,3641,-4741,8877
61495668,4199,0,-1.1039338,-0.12713191,-9.053643,-0.0038892592,-0.0046081743,-0.01958443,46.75,78.0,0.0023928226,1114658,947,3914,-3052,16955
61597566,5297,0,-0.87122464,-0.9585175,-9.526827,-0.046292342,-0.0023805592,-0.038354877,46.875,78.0,0.0023928226,1114658,63,347,-4372,-5
61698329,4212,0,-0.29920122,-0.7370084,-9.018662,-0.03638338,0.005040419,-0.043069437,47.0,78.0,0.0023928226,1114658,-1460,-2033,-5725,-5
61803335,6317,0,-1.3490537,1.2924528,-9.581774,-0.018104956,0.009962446,-0.05105941,46.875,78.0,0.0023928226,1114658,625,5268,-2899,8865
61905169,5251,0,-0.9409048,0.69941473,-9.52295,-0.007941835,-0.0119415615,-0.03464459,46.75,78.0,0.0023928226,1114658,1433,4646,-4790,8192
62008098,6310,0,-0.5843946,-0.29866925,-9.35715,-0.038796984,-0.011302189,-0.042766176,46.875,78.0,0.0023928226,1114658,502,4858,-4648,9724
62107828,4209,0,0.53363764,-0.35666057,-8.365584,-0.04146512,0.007624461,-0.014435214,46.75,78.0,0.0023928226,1114658,540,-3096,-5519,0
62208618,4199,0,1.1284431,0.06958024,-9.410363,0.0107527375,0.0065560383,-0.030218933,47.0,78.0,0.0023928226,1114658,-1064,-3472,-1112,-5
62312618,4250,0,1.8486116,1.2930633,-9.94276,0.0016857361,0.0077838628,-0.047493882,47.0,78.0,0.0023928226,1114658,-396,-3945,-2527,8192
62413384,4201,0,0.82820064,0.18909474,-11.023686,0.033657882,-0.00043892872,-0.065313615,46.875,78.0,0.0023928226,1114658,464,-410,-864,8872
62514196,4227,0,1.0296208,-0.56303227,-10.677071,0.028556636,-0.009917293,-0.07864723,47.0,78.0,0.0023928226,1114658,1283,-570,-2508,8192
62618159,4240,0,0.96389765,-0.48377827,-10.135901,-0.019110123,0.002032487,-0.022939006,46.875,78.0,0.0023928226,1114658,-1382,-4180,-1204,0
62719969,4192,0,0.6971155,0.60989606,-8.947122,-0.025954977,0.013834447,-0.02230033,47.0,78.0,0.0023928226,1114658,98,-2809,-4045,8193
62820768,6194,0,0.039030675,1.1581519,-10.336606,-0.034718912,0.0075297803,-0.017530294,47.0,78.0,0.0023928226,1114658,1387,1039,-2713,8192
62919471,4124,0,0.21786834,1.2010444,-9.970624,-0.036685713,0.003061016,-0.015127093,47.0,78.0,0.0023928226,1114658,1723,-2327,-1489,8193
63021320,4161,0,-0.6748363,0.49622133,-9.913391,0.029916741,-0.008303657,-0.039485354,46.875,78.0,0.0023928226,1114658,2419,4574,-2682,-5
63123168,4199,0,0.7786104,-0.99965495,-10.524925,-0.025457645,-0.017760985,-0.03023036,46.75,78.0,0.0023928226,1114658,-709,-4191,417,8192
63223969,4200,0,-0.60573316,0.23747773,-10.016798,0.010310852,0.008086775,-0.033174943,47.0,78.0,0.0023928226,1114658,-108,2470,-1847,8193
63330019,4200,0,-0.21958512,1.0879861,-9.492164,-0.013090356,-0.0074025686,-0.016474208,46.75,78.0,0.0023928226,1114658,1656,1669,-3180,8874
63427669,5142,0,0.39575544,0.998771,-10.526325,-0.0029311876,0.0030602938,-0.04660857,46.875,78.0,0.0023928226,1114658,1515,-1045,-2107,8878
63531628,4210,0,0.7490075,-0.27981928,-10.397146,0.01702325,0.004311768,-0.056551374,47.0,78.0,0.0023928226,1114658,1114,-189,-2510,8890
63632442,5274,0,0.16874397,-0.6201983,-10.288959,-0.017419996,0.012878049,-0.07091924,47.125,78.0,0.0023928226,1114658,-2931,-1850,-3595,9787
63733258,4239,0,-0.91045946,0.62967485,-8.619617,-0.018352704,0.020702694,-0.026169917,47.125,78.0,0.0023928226,1114658,-137,3683,-6399,8192
63834021,4202,0,-0.9728573,1.4422948,-9.235564,0.030519277,-0.0057022683,-0.035306953,47.0,78.0,0.0023928226,1114658,2138,4781,-3579,8193
63937969,4184,0,0.28096363,-0.7032979,-10.088397,-0.038456433,-0.0069183935,-0.025425605,47.0,78.0,0.0023928226,1114658,-439,-2027,-1937,8193
64036668,4199,0,0.29543778,-0.80599916,-9.095614,-0.039658193,0.0011840145,-0.06714899,46.875,78.0,0.0023928226,1114658,-478,-2525,-8694,8193
64138530,5261,0,-0.74833596,-0.83090395,-9.712051,0.007790569,-0.00068787363,-0.06124461,47.0,78.0,0.0023928226,1114658,-1778,2000,-2951,8882
64239351,4166,0,-0.0002488749,0.40908825,-8.9902,-0.0034575856,0.00727255,-0.0059769372,47.0,78.0,0.0023928226,1114658,177,11,-2364,8891
64341179,4177,0,-0.29501036,1.4395505,-9.739753,-0.012628977,0.004288685,-0.05670478,46.875,78.0,0.0023928226,1114658,2280,1319,-2748,-5
64446187,4218,0,0.49294508,-0.3443347,-11.048979,-0.0055084103,-0.01011716,-0.018578785,46.875,78.0,0.0023928226,1114658,-301,-1861,1556,-5
64543818,4194,0,0.4858224,-1.249731,-9.553403,0.011456409,-0.015729355,-0.033859394,46.875,78.0,0.0023928226,1114658,-2483,-1108,-3509,8193
64644618,4199,0,-0.28263444,-0.67534274,-9.310784,-0.044832073,0.010649914,-0.019980866,46.875,78.0,0.0023928226,1114658,-1349,-2127,-3024,9808
64747520,4199,0,-0.500435,1.8415694,-8.956763,0.031922895,-0.0080042295,-0.039886598,47.0,78.0,0.0023928226,1114658,2158,2221,-5626,2048
64851503,4169,0,-0.91780347,0.27134186,-9.787339,-0.02784465,0.0041098744,0.00304303,46.875,78.0,0.0023928226,1114658,1221,1386,-2369,2048
64949159,4238,0,0.9279442,-0.3220992,-9.889058,0.010544119,0.005872657,-0.03349701,46.875,78.0,0.0023928226,1114658,-490,-1419,-3512,9817
65052128,4299,0,-0.48791388,-1.236633,-9.924614,-0.0019197933,-0.0031501616,-0.07161149,47.0,78.0,0.0023928226,1114658,-1255,2886,-6291,8897
65153869,4113,0,0.057090744,-0.37543485,-9.437236,0.020828927,0.0033181456,-0.01949521,47.0,78.0,0.0023928226,1114658,-1936,1219,-851,8193
65254669,4108,0,-0.29641223,1.4499171,-8.874678,-0.025833208,0.001025456,-0.016828392,47.0,78.0,0.0023928226,1114658,2150,-499,-5140,2048
65356518,4199,0,-0.073497385,0.82907605,-10.605817,0.01328876,-0.015449967,-0.02089113,47.0,78.0,0.0023928226,1114658,1597,419,-1355,8192
65459432,4111,0,-0.72652286,-0.7025916,-10.144753,-0.03585241,-0.0016343696,-0.03220765,47.0,78.0,0.0023928226,1114658,1500,1107,-2838,8895
65561269,4200,0,-0.0673995,-0.43257678,-10.321491,0.033819523,-0.009192997,-0.022412794,47.0,78.0,0.0023928226,1114658,726,-543,-978,9839
65661018,5250,0,0.49447408,0.26730102,-10.27224,-0.018658143,0.008626676,-0.07021332,47.0,78.0,0.0023928226,1114658,-864,-3319,-3004,-5
65761852,4103,0,-0.32254913,0.7541367,-7.966912,-0.012356477,0.0128613915,-0.033185564,47.0,78.0,0.0023928226,1114658,-614,641,-6953,-5
65866835,4209,0,0.0656801,-0.5232518,-9.520231,0.050015014,-0.005491877,-0.054979935,47.125,78.0,0.0023928226,1114658,-557,2514,-7094,-5
65964469,4200,0,-0.6486216,-0.224387,-10.422811,0.0042791814,-0.001181758,-0.044916674,47.0,78.0,0.0023928226,1114658,1342,2825,-734,8193
66067369,4175,0,0.6847475,-0.5101899,-10.488682,0.004790102,-0.004745324,-0.046150997,47.0,78.0,0.0023928226,1114658,-290,-3426,-1007,8897
66171321,4188,0,-0.47069007,1.100418,-9.457822,-0.02508745,0.00048710816,-0.03162098,46.875,78.0,0.0023928226,1114658,-192,-328,-5543,8896
66272150,4205,0,-0.21482551,1.041105,-9.562244,0.020389691,0.0018425364,-0.023261258,47.0,78.0,0.0023928226,1114658,658,3622,-4656,8898
66373969,4169,0,0.39415473,0.2053331,-10.879916,0.023418501,-0.016159104,-0.031064844,46.875,78.0,0.0023928226,1114658,2107,1005,-2308,8193
66474769,6300,0,0.6901166,-0.63691515,-10.941758,0.018951938,-0.013089173,-0.07137225,46.875,78.0,0.0023928226,1114658,-518,-3526,275,2048
66576618,4199,0,-0.9562972,0.2493318,-10.276766,-0.014841467,0.024865631,-0.030826723,46.875,78.0,0.0023928226,1114658,-328,2453,-828,8192
66678529,5310,0,0.3513132,0.8954727,-9.429781,0.048835818,0.0012420295,-0.08479694,46.875,78.0,0.0023928226,1114658,771,2498,-6845,8900
66779336,4268,0,0.033832263,0.1326833,-9.1708555,-0.033293594,-0.007591486,-0.03985592,46.875,78.0,0.0023928226,1114658,-1281,-1832,-4700,8898
66877974,6306,0,1.1361886,0.23519598,-10.600417,-0.028175518,0.002904741,-0.07392657,46.875,78.0,0.0023928226,1114658,189,-460,-1691,8193
66981919,4178,0,0.45376033,-0.31782633,-10.104446,0.005953974,0.0028639317,-0.029563462,46.875,78.0,0.0023928226,1114658,1264,-2184,-93,8899
67081788,5369,0,0.55918205,-0.43995792,-9.0334015,-0.00320414,0.007799892,-0.04958123,47.0,78.0,0.0023928226,1114658,-922,-993,-9347,8908
67186672,4138,0,-0.41151175,1.169366,-9.360972,-0.011780503,-0.00076139433,-0.027609322,47.0,78.0,0.0023928226,1114658,-97,2024,-2051,-5
67287494,4155,0,0.7478494,1.2658504,-10.41299,0.035239015,0.00037056138,-0.04754548,46.875,78.0,0.0023928226,1114658,1653,2985,-1607,-5
67389318,4159,0,1.1329154,-0.57849157,-9.765499,-0.00054416945,0.0069268295,-0.049230967,47.0,78.0,0.0023928226,1114658,488,-2284,-6775,8193
67493269,4200,0,-0.36991024,-0.7956247,-10.005023,0.0073145255,-0.0022354368,-0.03902908,47.0,78.0,0.0023928226,1114658,-231,1514,-3451,9888
67596181,4212,0,-0.15351488,1.017844,-9.628868,0.006879271,0.009242374,-0.007885002,47.125,78.0,0.0023928226,1114658,641,2508,-2978,8193
67695918,5249,0,0.5284119,0.89599156,-9.742394,0.03178832,-0.0052685966,-0.049111206,47.0,78.0,0.0023928226,1114658,2174,5107,-2750,2048
67796733,4204,0,1.0977868,-0.14401573,-10.380966,0.008781176,-0.0007451059,-0.04991723,47.0,78.0,0.0023928226,1114658,-423,-2977,-1447,8192
67902770,4200,0,-0.021020351,-0.72345084,-9.246874,-0.0073551596,-0.0039841123,-0.04423399,47.0,78.0,0.0023928226,1114658,-1139,-742,-6278,2048
69030551,4283,0,-1.3897011,0.5125678,-8.716316,-0.0008827904,-0.010101577,-0.03352576,47.0,78.0,0.0023928226,1114658,1251,5525,-7730,8903
69132322,4165,0,1.0776476,-0.5012411,-10.069984,-0.01354392,-0.008366381,-0.05193783,47.0,78.0,0.0023928226,1114658,-576,-5034,-4784,-5
69234168,4199,0,-1.7712313,-1.2324255,-9.925581,0.01145604,0.0045004142,-0.05780038,47.0,78.0,0.0023928226,1114658,-92,6470,-1853,9926
69339169,4187,0,-1.6012378,0.8618644,-8.768261,-0.008029975,0.01263216,-0.029248076,47.125,78.0,0.0023928226,1114658,-619,3273,-5023,2048
69443159,4240,0,1.0465183,0.98525745,-10.744923,-0.04405206,0.004029333,-0.034800313,47.125,78.0,0.0023928226,1114658,1657,-4047,-220,-5
69543919,4181,0,0.11225222,-0.21850291,-10.294384,0.054250345,-0.0061622523,-0.0477836,47.125,78.0,0.0023928226,1114658,882,4740,-4415,8192
69645769,4201,0,-0.1880982,-0.56755614,-8.897354,0.006337199,-0.0061090407,-0.008563568,47.0,78.0,0.0023928226,1114658,1416,4560,-3619,9935
69745518,4199,0,0.15790334,0.27226958,-9.799022,-0.015278131,0.009410272,-0.013705023,47.0,78.0,0.0023928226,1114658,-123,-1805,-2387,16956
69846318,4159,0,0.43618208,0.9038084,-9.619245,0.028428936,0.0045186677,-0.048660442,47.0,78.0,0.0023928226,1114658,-156,397,-2039,8193
69950268,4200,0,1.5873101,1.2678553,-11.340613,0.020152235,-0.00091189286,-0.06715325,47.0,78.0,0.0023928226,1114658,1782,-1171,-1159,-5
70051076,4207,0,-0.14203577,-0.07625541,-10.0794325,0.005864877,-0.006571769,-0.06646553,47.0,78.0,0.0023928226,1114658,2273,3107,-4743,8193
70152949,4209,0,-1.1068137,-0.14593755,-9.52259,0.0052908715,0.0019608971,-0.042712443,46.875,78.0,0.0023928226,1114658,1181,5270,-2450,8908
70253756,4238,0,-1.3949606,0.509464,-9.922896,0.0022874582,0.01527476,-0.058247503,47.125,78.0,0.0023928226,1114658,71,5623,-2717,9936
70353469,4201,0,-0.6019508,1.639374,-8.540102,0.014845475,0.014805164,-0.061502736,47.0,78.0,0.0023928226,1114658,300,2404,-6659,8193
70458544,4276,0,1.1487945,0.92372674,-10.704291,-0.0006805103,-0.011655819,-0.04354846,47.25,78.0,0.0023928226,1114658,599,-3858,1057,8912
70560319,4166,0,0.6440544,-0.83362085,-11.185799,-0.035138182,0.003504913,-0.023960471,47.125,78.0,0.0023928226,1114658,-890,-1655,2418,8903
70663323,4303,0,-0.1832683,-0.08616783,-9.752482,-0.04096393,0.011049872,-0.017757347,47.0,78.0,0.0023928226,1114658,311,-2649,-2121,8917
70767169,4189,0,-0.95831335,1.357528,-9.021714,0.038183358,0.0026770132,-0.030353975,47.125,78.0,0.0023928226,1114658,1031,4932,-4676,-5
