timestamp,integral_dt,error_count,x,y,z,x_integral,y_integral,z_integral,temperature,range_m_s2,scaling,device_id,x_raw,y_raw,z_raw,temperature_raw
85201719,3961,0,0.14664285,-0.04299155,-9.758219,0.0026429857,-0.0038956173,-0.038135473,70.12188,156.9064,0.0047884034,1442826,191,-43,2118,12679
85301715,3998,0,-0.31658846,0.22205445,-9.76198,0.0012337975,-0.0023818612,-0.040748715,70.11357,156.9064,0.0047884034,1442826,169,-19,2172,12676
85401753,4038,0,0.37434983,-0.6654867,-9.84565,0.00022846277,7.0930924e-05,-0.03720938,70.14127,156.9064,0.0047884034,1442826,-73,113,2316,12686
85505727,4012,0,0.18006963,-0.9126865,-10.340906,0.002745926,-0.004000447,-0.039110515,70.132965,156.9064,0.0047884034,1442826,-11,-101,1656,12683
85607306,3960,0,0.20647988,-0.3211824,-10.178957,-6.6064866e-05,-0.0075224116,-0.043228175,70.14127,156.9064,0.0047884034,1442826,346,-26,2267,12686
85707301,4007,0,0.10621629,0.09272081,-9.850469,0.0007968425,-0.007693487,-0.044304278,70.12465,156.9064,0.0047884034,1442826,142,-169,2224,12680
85807294,4001,0,0.19122504,-0.10840541,-9.844407,0.0022836193,-0.007055801,-0.038641922,70.135735,156.9064,0.0047884034,1442826,453,-53,2028,12684
85911372,4095,0,0.010554109,-0.97849613,-9.808517,-0.0007918001,-0.0014391065,-0.040837508,70.11357,156.9064,0.0047884034,1442826,100,121,2069,12676
86015276,3937,0,-0.115155436,-0.041776266,-9.812254,0.0016413033,0.0047068996,-0.039626237,70.12188,156.9064,0.0047884034,1442826,-353,-174,1924,12679
86119271,4001,0,0.31690437,0.6944938,-9.486577,-0.0031502265,-0.0031467713,-0.03627318,70.15789,156.9064,0.0047884034,1442826,214,247,2221,12692
86220101,4009,0,-0.13224651,-0.10924486,-9.691915,-0.0023190724,-0.006379108,-0.04009568,70.11911,156.9064,0.0047884034,1442826,279,161,2062,12678
86320900,4006,0,-0.065915406,-1.0318367,-10.0601425,0.0033427814,0.0012042989,-0.03809373,70.11634,156.9064,0.0047884034,1442826,-13,-176,2119,12677
86420893,3998,0,0.06948396,0.2830274,-9.659361,0.00089858496,0.0003565068,-0.03709743,70.16344,156.9064,0.0047884034,1442826,131,-18,2137,12694
86524894,4001,0,-0.6475674,-0.8551243,-9.97495,-0.00057019695,-0.0015859387,-0.03608615,70.16344,156.9064,0.0047884034,1442826,-206,-165,2045,12694
86624896,4003,0,-0.30723062,0.059250552,-9.776439,-0.0066199903,-0.0052158977,-0.033577293,70.14127,156.9064,0.0047884034,1442826,955,229,2697,12686
86724900,4006,0,0.53293633,0.40339637,-9.639307,0.00067142025,-0.0052738097,-0.04126629,70.15235,156.9064,0.0047884034,1442826,370,190,2174,12690
86828894,3994,0,0.31904933,0.27928922,-9.692925,-0.009627334,-0.0061861835,-0.042953946,70.177284,156.9064,0.0047884034,1442826,303,806,2524,12699
86929729,4830,0,-0.7137862,-0.87264514,-9.916238,-0.00012461469,-0.0043135425,-0.0467725,70.14404,156.9064,0.0047884034,1442826,318,-400,1775,12687
87030477,4007,0,0.74432105,0.66899323,-9.534267,0.0065659657,0.007470849,-0.033946097,70.18836,156.9064,0.0047884034,1442826,431,520,2402,12703
87134470,3971,0,0.521126,0.036047623,-9.751424,0.00914742,0.012659018,-0.033745933,70.174515,156.9064,0.0047884034,1442826,-929,-356,1341,12698
87238470,4000,0,0.66427046,-0.085705206,-9.55749,0.012057666,0.010002708,-0.028599393,70.168976,156.9064,0.0047884034,1442826,-16,-9,1567,12696
87338505,4033,0,0.874016,-0.14492878,-9.235528,0.0021779283,0.0012695646,-0.041404627,70.16067,156.9064,0.0047884034,1442826,-766,114,2398,12693
87442470,3980,0,-0.34481835,0.10352172,-9.711855,-0.009225977,-0.0012500768,-0.038514227,70.19668,156.9064,0.0047884034,1442826,246,-44,1687,12706
87542470,3993,0,-0.2649668,0.3010439,-9.433821,-0.011556674,-0.0016483626,-0.037179183,70.16621,156.9064,0.0047884034,1442826,109,39,2016,12695
87644093,3994,0,-1.2999526,-0.100956835,-10.043212,0.0014296968,-0.009201782,-0.038675345,70.16067,156.9064,0.0047884034,1442826,480,-912,1643,12693
87744093,3983,0,-0.12994546,-0.3744151,-9.48457,0.012218292,0.00014180993,-0.041254148,70.210526,156.9064,0.0047884034,1442826,540,-616,2209,12711
87848097,3986,0,-1.1698527,0.30598882,-10.000258,-0.0071379207,-0.008174133,-0.040071364,70.216064,156.9064,0.0047884034,1442826,603,-659,1432,12713
87948103,3966,0,0.8761215,-0.09863291,-9.919315,-0.00066451565,0.0050319843,-0.05051338,70.216064,156.9064,0.0047884034,1442826,-72,617,1986,12713
88056132,4032,0,0.64109784,0.7466241,-9.896481,-0.020966139,0.0016849883,-0.04044395,70.18836,156.9064,0.0047884034,1442826,547,1249,1890,12703
88156095,3975,0,0.59149516,-0.7641263,-9.819019,-0.003046203,0.0004004354,-0.05242852,70.213295,156.9064,0.0047884034,1442826,-131,713,1796,12712
88256101,4007,0,-0.7973321,-0.56295204,-10.119215,-0.012947433,-0.0027005197,-0.04532785,70.16344,156.9064,0.0047884034,1442826,-511,-542,2527,12694
88357670,4000,0,0.520672,0.19306591,-9.414424,-0.016633436,0.0042591016,-0.050392576,70.20499,156.9064,0.0047884034,1442826,-261,1219,2494,12709
88457670,3987,0,0.7094637,0.62969977,-9.584713,-0.00080769253,-0.004409572,-0.048820045,70.19945,156.9064,0.0047884034,1442826,488,612,1952,12707
88561670,4000,0,1.3178113,-0.35705522,-9.355272,0.007676103,0.0074298754,-0.0397831,70.218834,156.9064,0.0047884034,1442826,53,1343,3560,12714
88661671,3985,0,0.46784604,0.5026456,-9.979264,0.021223595,0.0009835202,-0.026583299,70.213295,156.9064,0.0047884034,1442826,-235,-105,2797,12712
88769670,3973,0,1.0489292,0.1998401,-9.673443,-0.0022321146,0.0026138108,-0.04548216,70.177284,156.9064,0.0047884034,1442826,433,830,1707,12699
88869671,3972,0,0.09230205,-0.30261838,-9.730508,0.011738092,-0.0061944043,-0.025365848,70.23269,156.9064,0.0047884034,1442826,-137,-444,1583,12719
88971321,4795,0,-1.0549132,0.33738467,-9.795329,-0.0015372466,0.0063725435,-0.05974219,70.249306,156.9064,0.0047884034,1442826,-432,-1340,1283,12725
89071336,3977,0,0.4422591,-0.3700141,-10.208356,-0.014216882,-0.00855175,-0.04434642,70.2216,156.9064,0.0047884034,1442826,260,623,2462,12715
89171364,4049,0,0.38595998,-0.3162629,-9.122849,-0.013598712,0.0033644447,-0.037086826,70.24377,156.9064,0.0047884034,1442826,234,923,3398,12723
89275315,4000,0,-0.14882319,0.54691535,-9.766136,-0.016700795,-0.00083121844,-0.03409838,70.213295,156.9064,0.0047884034,1442826,-124,240,2571,12712
89375315,4000,0,-0.066817544,0.25441778,-10.588793,-0.0025278346,0.0033476502,-0.04609225,70.213295,156.9064,0.0047884034,1442826,266,-550,516,12712
89475322,3991,0,-0.3527988,-0.021462373,-10.675706,0.0028542073,-0.0018547003,-0.040108494,70.23546,156.9064,0.0047884034,1442826,300,-590,720,12720
89579347,4032,0,-0.46559772,0.3849651,-9.852284,-0.003658436,0.009326212,-0.056431953,70.22714,156.9064,0.0047884034,1442826,-475,-415,1927,12717
89679315,3951,0,-0.14893161,0.7915186,-9.553364,-0.009822027,-0.0012872412,-0.03465151,70.24654,156.9064,0.0047884034,1442826,-416,-187,1636,12724
89784870,3989,0,-0.011540352,0.16829373,-9.147794,0.004838828,0.0024642537,-0.03275315,70.218834,156.9064,0.0047884034,1442826,3,-828,2338,12714
89888921,4050,0,-0.037910607,0.96201664,-9.219041,0.011917602,0.010224988,-0.032919966,70.26593,156.9064,0.0047884034,1442826,733,-407,2775,12731
89988878,4009,0,0.17486073,1.3710933,-8.097513,-0.013207435,0.009638961,-0.0369866,70.24377,156.9064,0.0047884034,1442826,-321,-270,2070,12723
90088912,4042,0,0.66715986,1.580027,-9.480877,0.004429419,-0.0048074755,-0.029384509,70.257614,156.9064,0.0047884034,1442826,70,-765,2316,12728
90192928,4058,0,0.6804273,-0.5250122,-10.45606,0.006792102,-0.0076961718,-0.040212993,70.254845,156.9064,0.0047884034,1442826,-224,-386,2341,12727
90292918,4024,0,-0.15596098,-0.38946924,-9.250999,0.0062775807,-0.002156659,-0.030483339,70.249306,156.9064,0.0047884034,1442826,162,-500,1892,12725
90394502,4009,0,-0.050743915,0.5869287,-8.847511,0.007056607,-0.0035191781,-0.041486748,70.252075,156.9064,0.0047884034,1442826,916,-620,2847,12726
90494542,4024,0,0.12151831,-0.14142457,-9.888119,-0.0076347054,0.003619562,-0.0371354,70.296394,156.9064,0.0047884034,1442826,146,-3,2453,12742
90598494,4000,0,0.29255462,0.20972048,-8.938441,-0.0022838125,0.0021356663,-0.036488954,70.257614,156.9064,0.0047884034,1442826,-329,428,3463,12728
90698501,4008,0,0.94822496,0.31059337,-8.968293,-0.0019839844,0.0007830702,-0.029439766,70.26316,156.9064,0.0047884034,1442826,15,299,1819,12730
90798519,3988,0,0.7326736,0.2790033,-10.12663,-0.0012118033,0.0031565204,-0.023136321,70.27147,156.9064,0.0047884034,1442826,291,723,2711,12733
90902493,3984,0,-0.116034776,-0.0592298,-9.972388,0.0058674933,0.0056830817,-0.038329244,70.27701,156.9064,0.0047884034,1442826,-31,-1172,2414,12735
91006494,3993,0,0.14694831,0.16789754,-9.564418,-0.008592228,0.0033099896,-0.037665725,70.27147,156.9064,0.0047884034,1442826,1124,66,1519,12733
91107315,3992,0,0.18590692,0.38479584,-10.030028,0.010725559,-0.0006074656,-0.024223149,70.254845,156.9064,0.0047884034,1442826,-177,-1233,1743,12727
91211321,3979,0,0.14657786,-0.066661954,-9.47767,-0.007300797,0.002481475,-0.054564632,70.31302,156.9064,0.0047884034,1442826,-669,408,4332,12748
91311315,4000,0,0.2904743,0.91033965,-9.98932,0.0010413411,-0.0040581813,-0.037570894,70.290855,156.9064,0.0047884034,1442826,476,528,3115,12740
91411270,4000,0,-0.12650034,0.25438747,-10.111942,-0.0040190155,-0.019112905,-0.028682062,70.31302,156.9064,0.0047884034,1442826,-1114,981,1769,12748
91515270,4000,0,0.5891162,-0.056128815,-10.293816,-0.0026880258,-0.021980172,-0.035182983,70.293625,156.9064,0.0047884034,1442826,533,1002,3393,12741
91615276,3979,0,-0.15878636,-0.3495161,-9.948089,0.0015813215,-0.001339003,-0.03924499,70.31856,156.9064,0.0047884034,1442826,-917,226,1761,12750
91715270,3991,0,0.20966345,0.24834158,-10.084738,0.0037175058,0.0029840046,-0.03982676,70.27701,156.9064,0.0047884034,1442826,1904,260,2094,12735
91819311,4041,0,-0.2124158,0.6853738,-9.552979,0.00814232,0.0067532407,-0.040517807,70.33241,156.9064,0.0047884034,1442826,266,-743,2798,12755
91919270,4000,0,0.6273941,0.27987915,-9.20175,0.007945789,-0.006518231,-0.024258975,70.31302,156.9064,0.0047884034,1442826,665,519,2458,12748
92020959,4044,0,0.38913864,-0.80304396,-9.741315,-0.0067874086,0.004236959,-0.039968982,70.326866,156.9064,0.0047884034,1442826,-293,278,1141,12753
92124927,4005,0,-0.6673637,-0.025724089,-9.858134,-0.0037746218,0.006526961,-0.036256533,70.34072,156.9064,0.0047884034,1442826,-1088,-935,1106,12758
92224915,4000,0,-0.6251237,0.5684817,-9.8255205,-0.002890921,0.005066419,-0.031157605,70.35734,156.9064,0.0047884034,1442826,-1362,-858,1142,12764
92324971,4056,0,-0.354874,0.77835506,-9.367986,-0.005242185,0.005785654,-0.029677872,70.34626,156.9064,0.0047884034,1442826,196,-1020,533,12760
92428915,4000,0,-0.06701687,-0.6601414,-9.658009,0.00069548533,-0.0035435832,-0.040386137,70.34072,156.9064,0.0047884034,1442826,605,2,3348,12758
92528915,3958,0,-0.21715459,-0.51623666,-9.950347,0.0032997662,-0.0024653752,-0.040662162,70.35457,156.9064,0.0047884034,1442826,1057,122,2529,12763
92628926,4011,0,-0.16283533,-0.12189141,-9.323841,0.0032807733,0.0042364947,-0.029112889,70.34072,156.9064,0.0047884034,1442826,220,250,2456,12758
92730505,3998,0,-0.15280105,1.0100774,-9.296141,-0.00402459,0.0018881178,-0.032383297,70.34072,156.9064,0.0047884034,1442826,175,289,1772,12758
92834476,3999,0,0.25837886,0.2400267,-9.315132,-0.010828522,-0.012732792,-0.061115272,70.37396,156.9064,0.0047884034,1442826,15,62,2729,12770
92938470,3971,0,-0.04362022,-0.9565749,-9.424268,0.003952952,0.0016812852,-0.042857192,70.33795,156.9064,0.0047884034,1442826,235,-565,2275,12757
93042470,3991,0,-0.43362454,0.20773026,-9.480729,0.0005906414,0.012730714,-0.04801523,70.36288,156.9064,0.0047884034,1442826,-251,-265,2212,12766
93142471,3975,0,0.0043902043,1.3509617,-8.43368,-0.006449307,0.004057299,-0.038040422,70.36288,156.9064,0.0047884034,1442826,574,280,2724,12766
93246500,4002,0,0.31736997,-0.041839417,-9.424787,-0.0016698441,-0.0022439552,-0.040236183,70.39335,156.9064,0.0047884034,1442826,611,101,3216,12777
93344093,4000,0,0.17863993,-0.67411804,-9.711219,0.004161627,-0.008422428,-0.038638182,70.38227,156.9064,0.0047884034,1442826,456,-183,973,12773
93448120,4026,0,-0.34014076,-0.60327613,-9.747935,0.008281637,0.002127483,-0.029729184,70.36011,156.9064,0.0047884034,1442826,266,-261,1345,12765
93548101,4008,0,-0.2184086,0.516491,-9.236218,0.0021296851,0.01459181,-0.051517945,70.36288,156.9064,0.0047884034,1442826,-187,-135,1543,12766
93648093,3979,0,0.36804932,1.2497305,-9.563825,0.004852319,-7.287919e-05,-0.04945954,70.3795,156.9064,0.0047884034,1442826,398,370,1661,12772
93752094,4001,0,0.2301338,-0.0029797019,-9.988647,-0.0015109658,-0.005100872,-0.028690858,70.41828,156.9064,0.0047884034,1442826,230,-140,981,12786
93852158,4053,0,0.37896112,-1.2026111,-9.7537365,0.0039531784,-0.012951616,-0.044920117,70.39889,156.9064,0.0047884034,1442826,94,63,2257,12779
93952094,3994,0,0.5166367,-0.77839124,-9.463295,-0.0007366311,-0.0026851122,-0.03759592,70.4072,156.9064,0.0047884034,1442826,-244,606,1711,12782
94057670,3936,0,-0.24327655,1.0497601,-9.758984,0.003494503,0.0023593109,-0.043622166,70.40997,156.9064,0.0047884034,1442826,431,-789,1413,12783
94161702,3982,0,0.092308335,-0.21651278,-9.982613,-0.005737167,-0.004784702,-0.034299344,70.404434,156.9064,0.0047884034,1442826,-20,562,2151,12781
94261682,4006,0,0.39103803,-0.74740255,-10.928812,-0.0029630403,-0.006905618,-0.036486402,70.4349,156.9064,0.0047884034,1442826,241,476,2661,12792
94365670,4000,0,-0.15738699,-1.1385921,-11.46504,-0.002740588,-0.004780981,-0.040876925,70.38781,156.9064,0.0047884034,1442826,234,383,1284,12775
94465671,4001,0,-0.13402914,0.26033065,-9.9736,0.011028464,0.010187182,-0.023114385,70.41551,156.9064,0.0047884034,1442826,27,-167,2353,12785
94565674,4004,0,-0.23306146,0.4438299,-9.863916,-0.012497953,0.0024418677,-0.032803062,70.4349,156.9064,0.0047884034,1442826,-1115,509,3662,12792
94665693,3954,0,-0.11722174,0.8046331,-10.214446,-0.008907527,-0.006977996,-0.038807746,70.41274,156.9064,0.0047884034,1442826,-276,-68,1946,12784
94771300,3973,0,0.5314524,-0.3470424,-10.319982,0.0032578846,-0.007982035,-0.031176444,70.44875,156.9064,0.0047884034,1442826,278,15,824,12797
94875293,3999,0,-0.20681004,-1.5160962,-10.68307,-0.008663813,0.009810299,-0.03261335,70.42382,156.9064,0.0047884034,1442826,-989,-60,1833,12788
94975293,3993,0,-0.27647015,0.21108945,-10.319409,0.0042180605,0.0014225082,-0.029835913,70.39058,156.9064,0.0047884034,1442826,190,153,652,12776
95079294,4000,0,-0.079755105,1.1531336,-9.949326,0.011858381,-0.004294424,-0.035395175,70.47369,156.9064,0.0047884034,1442826,704,-266,1743,12806
95179343,4043,0,0.03662902,0.38874483,-9.835293,0.004579221,0.0027785953,-0.029437356,70.45152,156.9064,0.0047884034,1442826,202,-563,2012,12798
95279338,4044,0,0.60514,-0.5985161,-10.303105,-0.0065637273,-0.018456524,-0.036651663,70.45152,156.9064,0.0047884034,1442826,-192,467,1462,12798
95380913,4810,0,0.24451423,-1.3840288,-10.530321,0.0028164487,-0.0065242075,-0.04253483,70.45152,156.9064,0.0047884034,1442826,-233,-330,-188,12798
95484881,3985,0,-0.08739045,-0.012283961,-10.227368,-0.0041337796,0.00025020598,-0.036651008,70.46814,156.9064,0.0047884034,1442826,415,449,2450,12804
95584871,4001,0,-0.4027354,0.877133,-10.245044,0.009148287,0.0020777953,-0.040077925,70.484764,156.9064,0.0047884034,1442826,-336,-542,622,12810
95688932,4039,0,-0.23181967,0.60189843,-9.550357,0.004126424,0.0049459753,-0.044453852,70.45152,156.9064,0.0047884034,1442826,432,-713,2526,12798
95792893,4000,0,0.055031706,-1.0041139,-10.523036,-0.0056362394,-6.285671e-05,-0.039863173,70.4626,156.9064,0.0047884034,1442826,-198,-337,1321,12802
95892894,3997,0,0.09196969,-1.2755853,-10.635857,-0.004511281,-0.009726301,-0.03211249,70.49307,156.9064,0.0047884034,1442826,-903,369,1577,12813
95992920,3981,0,0.2065513,0.21948262,-9.0929,0.012464705,0.006452633,-0.02146812,70.47369,156.9064,0.0047884034,1442826,779,338,3926,12806
96094515,3973,0,-0.66324955,1.3063273,-9.060796,0.0023701992,0.008293386,-0.043273456,70.481995,156.9064,0.0047884034,1442826,799,-338,3949,12809
96198515,3988,0,-0.2050736,0.072576486,-9.654768,-0.000424191,0.0029697004,-0.0300764,70.51247,156.9064,0.0047884034,1442826,-129,-205,2562,12820
96298515,3973,0,0.52983135,-0.92921704,-9.747195,0.012146221,-0.0046034046,-0.024627682,70.49307,156.9064,0.0047884034,1442826,981,211,4178,12813
96398544,4029,0,0.2941559,-1.7592425,-10.938979,-0.0050189877,-0.0097582,-0.046515103,70.5097,156.9064,0.0047884034,1442826,483,439,3141,12819
96502515,4000,0,-0.27822044,-0.021379827,-9.764494,0.0006584922,0.0070236977,-0.05283798,70.49584,156.9064,0.0047884034,1442826,-306,-120,811,12814
96602515,4000,0,-0.47708383,0.6449949,-9.823599,-0.0055061914,0.0005248198,-0.040781103,70.52631,156.9064,0.0047884034,1442826,-1660,-147,277,12825
96706543,4028,0,0.22922762,0.76239616,-9.579058,0.0020991676,-0.0040300325,-0.046409324,70.53462,156.9064,0.0047884034,1442826,1260,883,3500,12828
96812111,3992,0,0.27318576,-1.4569744,-10.043023,-0.0037832856,-0.007826163,-0.021002013,70.51247,156.9064,0.0047884034,1442826,-49,719,3503,12820
96916107,4013,0,-0.20510012,-0.31752545,-10.311331,0.00046694005,-0.0021406969,-0.05339563,70.54294,156.9064,0.0047884034,1442826,-410,-436,-674,12831
97016094,4001,0,-0.37832245,0.55993694,-9.997231,-0.010471737,0.0107160825,-0.0503226,70.54017,156.9064,0.0047884034,1442826,-755,-228,-300,12830
97120094,3992,0,-0.023726093,0.91230315,-9.533912,0.0010595638,-0.007961547,-0.032114446,70.523544,156.9064,0.0047884034,1442826,1075,229,3389,12824
97220132,4027,0,0.5356039,-0.1461849,-9.997807,0.015065962,-0.0038510212,-0.02006793,70.556786,156.9064,0.0047884034,1442826,847,272,2995,12836
97324142,4007,0,0.036588848,-1.0349718,-10.635225,-0.0015017029,0.000804503,-0.043921404,70.54294,156.9064,0.0047884034,1442826,2030,645,2551,12831
97424906,4786,0,-0.4152269,-1.1386096,-10.82149,0.010999093,0.009163168,-0.04089248,70.55125,156.9064,0.0047884034,1442826,-1263,-839,-6,12834
97525693,3993,0,-0.4079292,0.20579451,-9.464365,-0.009511922,0.008243316,-0.030126505,70.565094,156.9064,0.0047884034,1442826,-1229,461,2139,12839
97629693,4000,0,0.32233024,1.0461243,-9.499569,-0.0036383835,-0.0016139933,-0.038150582,70.54294,156.9064,0.0047884034,1442826,875,729,3905,12831
97729693,4000,0,0.15354829,0.37114662,-10.451255,0.0077871718,-0.0075408453,-0.052488033,70.55125,156.9064,0.0047884034,1442826,719,-182,1490,12834
97833731,4015,0,0.44537008,-1.3569473,-10.104949,0.0052215806,-0.0038598329,-0.039772715,70.556786,156.9064,0.0047884034,1442826,-378,406,3103,12836
97933694,3990,0,-0.31003353,-0.49302793,-9.156711,-0.008479079,0.0031264285,-0.026474614,70.556786,156.9064,0.0047884034,1442826,-264,329,2494,12836
98037735,4042,0,-0.5602247,0.4609618,-7.691798,-0.0055728173,-0.006178859,-0.019423593,70.57895,156.9064,0.0047884034,1442826,-630,-695,1461,12844
98139321,4028,0,-0.7817298,-0.06311235,-6.560091,-0.0018119346,0.0030750656,-0.023642112,70.556786,156.9064,0.0047884034,1442826,145,-168,1837,12836
98239342,4049,0,-0.30518982,-0.23722701,-7.092648,-0.02238993,0.0014384994,-0.046300787,70.595566,156.9064,0.0047884034,1442826,1358,-372,1947,12850
98343328,4029,0,-0.16750674,-0.2047513,-7.096461,-0.0023167112,2.0765467e-05,-0.044519763,70.57895,156.9064,0.0047884034,1442826,-654,-230,1878,12844
98443293,3987,0,0.26596275,0.8781394,-8.246603,0.005640863,0.007332195,-0.0389109,70.61496,156.9064,0.0047884034,1442826,733,60,257,12857
98547306,4013,0,0.56890637,-0.1138074,-8.2683735,-0.005032002,-0.02182106,-0.048343457,70.61496,156.9064,0.0047884034,1442826,-13,1250,4073,12857
98647307,3968,0,0.26366404,-0.5147428,-9.084707,0.00086997123,-0.00027066655,-0.012642089,70.5928,156.9064,0.0047884034,1442826,1377,446,3416,12849
98747296,4003,0,0.12131854,-0.9252389,-9.150141,-0.00857504,0.0016660884,-0.036491428,70.60942,156.9064,0.0047884034,1442826,-70,730,3940,12855
98852900,4007,0,-0.13163228,0.9282567,-9.799342,8.0038444e-05,-0.0003229594,-0.065613076,70.637115,156.9064,0.0047884034,1442826,-453,315,1909,12865
98952933,4030,0,-0.13292317,1.308224,-9.488517,0.001868599,0.02357409,-0.034647737,70.598335,156.9064,0.0047884034,1442826,120,243,1646,12851
99052900,4006,0,-0.111655265,1.254823,-9.541292,-0.002224908,0.00021490292,-0.0607825,70.59003,156.9064,0.0047884034,1442826,-101,-153,2904,12848
99156893,3993,0,0.6268182,-0.6346195,-10.714414,-0.009262282,-0.009734855,-0.05943352,70.65097,156.9064,0.0047884034,1442826,-461,251,1812,12870
99256900,4006,0,0.3276272,-0.6982559,-11.061177,0.003152608,-0.006296953,-0.047137853,70.60942,156.9064,0.0047884034,1442826,324,-89,923,12855
99356900,4006,0,-0.41719836,-0.65258324,-10.658908,-0.0103775095,0.0029532996,-0.039423935,70.63158,156.9064,0.0047884034,1442826,-425,36,854,12863
99458493,3993,0,-0.5040787,0.38229185,-10.050621,0.005593726,0.0040859124,-0.040671095,70.64266,156.9064,0.0047884034,1442826,-894,-548,3296,12867
99562518,3986,0,-0.1664638,0.8290541,-10.435573,-0.012434119,0.0023578433,-0.059533007,70.62881,156.9064,0.0047884034,1442826,-791,-198,1489,12862
99662493,4000,0,0.46219793,0.36445588,-10.858637,0.005495139,-0.0060241134,-0.05602946,70.65097,156.9064,0.0047884034,1442826,638,-240,1159,12870
99762493,3984,0,0.026750412,-1.0050207,-10.920928,-0.006059598,-0.008798739,-0.04322523,70.62604,156.9064,0.0047884034,1442826,28,169,3505,12861
99866531,4037,0,0.101310976,-1.0023323,-10.837298,-0.0040977043,0.0027906424,-0.02449496,70.68144,156.9064,0.0047884034,1442826,-276,438,4423,12881
99966494,3977,0,-0.6149626,0.3822417,-10.560626,0.0009616262,0.008468126,-0.047586758,70.675896,156.9064,0.0047884034,1442826,-312,-618,1783,12879
100066524,4030,0,0.23643392,0.9410947,-9.53485,0.004252424,-0.0048630782,-0.039279148,70.65097,156.9064,0.0047884034,1442826,116,77,1523,12870
100168123,3965,0,0.050051574,0.634706,-9.83495,0.011693393,-0.00070886116,-0.021726929,70.67867,156.9064,0.0047884034,1442826,793,-441,-677,12880
100272121,4006,0,0.3280728,-1.1064026,-10.224417,0.008440588,-0.0058018807,-0.026715014,70.65374,156.9064,0.0047884034,1442826,370,136,1469,12871
100372115,4000,0,0.0462209,-1.15685,-9.859307,-0.0066846376,-0.0023755687,-0.046967607,70.65928,156.9064,0.0047884034,1442826,-166,200,2777,12873
100476119,4004,0,-0.1335781,0.28807014,-8.671548,-0.001928767,0.011226053,-0.03109138,70.67867,156.9064,0.0047884034,1442826,-842,-136,2478,12880
100580115,4000,0,0.021130487,1.1380781,-9.031625,-0.009968056,-0.007487785,-0.047541827,70.7036,156.9064,0.0047884034,1442826,-677,403,2670,12889
100680115,3982,0,0.5929673,0.6987742,-9.412564,0.0146624325,-0.0037105107,-0.030790063,70.67313,156.9064,0.0047884034,1442826,922,221,587,12878
100784121,3998,0,-0.0143687865,-1.7359523,-10.334594,0.007771126,-0.009628517,-0.040389962,70.68698,156.9064,0.0047884034,1442826,-29,251,2592,12883
100885694,3994,0,-0.17861457,-1.2707419,-9.650541,0.0027594406,0.009052957,-0.030065365,70.70083,156.9064,0.0047884034,1442826,540,-110,3403,12888
100985722,4009,0,-0.26375315,-0.81691575,-9.502328,-0.004877127,0.007155272,-0.023715954,70.68698,156.9064,0.0047884034,1442826,-389,196,1892,12883
101085715,3994,0,0.2121777,0.884791,-9.189937,0.0043737353,0.0045573954,-0.022423744,70.68144,156.9064,0.0047884034,1442826,-435,182,1222,12881
101189729,4014,0,0.45636,1.6882204,-9.189329,0.007854257,0.0036957175,-0.03598534,70.68975,156.9064,0.0047884034,1442826,1990,245,2698,12884
101293715,4000,0,0.15390182,-0.88155526,-10.469466,-0.00031553,-0.009137034,-0.06693253,70.68698,156.9064,0.0047884034,1442826,641,-821,-516,12883
101393715,3997,0,0.8235165,-1.3725947,-9.784441,-0.0047580167,-0.0058069583,-0.026363622,70.70914,156.9064,0.0047884034,1442826,-8,236,1448,12891
101494512,4756,0,-0.27636084,-1.2041541,-10.401736,-0.0020914907,-0.0052591087,-0.04906554,70.711914,156.9064,0.0047884034,1442826,372,-639,-592,12892
101599311,3988,0,-0.49745765,0.5726625,-9.029826,-0.0022161878,0.0023105037,-0.036014706,70.72299,156.9064,0.0047884034,1442826,-1243,-6,3543,12896
101699334,4040,0,0.1500013,1.4412885,-8.571132,0.010189197,-0.00078151596,-0.017607806,70.70083,156.9064,0.0047884034,1442826,-164,254,4008,12888
101799337,4043,0,0.21317793,1.3601539,-9.301005,-0.008259419,0.0058951704,-0.03904101,70.72299,156.9064,0.0047884034,1442826,1136,590,1580,12896
101903297,3960,0,0.87590575,-0.7083269,-10.021734,0.0010761037,-0.01144552,-0.03828571,70.70637,156.9064,0.0047884034,1442826,1077,265,1844,12890
102007294,3991,0,0.20417842,-1.0410881,-9.76525,8.095964e-05,-0.0010867743,-0.026851729,70.70914,156.9064,0.0047884034,1442826,-352,605,4286,12891
102111270,3996,0,0.24899468,1.1067079,-8.834614,0.007936109,0.004726933,-0.034744643,70.72576,156.9064,0.0047884034,1442826,-298,639,3567,12897
102208893,3990,0,-0.014954945,1.0860821,-9.218351,-0.0036145777,0.0048095514,-0.050664157,70.74238,156.9064,0.0047884034,1442826,-255,169,877,12903
102312894,3993,0,0.74323577,1.0167336,-9.340835,0.009839355,-0.0068637575,-0.03474597,70.76454,156.9064,0.0047884034,1442826,997,212,2827,12911
102412900,4007,0,-0.006285823,-0.41204798,-10.170451,0.00030086475,-0.009592658,-0.039090335,70.750694,156.9064,0.0047884034,1442826,637,-375,2517,12906
102512910,4006,0,0.68472964,-1.4470432,-10.072627,-0.0012532122,-0.00481827,-0.036481537,70.74238,156.9064,0.0047884034,1442826,660,819,4049,12903
102612895,4002,0,-0.08916795,-1.4688107,-10.629198,-0.0065669175,-0.0021851605,-0.047305726,70.747925,156.9064,0.0047884034,1442826,288,-19,550,12905
102716907,4014,0,-0.2893706,0.06737696,-9.892401,0.005139218,0.012206787,-0.042035904,70.783936,156.9064,0.0047884034,1442826,-115,-402,105,12918
102817723,4822,0,-0.3540683,1.2563761,-8.9705305,-0.007226522,0.0073803044,-0.045742914,70.75346,156.9064,0.0047884034,1442826,640,570,3778,12907
102922513,4019,0,0.07051695,1.142336,-9.650234,-0.00800307,-0.006663105,-0.06364909,70.74515,156.9064,0.0047884034,1442826,68,-678,1339,12904
103022494,4000,0,0.5562024,-0.14653784,-9.684783,-0.00084936887,-0.0061661378,-0.03695615,70.74238,156.9064,0.0047884034,1442826,1096,779,3743,12903
103126494,3994,0,0.29089963,-1.5191454,-9.997325,-0.005090107,0.00030103233,-0.042751886,70.74515,156.9064,0.0047884034,1442826,-305,376,3054,12904
103744127,4034,0,-0.11918895,0.8250997,-9.387621,-0.009121872,0.002575175,-0.04593498,70.783936,156.9064,0.0047884034,1442826,95,393,1537,12918
103844093,4000,0,-0.40592635,1.2347785,-9.302022,-0.008479475,0.0055016573,-0.037367366,70.822716,156.9064,0.0047884034,1442826,200,221,1209,12932
103948093,4000,0,0.18744108,0.212314,-9.454002,-0.001028228,-0.006990076,-0.05095431,70.81163,156.9064,0.0047884034,1442826,158,-314,3540,12928
104048139,4045,0,0.20040205,-0.825992,-10.00792,-0.0012253902,-0.0063948585,-0.047229033,70.828255,156.9064,0.0047884034,1442826,418,-303,2512,12934
104148124,4030,0,0.027723778,-1.0189687,-10.171441,0.0020120356,0.000426313,-0.036668155,70.8421,156.9064,0.0047884034,1442826,83,160,2386,12939
104249671,4001,0,-0.49084356,0.16701497,-10.32941,0.0060345205,0.008322026,-0.042287573,70.80886,156.9064,0.0047884034,1442826,-46,-92,1860,12927
104353670,3957,0,0.4321743,0.8018428,-8.760429,-0.005757439,0.007027722,-0.027377937,70.83656,156.9064,0.0047884034,1442826,-726,407,1962,12937
104453676,4006,0,0.07741162,0.74021125,-9.426829,-0.0036890209,-0.0019130248,-0.05278591,70.79778,156.9064,0.0047884034,1442826,-585,-533,1566,12923
104557670,3960,0,0.2722958,-0.9852242,-10.589032,0.0028346512,-0.0031307293,-0.039194047,70.85042,156.9064,0.0047884034,1442826,1164,305,965,12942
104661670,3999,0,-0.4658803,-0.98172665,-9.594529,-0.0045378646,0.0038900576,-0.03603231,70.8421,156.9064,0.0047884034,1442826,-926,445,3649,12939
104761670,4000,0,-0.7459197,0.38770172,-10.193423,0.0013361739,0.006682126,-0.054439202,70.831024,156.9064,0.0047884034,1442826,-550,-1281,-142,12935
104867315,4000,0,-0.035630785,0.6169453,-9.116835,-0.005252463,0.002953522,-0.03748934,70.81718,156.9064,0.0047884034,1442826,199,200,3145,12930
104967315,3987,0,0.464403,-0.16480508,-9.359936,-0.0023430493,-0.003367835,-0.041175906,70.831024,156.9064,0.0047884034,1442826,669,263,4104,12935
105071315,4000,0,0.21255723,-1.0899532,-10.6382265,0.001817296,-0.007283901,-0.043273218,70.831024,156.9064,0.0047884034,1442826,-247,-101,-738,12935
105171354,4039,0,0.030608838,-0.8882967,-9.82955,-0.0028504066,-0.0010961785,-0.034255423,70.85319,156.9064,0.0047884034,1442826,-651,660,1811,12943
105271315,4000,0,0.01702855,0.3140186,-9.5469475,0.00040916656,-0.0014722785,-0.042090043,70.85319,156.9064,0.0047884034,1442826,-1537,-74,1667,12943
105375315,4000,0,-0.3662729,1.339054,-9.584064,0.006000949,0.0050202217,-0.03965704,70.88088,156.9064,0.0047884034,1442826,164,-869,2096,12953
105475315,3994,0,0.2829525,0.5193976,-9.221254,0.00784425,-0.00856742,-0.037775293,70.869804,156.9064,0.0047884034,1442826,649,-537,2735,12949
105576880,4010,0,0.39443585,-0.9005737,-10.12641,-0.0055101095,-0.022396566,-0.060346857,70.88643,156.9064,0.0047884034,1442826,34,-79,2379,12955
105680873,3996,0,-0.44091153,-0.87911683,-9.85707,-0.003169436,0.016832653,-0.033413365,70.88365,156.9064,0.0047884034,1442826,-173,17,2271,12954
105780870,4000,0,-0.42125437,0.31129265,-9.148967,0.0001380722,0.0115321595,-0.033451714,70.869804,156.9064,0.0047884034,1442826,-186,-73,3672,12949
105884898,3980,0,0.16682848,1.408554,-9.332596,0.015017598,0.0052222777,-0.02022844,70.8892,156.9064,0.0047884034,1442826,883,-371,1205,12956
105984911,4041,0,0.17832567,0.6205034,-9.611955,0.006882321,-0.006110947,-0.05386242,70.8892,156.9064,0.0047884034,1442826,798,-465,2049,12956
106084870,3990,0,0.5535054,-0.42414725,-9.791965,0.007242576,-0.012046126,-0.022548605,70.91412,156.9064,0.0047884034,1442826,842,884,3997,12965
106186508,4015,0,0.08647035,-1.848848,-10.42314,-0.003429698,-0.0042421287,-0.03759453,70.908585,156.9064,0.0047884034,1442826,-484,63,916,12963
106286493,3971,0,-0.08976216,-1.0802416,-10.354939,-0.00673024,-0.009372555,-0.055203557,70.8892,156.9064,0.0047884034,1442826,-998,348,1756,12956
106390494,3995,0,-0.35670537,0.888207,-9.1405,-0.006341479,0.008403148,-0.03859134,70.908585,156.9064,0.0047884034,1442826,-283,433,2873,12963
106490519,4026,0,-0.4147921,0.83416843,-9.654131,-0.006721662,-0.0010717171,-0.04180993,70.91967,156.9064,0.0047884034,1442826,-170,-357,969,12967
106590545,4014,0,-0.16797765,0.40616965,-9.1514635,-0.009543871,-0.0029106708,-0.051907897,70.93629,156.9064,0.0047884034,1442826,-759,-87,1729,12973
106694493,3989,0,0.43943372,-1.4406621,-10.534778,-0.004664956,-0.009862859,-0.05067537,70.88365,156.9064,0.0047884034,1442826,-305,-294,1059,12954
106798493,3992,0,-0.1610824,-1.022422,-10.276613,0.0010059619,-0.0051982664,-0.03831464,70.95568,156.9064,0.0047884034,1442826,-859,568,2852,12980
106900097,4027,0,-0.002839229,0.70966357,-9.536558,0.009549379,0.0047957045,-0.023932224,70.93352,156.9064,0.0047884034,1442826,-50,581,2798,12972
107004070,4000,0,0.316143,0.6602394,-9.265133,0.0007892652,0.00442932,-0.03259566,70.95845,156.9064,0.0047884034,1442826,-506,301,1824,12981
107104070,4000,0,0.6856169,-0.5314533,-9.672623,-0.004828755,-0.016939497,-0.05721128,70.95568,156.9064,0.0047884034,1442826,-469,-96,1318,12980
107204070,4000,0,0.29454738,-1.110474,-10.443842,-0.00253167,-0.0058234436,-0.024852533,70.900276,156.9064,0.0047884034,1442826,149,610,880,12960
107308070,3973,0,-0.41289616,-0.20246322,-10.230792,-0.002164288,0.006535877,-0.044104796,70.9723,156.9064,0.0047884034,1442826,96,-765,1938,12986
107408094,4001,0,-0.45426092,0.072828144,-9.623198,-0.0003770294,0.009529231,-0.036519498,70.947365,156.9064,0.0047884034,1442826,-364,-598,518,12977
107512926,4827,0,0.014089853,1.1897053,-9.543832,0.008334046,-0.0037617264,-0.035281897,70.96399,156.9064,0.0047884034,1442826,913,-142,412,12983
107613720,4027,0,-0.019225087,-0.27031276,-10.026286,-0.0007317251,-0.010435136,-0.03701832,70.95568,156.9064,0.0047884034,1442826,454,-31,2081,12980
107717700,4006,0,-0.12562354,-1.2632837,-10.389381,-0.005029312,-0.0011533478,-0.046989672,70.96953,156.9064,0.0047884034,1442826,260,12,1860,12985
107817694,4000,0,-0.48454925,-0.69944036,-9.937889,-0.0058402363,0.008002145,-0.025046017,70.950134,156.9064,0.0047884034,1442826,191,219,3334,12978
107917694,3963,0,-0.4510703,0.56408423,-9.135266,-0.0017850691,0.018459165,-0.027923662,70.96676,156.9064,0.0047884034,1442826,269,-312,1871,12984
108021694,3963,0,-0.4809237,1.3184887,-9.574713,0.0012619458,-0.00567792,-0.052913386,70.95568,156.9064,0.0047884034,1442826,290,-922,1822,12980
108121703,4010,0,0.32505822,0.5241387,-9.394722,0.0099159805,-0.0011365879,-0.024741458,70.96953,156.9064,0.0047884034,1442826,1882,215,3027,12985
108223270,3958,0,0.373856,-1.1267502,-10.029289,0.005105959,-0.005054571,-0.029539742,71.00831,156.9064,0.0047884034,1442826,1094,72,1916,12999
108327322,4044,0,-0.34571195,-0.90437096,-9.87301,-0.010289742,-0.000396956,-0.040055096,71.01385,156.9064,0.0047884034,1442826,-429,431,2010,13001
108431270,3971,0,-0.0037721007,1.1580228,-8.81165,0.01518048,0.007600488,-0.031928316,71.01108,156.9064,0.0047884034,1442826,263,-164,2950,13000
108531299,4006,0,0.21731158,1.187157,-9.164012,0.0011184707,-0.005890131,-0.04829543,70.98892,156.9064,0.0047884034,1442826,554,26,1346,12992
108631299,4006,0,0.37373906,0.6291848,-10.1063175,0.0036333443,-0.007580102,-0.042638127,70.986145,156.9064,0.0047884034,1442826,1151,420,2666,12991
108735300,3951,0,0.57122415,-1.3107477,-10.114026,-0.00951862,-0.006187061,-0.0479908,70.983376,156.9064,0.0047884034,1442826,-804,210,1800,12990
108835293,4000,0,-0.304927,-1.16881,-10.40107,-0.0041602375,0.0036985797,-0.045721613,70.99169,156.9064,0.0047884034,1442826,238,56,2981,12993
108936915,3999,0,-0.47321472,-0.34702116,-9.56462,-0.0018801854,0.003906276,-0.034903593,71.0277,156.9064,0.0047884034,1442826,-643,-242,2651,13006
109040949,4034,0,0.13117598,1.6786596,-8.6659155,0.010200548,0.0066198236,-0.033954196,70.99446,156.9064,0.0047884034,1442826,1088,75,3869,12994
109144915,4000,0,0.21728611,-0.31397203,-10.655232,0.00383146,-0.02299852,-0.04541668,71.01662,156.9064,0.0047884034,1442826,-107,-411,623,13002
109244915,3962,0,0.44292703,-1.2204846,-9.777926,0.0034925072,-0.011119567,-0.03035022,71.01662,156.9064,0.0047884034,1442826,1051,845,3802,13002
109344923,4008,0,0.41632524,-1.513622,-10.505745,-0.000421828,-0.0023158311,-0.048920322,71.00277,156.9064,0.0047884034,1442826,574,634,2563,12997
109448923,3996,0,-0.42931715,0.043205258,-9.237281,-0.009808471,0.012772891,-0.0315443,71.04432,156.9064,0.0047884034,1442826,-391,170,3082,13012
109550470,3953,0,-0.18717352,1.715657,-9.085675,0.0035476484,0.004990416,-0.03523097,71.01385,156.9064,0.0047884034,1442826,962,-258,3650,13001
109650509,3958,0,-0.5920712,1.0639956,-9.777833,0.014030744,-0.00014272821,-0.04053752,71.03047,156.9064,0.0047884034,1442826,613,-826,1588,13007
109754514,4021,0,0.33125973,-0.4373281,-10.398022,-0.006784691,0.0012057078,-0.04275887,71.06371,156.9064,0.0047884034,1442826,503,591,1979,13019
109854520,4027,0,0.26484329,-0.95732695,-9.89134,0.0044680033,0.005830905,-0.023011247,71.04709,156.9064,0.0047884034,1442826,-9,-246,1688,13013
109954493,3976,0,-0.423422,-0.44606903,-9.861383,-0.0030242065,0.0035207707,-0.050313253,71.04986,156.9064,0.0047884034,1442826,-355,-324,2039,13014
110058493,4000,0,-0.038601622,0.7661281,-9.101607,-0.0073888423,0.00072635483,-0.035008185,71.06925,156.9064,0.0047884034,1442826,-161,472,1185,13021
110158494,3992,0,-0.18194914,0.9664641,-9.446917,-0.0049145315,0.0101255495,-0.04431297,71.04432,156.9064,0.0047884034,1442826,-125,-940,1190,13012
110260100,4007,0,0.34599334,0.4962128,-10.027488,0.0046395105,-0.012232444,-0.056952033,71.05263,156.9064,0.0047884034,1442826,543,-425,472,13015
110360140,4033,0,0.53046167,-1.37411,-10.811635,-0.0025263503,-0.016189985,-0.043249004,71.03878,156.9064,0.0047884034,1442826,-934,221,542,13010
110464093,3973,0,-0.480684,-0.7750814,-9.998031,-4.043785e-05,0.009934876,-0.043756563,71.07202,156.9064,0.0047884034,1442826,-139,90,4155,13022
110568160,4066,0,-0.07364701,0.8541347,-8.922047,-0.009690105,0.0016513919,-0.027625304,71.04986,156.9064,0.0047884034,1442826,-953,286,1744,13014
110668093,3976,0,-0.20715544,0.98154545,-9.113423,-0.005509002,0.0041727144,-0.038727317,71.096954,156.9064,0.0047884034,1442826,-351,-127,2503,13031
110768094,4000,0,0.252912,0.94231755,-9.369113,0.00306609,0.0014163263,-0.041822035,71.096954,156.9064,0.0047884034,1442826,454,-394,2558,13031
110869735,4042,0,0.10604561,-0.38957796,-10.2198515,0.009862545,-0.0107007045,-0.052125882,71.06925,156.9064,0.0047884034,1442826,1119,-250,2461,13021
110969693,3974,0,0.5513026,-1.0485804,-10.441093,0.004473385,-0.0056918086,-0.028856345,71.094185,156.9064,0.0047884034,1442826,1102,508,3038,13030
111073693,3994,0,-0.4759544,-0.50899583,-10.065807,-0.003917234,0.007777347,-0.02757084,71.08033,156.9064,0.0047884034,1442826,-757,-427,795,13025
111173718,4025,0,-0.16848506,0.9720922,-9.058288,-0.001556756,0.0053522494,-0.034846973,71.10249,156.9064,0.0047884034,1442826,-427,-423,2811,13033
111273737,4044,0,0.12364537,1.5501451,-9.471533,0.0052943653,0.0033411162,-0.048357707,71.08864,156.9064,0.0047884034,1442826,605,-205,2248,13028
111377700,4001,0,0.60010445,-0.4229317,-9.487879,-0.0048314207,-0.0073362025,-0.041238554,71.094185,156.9064,0.0047884034,1442826,111,-11,2282,13030
111481702,4009,0,0.4766413,-1.0214535,-10.445454,0.0047996934,-0.0053266957,-0.038129948,71.11911,156.9064,0.0047884034,1442826,711,731,1793,13039
111583315,3990,0,-0.20242575,-0.9178744,-10.251699,-0.0075211106,0.0035923757,-0.0409808,71.099724,156.9064,0.0047884034,1442826,-229,-65,702,13032
111687293,3949,0,0.17380382,1.09412,-9.004023,0.007726898,0.007435576,-0.050196312,71.11911,156.9064,0.0047884034,1442826,-437,56,1988,13039
111787294,4000,0,0.26464617,1.2078528,-9.636017,0.003483971,-0.006808323,-0.05693706,71.10526,156.9064,0.0047884034,1442826,972,-192,1816,13034
111887293,3999,0,0.6398099,0.07806929,-9.705568,0.0027116311,-0.016367873,-0.03849959,71.10526,156.9064,0.0047884034,1442826,430,344,2498,13034
111991294,4000,0,0.10249036,-0.96430266,-9.926766,0.0009541459,0.0016960528,-0.035809547,71.10803,156.9064,0.0047884034,1442826,710,400,4130,13035
112091294,4000,0,-0.23770447,-0.47377005,-10.29006,0.0028249014,0.0017293879,-0.049416438,71.138504,156.9064,0.0047884034,1442826,-329,-334,2046,13046
112192893,3994,0,-0.14114083,0.59791934,-9.128018,0.0052412897,0.005096876,-0.03875876,71.14404,156.9064,0.0047884034,1442826,659,191,2551,13048
112292900,4007,0,-0.28653184,1.0115093,-9.43538,0.012464815,-0.0009017809,-0.052158363,71.11911,156.9064,0.0047884034,1442826,-431,-691,1789,13039
112396899,4006,0,0.10369968,-0.26436672,-10.185151,0.0043742266,-0.011208026,-0.029429752,71.10526,156.9064,0.0047884034,1442826,501,-216,1109,13034
112496900,4004,0,0.6386997,-0.81893444,-10.136797,0.008366639,-0.0035368963,-0.036735855,71.127426,156.9064,0.0047884034,1442826,1396,154,3327,13042
112596893,4000,0,0.24377584,-1.4933163,-10.680914,0.0059688794,0.002373472,-0.040785808,71.127426,156.9064,0.0047884034,1442826,694,528,1831,13042
112700920,4020,0,0.14460012,0.08481514,-9.685907,-0.0076914034,-0.0011156073,-0.057676315,71.14127,156.9064,0.0047884034,1442826,-576,198,-169,13047
112800893,4000,0,0.003229351,1.1136161,-9.417288,-0.0005781812,-0.0032178736,-0.031213949,71.174515,156.9064,0.0047884034,1442826,-298,-276,448,13059
112902521,4006,0,0.22888243,0.67010057,-9.488942,-0.002836389,-0.011681326,-0.05828035,71.15235,156.9064,0.0047884034,1442826,-81,-187,658,13051
113002550,4035,0,0.032961186,-0.11082063,-10.558567,0.009715541,-0.014913246,-0.037425257,71.168976,156.9064,0.0047884034,1442826,632,407,1685,13057
113106515,3993,0,-0.33309534,-1.331883,-10.434454,-0.008904522,0.007789531,-0.04871507,71.138504,156.9064,0.0047884034,1442826,989,80,2970,13046
113206539,4024,0,-0.18135473,-0.8572564,-9.648573,-0.0086070215,0.0069860686,-0.031845648,71.171745,156.9064,0.0047884034,1442826,-898,185,2841,13058
113310542,3963,0,-0.09391649,1.0537623,-9.368355,0.010156008,0.0068553863,-0.036328707,71.177284,156.9064,0.0047884034,1442826,211,-726,249,13060
113410561,4046,0,-0.2970071,1.6470525,-8.885517,0.0064058807,-0.00046893355,-0.03759285,71.16067,156.9064,0.0047884034,1442826,349,-183,3630,13054
113510515,3966,0,-0.19711031,0.29738334,-9.943498,0.0009980447,-0.006847008,-0.041514635,71.168976,156.9064,0.0047884034,1442826,303,-840,995,13057
113612100,4001,0,0.09793778,-1.4228388,-10.0025215,0.005891799,0.0017784941,-0.04910133,71.213295,156.9064,0.0047884034,1442826,615,-3,3771,13073
113716129,4013,0,0.37233981,-1.016743,-9.875464,-0.0055440357,0.006455646,-0.045553047,71.18005,156.9064,0.0047884034,1442826,-541,573,1154,13061
113816115,3975,0,-0.26053718,0.7555002,-9.319574,0.0011632792,0.0024921899,-0.008541512,71.14958,156.9064,0.0047884034,1442826,360,624,2988,13050
113916125,3983,0,0.3950594,0.9748977,-8.98403,0.0007507759,0.009692994,-0.03286352,71.19113,156.9064,0.0047884034,1442826,-162,1040,3547,13065
114020158,4030,0,0.32844597,0.28605625,-9.400211,-0.005803383,-0.004949304,-0.04504168,71.19668,156.9064,0.0047884034,1442826,-229,26,1977,13067
114124121,4006,0,0.2957222,-1.1067317,-10.633596,-0.001977407,-0.0010535379,-0.051297616,71.18282,156.9064,0.0047884034,1442826,-251,-458,910,13062
114224893,4000,0,0.02378403,-0.9295157,-9.817794,0.00031009258,0.0022113626,-0.03886593,71.18282,156.9064,0.0047884034,1442826,493,263,3229,13062
114328899,3999,0,-0.033481356,0.94028026,-9.050837,0.010380421,0.006772288,-0.02399387,71.20222,156.9064,0.0047884034,1442826,303,-102,3130,13069
114428894,4000,0,-0.44746825,1.59166,-9.771083,0.009535304,0.0026453387,-0.050797936,71.19668,156.9064,0.0047884034,1442826,-21,-576,1573,13067
114532935,4041,0,0.42031202,0.33306158,-10.017276,0.0063135554,-0.016315673,-0.032917187,71.210526,156.9064,0.0047884034,1442826,1417,349,1906,13072
114632943,4049,0,0.30593082,-0.8029817,-10.60602,0.0067357263,-0.016469361,-0.05271444,71.216064,156.9064,0.0047884034,1442826,39,-301,843,13074
114732893,3999,0,-0.02528487,-1.5749639,-10.284316,-0.0018412725,-0.00035231444,-0.043689273,71.249306,156.9064,0.0047884034,1442826,-216,-63,1749,13086
114836900,4006,0,-0.69954777,-0.21995598,-9.731943,-0.0020694295,0.0021531878,-0.038872123,71.22714,156.9064,0.0047884034,1442826,-1102,-670,1853,13078
114936894,4001,0,-0.18017025,0.5625687,-8.941172,-0.005067038,0.00945288,-0.028359361,71.213295,156.9064,0.0047884034,1442826,-269,758,4170,13073
115036939,4046,0,-0.10784117,1.57801,-9.07315,0.0088698,0.0043449914,-0.031127673,71.23823,156.9064,0.0047884034,1442826,-829,365,2234,13082
115141670,3920,0,0.844075,0.7996151,-9.104024,0.00918278,-0.010870902,-0.023472225,71.26315,156.9064,0.0047884034,1442826,1228,577,5121,13091
115241684,4014,0,0.1657334,-0.3584791,-9.923688,0.010735264,-0.0068471767,-0.03293632,71.23546,156.9064,0.0047884034,1442826,555,-313,2755,13081
115341670,4000,0,0.804944,-1.5332972,-9.914124,-0.007957035,-0.0006313503,-0.031768017,71.241,156.9064,0.0047884034,1442826,320,1285,4121,13083
115445670,4000,0,-0.27298844,-0.934453,-9.962488,0.002454678,0.0047021876,-0.026074499,71.23823,156.9064,0.0047884034,1442826,-1581,-159,435,13082
115545670,3990,0,-0.64607835,0.5429928,-9.377718,0.0074612238,0.008917505,-0.018785518,71.252075,156.9064,0.0047884034,1442826,173,-433,3287,13087
115645676,3955,0,-0.27865046,1.0810057,-9.250908,-0.003803833,0.0016444875,-0.039563082,71.26593,156.9064,0.0047884034,1442826,-1367,325,1868,13092
115749693,3989,0,0.7965858,0.8294857,-9.603123,0.00602985,-0.0055630207,-0.025300493,71.26038,156.9064,0.0047884034,1442826,523,254,1688,13090
115849703,3975,0,0.07154335,-0.37752756,-10.170831,0.00075196614,-0.012218682,-0.04478938,71.26038,156.9064,0.0047884034,1442826,-56,-743,2026,13090
115951327,4027,0,0.5391216,-1.4596332,-10.529651,-0.0020019724,-0.008919718,-0.032563776,71.2687,156.9064,0.0047884034,1442826,-494,338,2436,13093
116051301,4008,0,-0.45880252,-1.3913472,-10.367468,0.003496742,0.00024655648,-0.034615517,71.26593,156.9064,0.0047884034,1442826,319,-5,3809,13092
116155293,4000,0,-0.91937536,0.623275,-9.711996,0.0027831618,0.0068878364,-0.03176001,71.27978,156.9064,0.0047884034,1442826,-1394,-991,316,13097
116255293,4000,0,0.04489869,1.0350008,-9.112832,-0.0006443629,-0.010820756,-0.0393187,71.293625,156.9064,0.0047884034,1442826,-1018,44,2340,13102
116355328,4035,0,0.009957474,1.436984,-9.205106,0.009372737,0.006776754,-0.046809256,71.27147,156.9064,0.0047884034,1442826,-185,-279,2517,13094
116459314,4021,0,-0.049066428,-0.5517524,-9.768132,-0.0020432954,-0.011695881,-0.037846893,71.257614,156.9064,0.0047884034,1442826,1105,125,4215,13089
116563293,4000,0,-0.09732093,-1.5459846,-10.621602,-0.004812282,-0.002520416,-0.040495995,71.28532,156.9064,0.0047884034,1442826,-427,88,2436,13099
116664894,4024,0,-0.38836008,-0.48138142,-9.680264,-0.0022959986,0.012377529,-0.03126715,71.27147,156.9064,0.0047884034,1442826,222,109,2852,13094
117582494,3994,0,0.005667736,-1.3836281,-9.791581,-0.0039002113,0.0020474656,-0.02600357,71.3241,156.9064,0.0047884034,1442826,462,333,5063,13113
117686500,4006,0,-0.21949303,-0.4348378,-10.407802,-0.00261307,0.0037236079,-0.052901745,71.329636,156.9064,0.0047884034,1442826,-318,-665,-1191,13115
117786494,3993,0,-0.40783033,0.6149124,-10.102687,0.005887918,0.003524497,-0.042447537,71.34072,156.9064,0.0047884034,1442826,-276,-747,-452,13119
117886493,3964,0,0.0479813,1.0801953,-9.362005,0.0038861232,0.003943826,-0.045233153,71.293625,156.9064,0.0047884034,1442826,292,-256,1127,13102
117988102,3949,0,0.0052820747,0.93112004,-9.812649,0.007972706,-0.006696936,-0.053191997,71.35734,156.9064,0.0047884034,1442826,729,-481,691,13125
118088099,3963,0,0.2837915,0.04834016,-9.959328,0.0020926006,-0.01027472,-0.06119077,71.37673,156.9064,0.0047884034,1442826,157,108,610,13132
118192120,4009,0,0.28988695,-1.4546852,-9.876253,-5.3144176e-05,-0.0017880513,-0.022183958,71.31302,156.9064,0.0047884034,1442826,476,596,3645,13109
118292093,3993,0,-0.17848627,-0.7251173,-10.180317,-0.001824842,5.4910546e-05,-0.039234992,71.34072,156.9064,0.0047884034,1442826,242,-57,1254,13119
118396100,4007,0,0.18062499,0.9737939,-8.719632,-0.0037484523,-0.0036084703,-0.044014003,71.35734,156.9064,0.0047884034,1442826,-1374,111,2146,13125
118496099,4006,0,0.89075756,1.1062309,-9.098003,-0.0040441807,-0.0013786851,-0.025175747,71.34626,156.9064,0.0047884034,1442826,724,354,2079,13121
118597715,3994,0,0.2705157,0.15390271,-9.848491,0.0032376284,-0.0016161677,-0.041297216,71.31856,156.9064,0.0047884034,1442826,362,-151,712,13111
118697722,4000,0,0.84516317,-1.0556417,-10.070161,3.6487472e-05,-0.007234644,-0.02297746,71.36288,156.9064,0.0047884034,1442826,-365,13,1149,13127
118801722,3980,0,-0.2977283,-1.3818513,-10.235819,-0.0011162721,0.0070940815,-0.022281604,71.34626,156.9064,0.0047884034,1442826,-534,-69,2012,13121
118901722,4007,0,-0.323552,-0.44024453,-9.76234,-0.0077754837,0.008137191,-0.05054983,71.34626,156.9064,0.0047884034,1442826,-439,646,3082,13121
119001738,4023,0,-0.053751893,1.1552962,-9.402539,-0.0034153368,0.009881474,-0.02884529,71.33241,156.9064,0.0047884034,1442826,-167,318,924,13116
119105723,3957,0,-0.1597482,0.4855683,-9.656223,-0.0052246903,-0.009101889,-0.04351524,71.34072,156.9064,0.0047884034,1442826,284,-491,1661,13119
119205715,3961,0,0.38021496,-0.6429502,-9.689199,-0.006444892,-0.012711095,-0.04816912,71.35457,156.9064,0.0047884034,1442826,-470,-164,951,13124
119307340,4047,0,0.27119842,-1.2451322,-10.633167,-0.004589122,-0.0046685883,-0.042434137,71.35457,156.9064,0.0047884034,1442826,-345,26,791,13124
119407347,4021,0,-0.110567965,-1.6336643,-9.91798,-0.0051174304,0.0037887518,-0.032740757,71.34903,156.9064,0.0047884034,1442826,42,476,2207,13122
119511383,4090,0,-0.3389238,0.5621315,-10.032416,0.0064673736,0.004274814,-0.05004683,71.36011,156.9064,0.0047884034,1442826,-533,-552,-1973,13126
119615293,4000,0,-0.48001915,1.0747794,-8.782051,0.0003585584,0.010809014,-0.02994962,71.38781,156.9064,0.0047884034,1442826,971,-163,4939,13136
119719301,4008,0,0.72266394,-0.97857934,-10.01893,-0.0029481526,-0.01746396,-0.037821516,71.42105,156.9064,0.0047884034,1442826,-58,1237,3483,13148
119819292,3991,0,-0.22774181,-1.5752919,-10.105763,-0.007858958,0.0029056938,-0.02941496,71.37396,156.9064,0.0047884034,1442826,299,769,4251,13131
119920894,3994,0,0.048294827,-0.42104256,-10.301888,0.008754905,0.016568465,-0.031989183,71.38504,156.9064,0.0047884034,1442826,-404,-303,1191,13135
120024894,3972,0,-0.43395564,1.1047122,-8.552594,-0.006879491,0.01830185,-0.031937078,71.43213,156.9064,0.0047884034,1442826,39,754,5729,13152
120128907,4013,0,0.23073193,0.9704368,-9.523189,0.010858191,-0.0076565007,-0.015473639,71.39612,156.9064,0.0047884034,1442826,1413,783,5111,13139
120228894,3992,0,0.30718935,0.030315334,-9.448198,-0.0024894858,-0.0066769896,-0.025582407,71.4072,156.9064,0.0047884034,1442826,1381,1023,5184,13143
120328935,4041,0,0.54143864,-0.7555643,-10.116272,0.0040161856,-0.012946248,-0.055536162,71.41274,156.9064,0.0047884034,1442826,292,185,3046,13145
120432989,4096,0,-0.61334926,-1.1061378,-10.348402,-0.008584874,0.0015643984,-0.04309367,71.39612,156.9064,0.0047884034,1442826,-54,-544,347,13139
120533677,3984,0,-0.3373434,0.070143946,-10.370123,0.011744576,0.009960994,-0.023273194,71.41551,156.9064,0.0047884034,1442826,-613,-831,-1499,13146
120634505,4006,0,0.19727835,0.6972871,-9.778553,-0.005585646,-0.0040984135,-0.056672677,71.43213,156.9064,0.0047884034,1442826,-1003,265,-1228,13152
120734500,3975,0,0.2901399,0.7687646,-9.492218,-0.002528655,-0.0037350883,-0.042028252,71.4349,156.9064,0.0047884034,1442826,902,770,3147,13153
120838497,4004,0,0.54452306,-0.78065664,-9.755018,-0.003963672,-0.010889545,-0.05901934,71.39335,156.9064,0.0047884034,1442826,434,-194,1966,13138
120938518,4025,0,-0.023443982,-1.1971563,-10.158456,0.0031064095,0.008501612,-0.041366488,71.445984,156.9064,0.0047884034,1442826,851,443,4053,13157
121038518,3987,0,-0.110804014,-1.0094527,-9.897756,0.0050240704,0.0050727865,-0.017744876,71.437675,156.9064,0.0047884034,1442826,-69,71,3586,13154
121142493,3988,0,-0.07906074,0.9064595,-9.370465,0.0052156555,-0.0005136578,-0.035151415,71.443214,156.9064,0.0047884034,1442826,-124,195,2822,13156
121248107,4013,0,0.029914673,0.7514416,-9.0778,0.0028585698,0.001970507,-0.032785337,71.4626,156.9064,0.0047884034,1442826,1150,551,4554,13163
121348137,4043,0,0.09765768,-0.24897651,-9.43503,-0.006110754,0.0009201422,-0.049930133,71.443214,156.9064,0.0047884034,1442826,382,452,2331,13156
121452094,4000,0,0.030570978,-1.3566643,-9.959575,-0.0014983934,-0.00039867614,-0.04601201,71.45983,156.9064,0.0047884034,1442826,296,-264,1586,13162
121552094,3999,0,-0.49386725,-0.56952834,-9.924708,0.0045039896,0.007270729,-0.032571867,71.45706,156.9064,0.0047884034,1442826,513,-609,2546,13161
121652093,3999,0,-0.44019878,-0.15603384,-9.48817,0.0011273134,0.0078531075,-0.03165181,71.46814,156.9064,0.0047884034,1442826,-1027,-78,3129,13165
121756098,3961,0,0.40083426,1.2370964,-9.14602,0.008703344,-0.0041955626,-0.023310794,71.45983,156.9064,0.0047884034,1442826,776,803,3912,13162
121857735,4025,0,-0.24414973,0.007468256,-9.723291,-0.0022929157,-0.013126222,-0.04626574,71.476456,156.9064,0.0047884034,1442826,933,-355,2279,13168
121957700,4006,0,0.51457196,-0.99241763,-10.111294,-0.016647477,-0.010979095,-0.06302468,71.45983,156.9064,0.0047884034,1442826,-587,326,1806,13162
122057693,3999,0,0.033659622,-1.1704369,-9.948021,-0.0025571168,-0.007553951,-0.05246751,71.44875,156.9064,0.0047884034,1442826,-399,-49,3763,13158
122161694,4001,0,-0.06674589,-0.121069714,-9.730008,-0.0018931401,0.009617715,-0.039712578,71.443214,156.9064,0.0047884034,1442826,-268,17,1176,13156
122265694,4000,0,-0.55538005,1.515947,-9.489585,-0.0027053142,-0.00055374624,-0.045070086,71.45706,156.9064,0.0047884034,1442826,233,-361,2547,13161
122365728,3984,0,-0.2122836,0.91432565,-9.810698,0.010776868,0.0007136804,-0.042934626,71.481995,156.9064,0.0047884034,1442826,1884,-393,1439,13170
122469693,3925,0,0.08280247,-1.0061787,-10.026213,-0.00688185,-0.008094251,-0.057365984,71.47369,156.9064,0.0047884034,1442826,-667,12,1224,13167
122571315,4000,0,-0.04455606,-0.8159636,-10.385695,-0.0035333573,0.0012175769,-0.049393844,71.49307,156.9064,0.0047884034,1442826,-431,-684,599,13174
122671315,3909,0,-0.15040249,-0.15363695,-9.786185,0.0049557704,0.0023679857,-0.04597287,71.518005,156.9064,0.0047884034,1442826,-200,-456,1628,13183
122771364,4049,0,-0.3283058,0.59688336,-9.53255,0.00820507,0.009799544,-0.033417493,71.484764,156.9064,0.0047884034,1442826,919,-17,1916,13171
122875322,4007,0,0.03871184,0.3900376,-9.167346,-0.009265947,-0.0058900504,-0.071815625,71.50693,156.9064,0.0047884034,1442826,-460,-229,2162,13179
122975270,4000,0,0.23187616,-0.30179176,-9.385578,-0.0007211254,0.0052779913,-0.035125077,71.44875,156.9064,0.0047884034,1442826,1703,213,4885,13158
123075270,3966,0,0.17051291,-1.3821557,-10.751801,0.0015673849,-0.01393989,-0.06018064,71.49584,156.9064,0.0047884034,1442826,107,-162,-663,13175
123176915,3993,0,0.13633469,-1.2675713,-10.40999,-0.010645427,-0.010664629,-0.0452091,71.51247,156.9064,0.0047884034,1442826,16,306,290,13181
123280915,4000,0,-0.36505792,0.3337986,-9.639087,0.0076109204,0.00450798,-0.04591041,71.520775,156.9064,0.0047884034,1442826,-1474,-808,1357,13184
123380934,4019,0,-0.21282676,0.98254234,-9.176051,0.0026461673,-0.004498548,-0.056897346,71.53739,156.9064,0.0047884034,1442826,-380,-403,2550,13190
123484915,3994,0,0.37206858,0.1661899,-9.709963,0.01107332,-0.0101366425,-0.025560072,71.52631,156.9064,0.0047884034,1442826,973,415,3160,13186
123584915,4000,0,0.24430318,-0.78192776,-10.320605,0.005135156,-0.006664637,-0.044550195,71.523544,156.9064,0.0047884034,1442826,1581,442,3638,13185
123684915,3997,0,0.45690772,-1.392852,-10.06679,0.005476212,-0.003394558,-0.03341399,71.50693,156.9064,0.0047884034,1442826,1187,520,2447,13179
123788917,3969,0,0.28905466,-0.03428424,-9.630625,0.00076576404,0.0014129967,-0.04662843,71.52631,156.9064,0.0047884034,1442826,-631,227,156,13186
123890589,4083,0,-0.24800198,1.0735292,-9.250341,0.004782024,0.0014430091,-0.012148818,71.58172,156.9064,0.0047884034,1442826,-12,426,2399,13206
123990481,3964,0,0.10782683,1.3870541,-8.949972,0.01201387,0.0039167334,-0.039113577,71.49584,156.9064,0.0047884034,1442826,1368,-180,2067,13175
124094498,4008,0,0.16442236,-0.6211853,-9.809066,0.0042057913,-0.008634131,-0.033526238,71.559555,156.9064,0.0047884034,1442826,648,-305,1365,13198
124194471,4001,0,0.5489845,-1.8311557,-10.3522,0.010428059,-0.0068889093,-0.025743475,71.5734,156.9064,0.0047884034,1442826,652,303,2680,13203
124298470,3993,0,-0.31931356,-0.8492725,-10.359132,-8.786534e-05,0.0036934344,-0.032401524,71.53739,156.9064,0.0047884034,1442826,-267,66,483,13190
124398496,4001,0,-0.44825274,0.4920607,-9.067837,0.0038372108,0.005382784,-0.038276188,71.5734,156.9064,0.0047884034,1442826,-259,115,3070,13203
124500094,4000,0,-0.26885423,1.4878497,-8.846469,0.002972334,0.00028426983,-0.038127944,71.54571,156.9064,0.0047884034,1442826,-213,-561,3285,13193
124600100,3965,0,-0.21933751,0.949104,-9.573193,-0.009302027,-0.0054659788,-0.04471862,71.57063,156.9064,0.0047884034,1442826,-797,-739,652,13202
124700112,4018,0,0.3625592,0.2860209,-9.808177,-0.008644856,-0.0023602815,-0.053639736,71.57895,156.9064,0.0047884034,1442826,483,-209,941,13205
124804105,4012,0,0.3139781,-1.5846045,-10.26222,-0.0018736611,-0.009657214,-0.044046283,71.5928,156.9064,0.0047884034,1442826,-134,-408,1764,13210
124904094,4001,0,-0.23513485,-1.8333138,-10.119205,-0.0028638146,0.005907432,-0.034882568,71.562325,156.9064,0.0047884034,1442826,-249,112,1260,13199
125004093,3999,0,-0.6273398,-0.45397335,-10.343442,0.00078820845,0.0069940677,-0.04029771,71.554016,156.9064,0.0047884034,1442826,-891,-547,1788,13196
125108915,4815,0,-0.23536567,1.0365951,-9.014379,0.012842792,0.012927009,-0.032735698,71.57618,156.9064,0.0047884034,1442826,-309,-153,3111,13204
125209671,4001,0,-0.15564229,1.0589437,-9.172431,-0.010663589,-0.009531172,-0.053563613,71.59003,156.9064,0.0047884034,1442826,148,-238,2490,13209
125309670,3962,0,0.7695093,0.044390745,-9.788163,-0.005321536,-0.00978892,-0.044579394,71.5734,156.9064,0.0047884034,1442826,1171,512,3015,13203
125413673,4003,0,0.06620934,-1.5974028,-10.258657,-0.006989986,-0.0061125862,-0.043547995,71.58172,156.9064,0.0047884034,1442826,-191,290,3116,13206
125513710,4030,0,0.0059317234,-1.4503427,-9.78121,-0.0027408856,0.0036815177,-0.029619403,71.598335,156.9064,0.0047884034,1442826,-808,77,2383,13212
125613670,4000,0,-0.4379662,0.071083814,-9.671194,0.0003503327,0.0067056767,-0.02748876,71.58449,156.9064,0.0047884034,1442826,795,445,3371,13207
125717670,4000,0,-0.057981778,1.4236772,-8.912423,-0.015766717,0.0034591265,-0.059298165,71.57618,156.9064,0.0047884034,1442826,-721,-90,1150,13204
125818528,4029,0,-0.09082162,0.46871176,-9.844594,-0.0006710598,-0.006002352,-0.063572675,71.62881,156.9064,0.0047884034,1442826,-237,-1180,973,13223
125922500,4007,0,0.32975847,-1.4893421,-9.908617,-0.008070848,0.0010792236,-0.03146758,71.63158,156.9064,0.0047884034,1442826,-659,529,1512,13224
126022544,3990,0,-0.63044715,-1.6020459,-9.945457,-0.003259911,0.0031191374,-0.04940431,71.58449,156.9064,0.0047884034,1442826,-276,-890,2020,13207
126122515,4000,0,-0.3510964,-0.5366308,-10.089965,0.0030398665,0.004910622,-0.05018069,71.62327,156.9064,0.0047884034,1442826,-801,-876,-1082,13221
126222522,3979,0,-0.24128608,0.2558234,-9.380198,0.005839896,0.014587168,-0.021560248,71.60664,156.9064,0.0047884034,1442826,-97,269,2293,13215
126326547,4032,0,0.4477732,1.2332995,-9.653595,-0.002156407,0.0003150541,-0.030940687,71.603874,156.9064,0.0047884034,1442826,685,40,809,13214
126426515,3971,0,0.13173437,0.73243487,-9.462856,0.0026874938,0.010263973,-0.026690904,71.637115,156.9064,0.0047884034,1442826,829,-422,2459,13226
126526544,4029,0,0.27739975,-0.3024905,-10.134758,-0.0016541388,-0.013948342,-0.03927354,71.65097,156.9064,0.0047884034,1442826,524,139,950,13231
126630515,3999,0,0.4533291,-0.94764847,-9.637416,0.0013342316,-0.007837469,-0.04136972,71.62327,156.9064,0.0047884034,1442826,1055,946,3352,13221
126732119,4025,0,-0.35431528,-0.35248035,-9.767434,-0.00038497814,0.001855569,-0.06364095,71.62881,156.9064,0.0047884034,1442826,-1667,-278,1342,13223
126836095,4001,0,-0.18680371,0.9709387,-9.924174,0.014408119,-0.003649404,-0.032969344,71.61773,156.9064,0.0047884034,1442826,-868,-600,1978,13219
126940094,3984,0,0.08854938,-0.14405006,-9.445879,-0.0006289042,-0.009953313,-0.038330782,71.64266,156.9064,0.0047884034,1442826,-118,-252,2277,13228
127040071,3995,0,0.30810735,-1.2023585,-10.194376,0.002077122,-0.0023135925,-0.022660747,71.639885,156.9064,0.0047884034,1442826,1020,876,3025,13227
127140070,3976,0,-0.3797353,-1.8735652,-10.393,-0.0073377243,-0.005784083,-0.030451266,71.65651,156.9064,0.0047884034,1442826,452,161,2110,13233
127244084,4002,0,-0.030232733,-0.047132798,-9.64925,-0.0018936346,-0.0020067429,-0.05603283,71.66205,156.9064,0.0047884034,1442826,-364,447,1320,13235
127345693,4000,0,-0.5599323,1.0647918,-9.347905,-0.004902321,0.024591394,-0.023091882,71.61773,156.9064,0.0047884034,1442826,273,-655,805,13219
127445728,4027,0,-0.5938134,1.3462105,-9.416529,0.0067276997,0.008071774,-0.059268538,71.639885,156.9064,0.0047884034,1442826,-974,-1069,545,13227
127545693,3999,0,-0.0071635162,0.99995697,-9.614495,0.0056190994,-0.014643285,-0.064835034,71.65651,156.9064,0.0047884034,1442826,-43,-530,1738,13233
127649693,4000,0,0.7371412,-0.803589,-9.991925,-0.0010704792,-0.00014958426,-0.027314942,71.65374,156.9064,0.0047884034,1442826,959,590,3540,13232
127749694,4001,0,-0.17879616,-1.5926143,-10.137559,-0.009089091,-0.0057890434,-0.04323777,71.68698,156.9064,0.0047884034,1442826,-229,-127,222,13244
127849701,4008,0,-0.24694361,-0.9009437,-9.983676,-0.0059346193,0.0060802386,-0.035342287,71.62604,156.9064,0.0047884034,1442826,-582,-13,-435,13222
127955294,3992,0,-0.30996555,1.2595937,-9.064357,0.005566108,0.0036532935,-0.040632803,71.66205,156.9064,0.0047884034,1442826,694,-183,2571,13235
