timestamp,integral_dt,error_count,x,y,z,x_integral,y_integral,z_integral,temperature,range_m_s2,scaling,device_id,x_raw,y_raw,z_raw,temperature_raw
24366404,3999,0,0.32689983,-0.3372219,-9.643077,0.000255639,0.0045289886,-0.03937264,58.3518,156.9064,0.0047884034,1442826,-270,113,2161,8430
24470404,3986,0,0.3499301,0.08605545,-9.73544,0.0010003744,-0.0014136812,-0.035809077,58.31579,156.9064,0.0047884034,1442826,144,-126,1920,8417
24574404,3968,0,0.16091514,1.3575829,-10.399238,-0.00010984186,0.0028789267,-0.040915623,58.34072,156.9064,0.0047884034,1442826,303,-28,1648,8426
24674403,4000,0,-0.41974607,-1.4376014,-9.478796,-0.00021733102,0.0019459322,-0.040694363,58.31302,156.9064,0.0047884034,1442826,-309,-76,1904,8416
24774403,4000,0,0.46497998,1.2711457,-9.644181,-0.0014034535,-0.006308392,-0.039197795,58.34349,156.9064,0.0047884034,1442826,888,274,1996,8427
24874424,4014,0,0.5742238,1.4722021,-9.456876,0.0037879813,0.0056631393,-0.03740314,58.373962,156.9064,0.0047884034,1442826,256,15,1924,8438
24978409,4006,0,0.59691465,1.0736293,-9.578786,0.0006866828,-0.002387396,-0.0389228,58.37673,156.9064,0.0047884034,1442826,485,31,2039,8439
25078403,3984,0,0.9198761,0.73728544,-9.902944,-0.0005626673,-0.0032282332,-0.037958097,58.396122,156.9064,0.0047884034,1442826,557,384,2045,8446
25182411,4008,0,-0.54220676,-0.48556492,-9.659521,-0.010345502,-0.0030948347,-0.03807836,58.40166,156.9064,0.0047884034,1442826,-93,385,1934,8448
25286403,4000,0,-1.172361,0.4812578,-9.452069,0.005824005,0.004848122,-0.045733005,58.393353,156.9064,0.0047884034,1442826,-275,-705,2174,8445
25386419,4016,0,1.1338708,0.5334583,-10.207135,0.016137434,-0.0054986337,-0.0444704,58.39058,156.9064,0.0047884034,1442826,215,-408,2156,8444
25488004,4000,0,-0.44810712,0.33152667,-9.752624,-0.0002405298,0.005351023,-0.03926574,58.42105,156.9064,0.0047884034,1442826,225,-94,2310,8455
25592038,4006,0,-0.40088236,0.08612211,-9.47783,-0.008025166,-0.015418841,-0.03792072,58.448753,156.9064,0.0047884034,1442826,715,280,3087,8465
25692003,3986,0,0.6622406,0.48580554,-9.69475,-0.00085527875,0.001964836,-0.03796873,58.462605,156.9064,0.0047884034,1442826,-928,116,2202,8470
25796007,4000,0,-0.40069845,-0.17979872,-10.276512,0.010179383,0.008485697,-0.04179735,58.443214,156.9064,0.0047884034,1442826,227,-903,2366,8463
25896048,4045,0,-0.66898364,-0.2533981,-10.286385,0.003098744,-0.0035118875,-0.0355031,58.473682,156.9064,0.0047884034,1442826,558,-388,1484,8474
25996004,3975,0,-0.287374,0.022661863,-9.936005,-0.009398429,-0.00085251546,-0.040663358,58.487534,156.9064,0.0047884034,1442826,-263,502,1012,8479
26096033,4020,0,-0.18027778,0.44612247,-11.496686,-0.0020288145,0.0039659888,-0.03573548,58.515236,156.9064,0.0047884034,1442826,-513,-167,1953,8489
26200070,4067,0,0.0027640583,-0.021975927,-11.72849,-0.0028689494,0.0012676781,-0.047928162,58.515236,156.9064,0.0047884034,1442826,-187,-190,1553,8489
26304004,4001,0,0.29888743,0.10514849,-12.753605,-0.00046309072,-0.008769424,-0.056352034,58.534626,156.9064,0.0047884034,1442826,853,303,1701,8496
26408003,3999,0,-0.39659533,-0.24611196,-11.709925,-0.008847116,0.0026237923,-0.04103282,58.515236,156.9064,0.0047884034,1442826,-993,-20,2396,8489
26512004,4001,0,0.15540443,1.69456,-11.31526,0.006366818,0.010148887,-0.04393784,58.562325,156.9064,0.0047884034,1442826,294,130,3451,8506
26612004,4001,0,0.13833494,0.84254247,-11.42271,0.006586315,-0.0060744947,-0.04628248,58.551247,156.9064,0.0047884034,1442826,467,46,1478,8502
26712056,4053,0,0.010552653,-0.0582334,-10.423903,0.008885434,-0.009830583,-0.054140836,58.556786,156.9064,0.0047884034,1442826,1244,-398,919,8504
26813604,4001,0,0.3932449,-1.1753188,-10.458059,0.00018970412,0.00032209978,-0.037363645,58.595566,156.9064,0.0047884034,1442826,-740,264,1376,8518
26917603,3994,0,-0.20752949,0.49183643,-9.75701,-0.0006162639,0.0076592304,-0.018999124,58.595566,156.9064,0.0047884034,1442826,-312,-224,1857,8518
27017603,3994,0,0.55924374,1.2585319,-9.455172,0.0048507205,-0.0073885703,-0.04709058,58.576176,156.9064,0.0047884034,1442826,713,62,1983,8511
27121604,3966,0,0.08495292,-0.20454845,-10.216539,-0.00059345807,0.00010153258,-0.03532738,58.62327,156.9064,0.0047884034,1442826,203,-200,1347,8528
27221638,4013,0,-0.36569017,-0.5045989,-9.740918,-0.0034353896,-0.0014653795,-0.051641196,58.576176,156.9064,0.0047884034,1442826,-714,-293,3253,8511
27321603,3963,0,0.1764308,-0.055424105,-10.364002,0.00946724,-0.006076006,-0.036104735,58.65651,156.9064,0.0047884034,1442826,-162,-302,535,8540
27425613,4010,0,-0.024925502,1.518008,-10.606704,0.007929922,-0.00040658447,-0.047624618,58.65651,156.9064,0.0047884034,1442826,738,-331,317,8540
27525603,4000,0,0.3315079,1.0412731,-10.082228,-0.00021181942,0.0054271705,-0.056742784,58.63989,156.9064,0.0047884034,1442826,-211,-233,2700,8534
27629603,3999,0,0.9169805,-0.66511947,-10.45891,0.006443425,-0.005158157,-0.030884441,58.68144,156.9064,0.0047884034,1442826,1027,769,2213,8549
27733603,4000,0,-0.08133275,0.062355712,-10.08357,-0.00305116,0.0006124289,-0.0396002,58.67867,156.9064,0.0047884034,1442826,-1174,-168,465,8548
27833603,3954,0,-1.0360916,1.1018696,-9.9267025,-0.012736843,0.008347743,-0.049960226,58.69806,156.9064,0.0047884034,1442826,-3,-780,897,8555
27933604,3986,0,-0.04414134,1.3274735,-9.781163,0.0010629,0.0017281461,-0.037195034,58.70637,156.9064,0.0047884034,1442826,214,-580,1419,8558
28035203,3972,0,-0.17891467,-0.1763081,-9.468907,-0.0057334104,-0.010500842,-0.04839675,58.71191,156.9064,0.0047884034,1442826,-54,-217,1359,8560
28139226,4023,0,-0.3106594,-0.26547158,-9.248525,0.002749286,0.0016246242,-0.027384961,58.70637,156.9064,0.0047884034,1442826,778,-215,1971,8558
28239211,4002,0,-0.61303395,0.50541574,-8.775671,-0.007360793,0.010348908,-0.05167619,58.736843,156.9064,0.0047884034,1442826,213,-330,1695,8569
28339203,4000,0,-0.18403248,0.6481459,-8.926735,-0.0014201796,-0.0009748208,-0.031985536,58.75069,156.9064,0.0047884034,1442826,-478,-258,284,8574
28443222,4019,0,0.46578225,-0.19805111,-8.639499,-0.007640589,-0.0022943062,-0.030365739,58.73407,156.9064,0.0047884034,1442826,793,796,3252,8568
28543203,4000,0,0.49377018,-0.5798912,-8.688767,-0.0013404137,-0.005042908,-0.027893461,58.753464,156.9064,0.0047884034,1442826,20,1431,4410,8575
28647203,3994,0,-0.14713378,0.31687376,-8.990168,-0.0026842235,0.001595436,-0.036380738,58.811634,156.9064,0.0047884034,1442826,-149,48,2159,8596
28751212,4009,0,0.04422506,0.61409086,-9.146668,0.0009728278,0.0049757264,-0.042071268,58.756233,156.9064,0.0047884034,1442826,-506,-86,1944,8576
28851230,4027,0,0.29958266,0.15670392,-10.091761,0.0036922772,0.00016541523,-0.040651206,58.800552,156.9064,0.0047884034,1442826,-497,-517,1878,8592
28955224,4021,0,-0.2938358,-0.39244732,-10.477677,-0.0019521071,0.014430355,-0.038427204,58.797783,156.9064,0.0047884034,1442826,456,-481,1735,8591
29055203,4000,0,-0.012941541,0.028730094,-10.334087,-0.008263089,-0.0012956068,-0.049695916,58.855953,156.9064,0.0047884034,1442826,-604,816,1582,8612
29155203,4000,0,-0.32667223,0.8562738,-10.381234,0.0059234668,0.009400743,-0.03853514,58.833794,156.9064,0.0047884034,1442826,374,573,3787,8604
29256803,4800,0,-0.13567176,0.6999733,-10.391971,-0.007574385,0.0030896484,-0.044067286,58.850414,156.9064,0.0047884034,1442826,-13,346,2010,8610
29360813,3991,0,0.6115979,-0.67193663,-10.6348915,-0.0014882025,-0.004176555,-0.025696771,58.855953,156.9064,0.0047884034,1442826,742,-24,-1175,8612
29460803,4000,0,-0.2666146,-0.5291322,-9.906404,-0.01580158,0.0013066039,-0.053382102,58.891968,156.9064,0.0047884034,1442826,-446,687,1838,8625
29560808,3969,0,-0.17927171,0.43921378,-9.640752,0.0057132393,0.011926566,-0.04156894,58.864265,156.9064,0.0047884034,1442826,-939,-211,2462,8615
29664854,4021,0,-0.102803014,1.9717906,-9.915316,0.006728313,0.010391069,-0.025522571,58.933517,156.9064,0.0047884034,1442826,223,-796,1266,8640
29764804,4000,0,-0.17024283,0.7821698,-10.249258,-0.0025435782,-0.006616228,-0.058679026,58.897507,156.9064,0.0047884034,1442826,339,-211,322,8627
29868807,4003,0,0.34782264,-0.6676138,-10.162793,-0.010699421,0.0036760936,-0.043330237,58.941826,156.9064,0.0047884034,1442826,924,591,2073,8643
29968838,4034,0,-0.4705165,-0.20754835,-9.945327,-0.004140513,0.012029871,-0.052082535,58.911358,156.9064,0.0047884034,1442826,-319,-477,2484,8632
30072803,4000,0,0.24791327,1.0508748,-8.776671,-0.0028166831,0.004707056,-0.015396597,58.933517,156.9064,0.0047884034,1442826,246,856,3185,8640
30172810,4006,0,0.22886354,0.31747165,-8.806405,-0.0046854885,-0.005469981,-0.03446093,58.952908,156.9064,0.0047884034,1442826,-261,1263,3331,8647
30272804,4000,0,0.20830251,-0.37023777,-9.285318,0.0024830534,-0.01213761,-0.051250666,58.975067,156.9064,0.0047884034,1442826,-316,272,1368,8655
30376804,3980,0,-0.22044134,-0.01619525,-8.955474,0.0038184084,0.00043781102,-0.027831014,58.97784,156.9064,0.0047884034,1442826,688,163,2968,8656
30477603,4800,0,-0.32413667,0.7906552,-8.638823,0.012072161,0.004905306,-0.033830658,58.972298,156.9064,0.0047884034,1442826,107,-60,4168,8654
30578410,3967,0,-0.55897665,0.57104224,-9.29618,0.0073214276,-0.005448847,-0.040655486,58.972298,156.9064,0.0047884034,1442826,323,-861,3202,8654
30678403,3993,0,-0.20968838,0.18493083,-9.262856,-0.0056306035,-0.001348536,-0.041299548,59.00831,156.9064,0.0047884034,1442826,899,488,3459,8667
30782440,4037,0,-0.09534568,-0.35314384,-9.383181,0.0042221183,0.0066855876,-0.033140503,59.01939,156.9064,0.0047884034,1442826,-1102,-142,1441,8671
30882403,4000,0,-0.04819155,-0.23894557,-8.782428,0.004669489,0.0059660673,-0.026705254,59.011078,156.9064,0.0047884034,1442826,-1484,227,1807,8668
30982403,3961,0,0.39396498,1.0220538,-9.2041855,0.0090703005,0.0040119817,-0.025615118,59.03878,156.9064,0.0047884034,1442826,-847,621,1610,8678
31086415,4012,0,0.19227105,0.24177766,-8.940422,-0.010624313,-0.006736801,-0.029233314,59.07756,156.9064,0.0047884034,1442826,-280,711,3607,8692
31186441,4038,0,0.47515604,-0.46875247,-8.770306,-0.0012453152,0.004433806,-0.047348544,59.0554,156.9064,0.0047884034,1442826,330,1220,3979,8684
31286412,4009,0,0.15744399,0.116982274,-8.735783,0.006090766,0.0038894855,-0.02458401,59.05263,156.9064,0.0047884034,1442826,1137,910,3005,8683
31390403,4000,0,0.20884828,0.118545294,-9.173326,-0.0010085895,0.0020386707,-0.038459882,59.09695,156.9064,0.0047884034,1442826,-479,558,3593,8699
31490409,4006,0,0.110989355,1.0226103,-9.904513,0.008387416,0.0065876036,-0.038793635,59.102493,156.9064,0.0047884034,1442826,1540,-22,1058,8701
31594411,3989,0,-0.009930729,-0.28807217,-9.330831,-0.006099751,-0.007864656,-0.02633613,59.088642,156.9064,0.0047884034,1442826,-595,-337,1915,8696
31694403,3985,0,0.5283883,-0.5721299,-9.42795,0.0010522043,-0.0020561966,-0.027751425,59.11357,156.9064,0.0047884034,1442826,221,199,3996,8705
31800003,3994,0,0.32813877,0.59998155,-8.470609,-0.001385945,0.0060092187,-0.013368867,59.121883,156.9064,0.0047884034,1442826,367,970,4120,8708
31900013,4010,0,0.3520275,0.47945458,-9.1530485,-0.0053793117,0.007621767,-0.025529318,59.121883,156.9064,0.0047884034,1442826,113,558,1047,8708
32004004,4001,0,0.021768222,-0.29528037,-9.076597,-0.008373836,-0.016375102,-0.052197002,59.166203,156.9064,0.0047884034,1442826,-1117,102,3850,8724
32104045,4042,0,0.028535502,0.25710112,-8.718127,-0.00050754764,0.014027777,-0.012287808,59.13019,156.9064,0.0047884034,1442826,1141,-190,1365,8711
32204003,3999,0,-0.195001,0.4692836,-9.108555,-0.0013898055,0.008905953,-0.026793282,59.166203,156.9064,0.0047884034,1442826,-836,235,2615,8724
32308003,3977,0,-0.11706598,0.2752462,-8.82596,-0.007935705,-0.011871815,-0.056739926,59.163433,156.9064,0.0047884034,1442826,-886,67,4340,8723
32408003,4000,0,0.54968834,0.039788738,-9.214113,-0.005754617,-0.0055841194,-0.023769056,59.202217,156.9064,0.0047884034,1442826,923,514,3525,8737
32512015,4011,0,0.18059799,0.24227886,-10.008554,0.0005351035,0.0046709953,-0.03496653,59.216064,156.9064,0.0047884034,1442826,143,722,3106,8742
32616003,3980,0,-0.11908777,1.1116201,-9.553704,-0.002723542,0.001943345,-0.029780213,59.260387,156.9064,0.0047884034,1442826,445,-361,3872,8758
32716003,4000,0,0.11525178,0.63157886,-10.43238,-0.00031153648,-0.0029206912,-0.060938966,59.193905,156.9064,0.0047884034,1442826,-319,-717,1298,8734
32816018,4015,0,0.2642603,-0.061715037,-10.428436,0.013020989,-0.003046414,-0.04594002,59.25485,156.9064,0.0047884034,1442826,1184,-104,2192,8756
32921603,3994,0,-0.3715997,0.19727921,-10.240327,-0.006727909,0.010855692,-0.03939041,59.263157,156.9064,0.0047884034,1442826,59,-297,957,8759
33025610,4007,0,0.26431313,0.62338233,-10.685444,-0.008529591,-0.0061072554,-0.041071486,59.25485,156.9064,0.0047884034,1442826,-406,-382,435,8756
33125617,3981,0,0.17437015,0.57805586,-10.187536,0.00908328,-0.00070279994,-0.041968703,59.31579,156.9064,0.0047884034,1442826,189,523,5602,8778
33229604,3983,0,0.1066141,-0.111505896,-10.730694,0.005345815,0.0053169304,-0.037470896,59.263157,156.9064,0.0047884034,1442826,584,209,3574,8759
33329604,4000,0,-0.033102043,-0.39158666,-10.572969,-0.00550406,-0.0006151844,-0.034420468,59.31579,156.9064,0.0047884034,1442826,-590,278,917,8778
33429604,4000,0,-0.44305864,0.69606566,-10.339331,0.005716378,0.009564349,-0.04064241,59.301937,156.9064,0.0047884034,1442826,293,-785,3323,8773
33533604,4000,0,0.10417363,0.57906204,-10.976274,-0.00013012392,-0.0047789044,-0.055321205,59.29086,156.9064,0.0047884034,1442826,23,-942,653,8769
33633603,3966,0,0.23313692,-0.5774247,-11.16332,-0.0039045014,-0.0032887855,-0.027504794,59.3518,156.9064,0.0047884034,1442826,392,525,2836,8791
33733611,4007,0,0.021923939,-0.6663971,-10.775628,-0.0021581212,0.0019925523,-0.047678195,59.393353,156.9064,0.0047884034,1442826,-39,-44,2116,8806
34527203,4000,0,-0.75165635,0.83989316,-7.869405,0.0009992183,0.01392877,-0.018320454,59.43767,156.9064,0.0047884034,1442826,1042,-1048,-169,8822
34627204,4001,0,-0.021617396,0.5829987,-8.126578,0.0013899943,0.005608943,-0.008417048,59.41828,156.9064,0.0047884034,1442826,-147,334,1840,8815
34731231,3991,0,-0.008904316,-0.45113608,-9.485821,-8.178031e-05,-0.0004503791,-0.04681128,59.434902,156.9064,0.0047884034,1442826,-152,-128,-526,8821
34831204,3964,0,0.25338215,-0.59156746,-9.187947,8.6860964e-05,-0.0027771818,-0.03211971,59.484764,156.9064,0.0047884034,1442826,-159,315,3641,8839
34931239,4036,0,-0.29358575,0.16496806,-9.659317,-0.0015153366,0.0087027745,-0.026322126,59.484764,156.9064,0.0047884034,1442826,706,213,2345,8839
35031229,4026,0,-0.17313176,0.729907,-9.731359,-0.0028593307,0.0031439904,-0.041654833,59.470913,156.9064,0.0047884034,1442826,37,-350,2116,8834
35135213,4002,0,0.3545971,0.51002604,-10.58051,-0.0007229135,-0.006516498,-0.06931483,59.526314,156.9064,0.0047884034,1442826,513,-161,265,8854
35235218,4007,0,0.103692085,-0.14084752,-10.499272,-0.0017014965,0.005653614,-0.033733424,59.542934,156.9064,0.0047884034,1442826,120,-34,3018,8860
35336803,4000,0,-0.0066509894,-0.5566619,-11.044167,-0.0039662435,0.0018047728,-0.057247378,59.537395,156.9064,0.0047884034,1442826,-563,379,3214,8858
35440803,3972,0,-0.27192125,0.37428305,-11.16453,-0.0046634544,0.0070136497,-0.048776273,59.534626,156.9064,0.0047884034,1442826,-380,-290,1552,8857
35540828,4025,0,0.00043195,0.8010528,-10.790288,-0.004677184,0.0021650405,-0.057478,59.592796,156.9064,0.0047884034,1442826,-1118,56,1390,8878
35640806,4002,0,0.43499145,1.2601179,-10.548449,0.002300919,-0.012011995,-0.018094623,59.548477,156.9064,0.0047884034,1442826,1439,779,3974,8862
35744803,3994,0,0.56303656,-0.7324037,-11.089618,-0.003427817,-0.004840621,-0.045404196,59.576176,156.9064,0.0047884034,1442826,762,720,2895,8872
35848810,4007,0,-0.12135226,-0.63370746,-10.400307,-0.002344483,0.014860232,-0.016446745,59.576176,156.9064,0.0047884034,1442826,44,1,2610,8872
35948803,3984,0,-0.20877954,0.6125971,-10.442845,-0.0026401933,0.009015773,-0.039787278,59.592796,156.9064,0.0047884034,1442826,231,121,1535,8878
36052803,4000,0,0.59630346,0.6872843,-9.970823,-0.0017131981,-0.009809994,-0.051657315,59.592796,156.9064,0.0047884034,1442826,-731,-23,931,8878
36152820,4017,0,0.15462154,0.52033913,-9.6588125,0.0033794285,0.0027933451,-0.03675411,59.609417,156.9064,0.0047884034,1442826,1244,-166,3052,8884
36252803,4000,0,0.026521405,-0.7577319,-10.498511,-0.001639549,-1.995475e-06,-0.038307827,59.59834,156.9064,0.0047884034,1442826,-610,-363,2329,8880
36356823,4020,0,-0.19366144,-0.19325118,-10.061822,0.0048776567,0.007372385,-0.032815557,59.63435,156.9064,0.0047884034,1442826,1270,-129,890,8893
36456803,3986,0,-0.5320697,0.51829076,-9.364538,0.0036181363,-0.006960689,-0.04249566,59.63989,156.9064,0.0047884034,1442826,-1516,-1199,1694,8895
36558404,4000,0,0.04842943,1.2004257,-9.290701,0.011120976,-0.015028493,-0.05035907,59.67313,156.9064,0.0047884034,1442826,782,-595,2136,8907
36662406,3987,0,-0.34660363,0.12230378,-9.521913,-0.0013672316,0.0062826155,-0.03969458,59.68144,156.9064,0.0047884034,1442826,648,-518,1390,8910
36762404,3962,0,-0.25387695,0.21339372,-9.34066,0.00054234685,0.007974483,-0.043996982,59.67313,156.9064,0.0047884034,1442826,979,-97,1722,8907
36866403,3993,0,-0.5652933,0.32646474,-9.669116,0.0016053133,0.0054987436,-0.05914064,59.664818,156.9064,0.0047884034,1442826,-427,-1047,924,8904
36970412,4009,0,0.3663014,0.15972511,-9.1543045,-0.0028447118,-0.018038291,-0.03088459,59.69806,156.9064,0.0047884034,1442826,-168,752,3827,8916
37070403,3969,0,0.029891886,-0.720128,-9.92122,-0.011058921,0.0044770716,-0.03396954,59.67036,156.9064,0.0047884034,1442826,-290,928,2492,8906
37170432,4026,0,-0.51719767,-0.37686038,-10.120214,-0.0015615624,-5.315966e-05,-0.04983267,59.71468,156.9064,0.0047884034,1442826,-593,-622,1669,8922
37274403,3987,0,0.087172575,0.71177316,-9.624998,-0.0034848668,0.01410393,-0.043076914,59.68698,156.9064,0.0047884034,1442826,-396,544,3265,8912
37374403,3999,0,0.056532256,0.99289083,-10.377494,0.009994672,-0.0037965318,-0.04452942,59.74792,156.9064,0.0047884034,1442826,207,-182,1498,8934
37478404,3997,0,0.09920836,-0.48709044,-10.791723,0.00045725843,-0.00011701661,-0.056141198,59.742382,156.9064,0.0047884034,1442826,674,-862,476,8932
37578404,4001,0,-0.1493768,-0.65781534,-10.371673,-0.0069242204,0.0013902087,-0.0497032,59.76454,156.9064,0.0047884034,1442826,-178,-770,1165,8940
37680003,3995,0,0.23107092,0.006831884,-9.853119,-0.0012989744,0.004793587,-0.04562058,59.772854,156.9064,0.0047884034,1442826,-345,367,921,8943
37780005,3988,0,-0.29748896,0.84659517,-9.524359,-0.018938143,0.007114261,-0.058911208,59.775623,156.9064,0.0047884034,1442826,213,474,1532,8944
37884017,4014,0,0.06871042,0.8319404,-9.810494,0.013588093,-0.0026149582,-0.02465222,59.78393,156.9064,0.0047884034,1442826,487,-173,1952,8947
37984009,4005,0,-0.052484173,-0.22216235,-10.33974,0.0006632375,-0.003556504,-0.04510463,59.808865,156.9064,0.0047884034,1442826,763,-391,162,8956
38088004,3999,0,0.23686533,-0.53260815,-9.557416,-0.0054358128,0.0010067397,-0.034912787,59.80332,156.9064,0.0047884034,1442826,1058,855,1867,8954
38188004,4001,0,-0.0023003048,0.3531973,-9.313034,-0.0043660803,0.003934637,-0.02214282,59.850414,156.9064,0.0047884034,1442826,-600,498,2718,8971
38288004,4001,0,-0.15196119,1.1559597,-9.502674,-0.007682609,0.004865882,-0.04155399,59.853184,156.9064,0.0047884034,1442826,-380,131,2238,8972
38388009,4006,0,0.22723985,0.8726483,-9.102676,0.0018256907,0.008277771,-0.030423906,59.842106,156.9064,0.0047884034,1442826,231,629,4723,8968
38492051,4041,0,-0.058806643,-0.56056356,-10.599352,0.009167745,-0.008908306,-0.056339845,59.905815,156.9064,0.0047884034,1442826,28,-481,504,8991
38596029,4026,0,-0.20457444,-0.32994902,-10.0242,-0.007919147,0.012934936,-0.04612846,59.855953,156.9064,0.0047884034,1442826,91,481,1174,8973
38700004,3984,0,-0.2310701,0.93143994,-9.892179,0.00020344136,0.00454813,-0.05846024,59.875347,156.9064,0.0047884034,1442826,-653,-820,696,8980
38800033,4030,0,-0.018075263,0.7958244,-9.971521,0.016274922,-0.004222947,-0.035489406,59.900276,156.9064,0.0047884034,1442826,-237,-812,3122,8989
38901603,3973,0,0.343711,-0.016991045,-10.288665,0.0010955571,-0.008547309,-0.04715783,59.886425,156.9064,0.0047884034,1442826,103,-28,1533,8984
39001631,4021,0,-0.053974852,-0.8957507,-10.033094,0.0029174273,-0.010927489,-0.035198748,59.916897,156.9064,0.0047884034,1442826,-1076,269,3907,8995
39105610,4007,0,-0.59200794,0.16456701,-9.648602,4.8055314e-05,0.006969881,-0.033501204,59.90859,156.9064,0.0047884034,1442826,-247,-143,4192,8992
39205646,4015,0,-0.26366833,1.0890851,-9.76354,-0.002506485,0.012612118,-0.040710762,59.94737,156.9064,0.0047884034,1442826,745,-160,899,9006
39305603,3999,0,-0.092004076,0.6888049,-9.714928,-0.010101945,0.00053706893,-0.055919684,59.92798,156.9064,0.0047884034,1442826,-61,-612,1500,8999
39409603,4000,0,0.24227153,-0.5619774,-9.956862,0.0101730125,-0.0044892845,-0.017833319,59.914127,156.9064,0.0047884034,1442826,942,85,2279,8994
39509603,3972,0,-0.22387794,-0.714319,-10.546997,-0.0030472078,-0.0007254181,-0.058908116,59.972298,156.9064,0.0047884034,1442826,230,-255,57,9015
39609604,3981,0,-0.20888333,0.06541271,-9.378423,0.007281234,-0.0035023424,-0.037080392,59.97784,156.9064,0.0047884034,1442826,115,-388,2246,9017
39713609,4006,0,0.6535389,0.6316481,-9.054097,-0.0022059465,-0.005509008,-0.05509348,59.994457,156.9064,0.0047884034,1442826,151,826,963,9023
39817603,3982,0,0.17752133,-0.4034134,-9.452621,-0.008472342,-0.009243487,-0.047138616,60.0277,156.9064,0.0047884034,1442826,-670,-62,2603,9035
39917610,4007,0,0.4059269,-0.7743875,-9.388443,0.0012151086,-0.0060045077,-0.019266058,60.01385,156.9064,0.0047884034,1442826,-1451,306,2196,9030
40023260,4056,0,-0.25045884,0.6916007,-9.400456,-0.006619153,0.014907611,-0.040291175,60.03324,156.9064,0.0047884034,1442826,448,353,3374,9037
40123215,4005,0,0.31552866,1.1836638,-10.06418,-0.0016134605,0.011534097,-0.03781875,60.0554,156.9064,0.0047884034,1442826,290,-206,-143,9045
40223203,4000,0,0.5347626,0.4339491,-9.684789,-0.006663361,-0.0021298483,-0.051113278,60.047092,156.9064,0.0047884034,1442826,-222,628,3183,9042
40327204,4001,0,0.39840385,-0.5577674,-9.966616,0.008696745,-0.00034808082,-0.019863287,60.049862,156.9064,0.0047884034,1442826,558,331,3617,9043
40427204,4000,0,-0.09286374,-0.59312207,-10.290792,-0.0044249604,0.00015740702,-0.06556235,60.06094,156.9064,0.0047884034,1442826,-884,-581,95,9047
40527267,4064,0,-0.8657387,0.25347155,-9.831629,0.0038822219,-0.0036249876,-0.031643823,60.04432,156.9064,0.0047884034,1442826,-488,-787,2705,9041
40631220,4017,0,0.26311117,1.1548734,-9.554534,0.005838524,-0.0017184843,-0.033368114,60.03047,156.9064,0.0047884034,1442826,427,248,3817,9036
40731203,4000,0,0.28260893,0.47592404,-9.451711,0.014524738,-0.007639656,-0.030156735,60.083103,156.9064,0.0047884034,1442826,680,445,3062,9055
40831203,3993,0,0.27589005,-0.43981224,-10.150129,0.0003824029,-0.00908383,-0.059493944,60.099724,156.9064,0.0047884034,1442826,146,213,258,9061
40935203,3978,0,0.053686842,-0.21092592,-9.688689,-0.004328087,0.017401902,-0.029147314,60.108032,156.9064,0.0047884034,1442826,561,462,1403,9064
41035203,3973,0,-0.4287297,-0.012786195,-9.515403,-0.013093744,0.0072506117,-0.038575523,60.135735,156.9064,0.0047884034,1442826,-1022,-360,801,9074
41136803,3985,0,-0.026923794,1.148838,-9.516249,0.004536468,0.012488988,-0.03936871,60.135735,156.9064,0.0047884034,1442826,-397,-132,2688,9074
41240819,3966,0,0.08332843,0.2747426,-10.533851,0.0089115305,-0.0059266877,-0.04594049,60.146812,156.9064,0.0047884034,1442826,1144,90,2413,9078
41340804,3956,0,0.16777317,-0.7853504,-9.85312,0.0025936717,-0.011012452,-0.026818823,60.174515,156.9064,0.0047884034,1442826,385,351,3546,9088
41444804,4000,0,0.012483029,-0.018242173,-9.403586,-0.00016963272,0.013102276,-0.04020642,60.144043,156.9064,0.0047884034,1442826,-927,863,3087,9077
41544803,4000,0,-0.30923438,1.1197242,-9.462369,-0.012874248,0.010956403,-0.04625799,60.171745,156.9064,0.0047884034,1442826,273,66,1305,9087
41644803,3999,0,-0.0064009484,0.999462,-9.827517,-0.0038179455,-0.0041087177,-0.026103882,60.180054,156.9064,0.0047884034,1442826,-1247,152,2381,9090
41748805,4000,0,-0.09098704,-0.26001915,-10.031603,0.0007317157,-0.010724158,-0.040362436,60.188366,156.9064,0.0047884034,1442826,-376,-650,3185,9093
41848817,4014,0,-0.29583395,-0.68820435,-10.207699,-0.0051578525,0.008523386,-0.06541724,60.199444,156.9064,0.0047884034,1442826,97,-622,1080,9097
41948811,4000,0,-0.19342089,0.06309596,-9.645603,-0.0021364714,0.011234796,-0.03441371,60.177284,156.9064,0.0047884034,1442826,517,68,2561,9089
42052806,3991,0,0.1829907,1.5977705,-9.499521,0.0069427295,0.011620969,-0.037663702,60.213295,156.9064,0.0047884034,1442826,1767,-84,854,9102
42152851,4028,0,-0.29043537,1.1508344,-10.042458,0.009932391,-0.005010858,-0.036280937,60.210526,156.9064,0.0047884034,1442826,279,-616,2339,9101
42254409,4000,0,0.06485286,0.22052361,-10.167087,0.012927931,-0.004785332,-0.04809735,60.240997,156.9064,0.0047884034,1442826,803,-248,1838,9112
42354403,4000,0,-0.08103355,-0.5222952,-10.144812,-0.004593324,-0.008028617,-0.05307561,60.25485,156.9064,0.0047884034,1442826,976,-165,718,9117
42458430,4027,0,-0.14897312,0.0014168187,-9.485297,0.0026170267,-0.00023090979,-0.026089676,60.260387,156.9064,0.0047884034,1442826,1171,138,1114,9119
42558405,4002,0,-0.18768844,0.63381493,-9.81292,0.01053309,0.005379201,-0.039696384,60.246536,156.9064,0.0047884034,1442826,-1195,-268,2831,9114
42658403,3992,0,-0.3935644,1.5669017,-9.685014,-0.0021568702,0.016261695,-0.05347866,60.260387,156.9064,0.0047884034,1442826,620,-433,2704,9119
42762403,4000,0,0.5645379,0.34563723,-10.265464,0.014283597,-0.008289588,-0.046949606,60.304707,156.9064,0.0047884034,1442826,450,-34,1615,9135
42862456,4053,0,-0.16575179,-0.4862697,-10.12248,-0.0019484229,-0.012645382,-0.052624013,60.301937,156.9064,0.0047884034,1442826,486,-585,1053,9134
42962418,4015,0,-0.01709735,-0.67621624,-10.18799,-0.004603463,0.001644991,-0.04899216,60.301937,156.9064,0.0047884034,1442826,-481,-322,651,9134
43066403,4000,0,-0.50879526,0.59321064,-9.939449,0.0022340151,0.007779504,-0.043873716,60.29363,156.9064,0.0047884034,1442826,-886,-727,243,9131
43166403,4000,0,-0.41113505,1.406717,-9.699331,-0.005445851,0.011128297,-0.04619314,60.301937,156.9064,0.0047884034,1442826,165,-884,1100,9134
43270411,4004,0,0.20932567,0.7304944,-10.816294,0.0010594957,-0.0058689527,-0.05761645,60.318558,156.9064,0.0047884034,1442826,458,-746,-563,9140
43372004,4001,0,0.2122964,-0.53347856,-10.199105,0.0015923148,-0.0006810217,-0.039701514,60.318558,156.9064,0.0047884034,1442826,1679,535,1937,9140
43476003,4000,0,0.06630488,0.0016813203,-9.726501,0.006478773,0.004978836,-0.01399266,60.373962,156.9064,0.0047884034,1442826,-231,317,2212,9160
43576014,3993,0,0.1105317,1.0890441,-9.858014,0.0010277932,0.011612002,-0.048003092,60.35734,156.9064,0.0047884034,1442826,1223,603,1763,9154
43680003,4000,0,0.42817318,0.45360464,-10.053876,-0.0078115626,-0.01180356,-0.03633435,60.3795,156.9064,0.0047884034,1442826,-297,-16,-593,9162
43780044,4041,0,0.3215611,-0.059950117,-10.643794,0.00016354199,-0.0059225373,-0.038479764,60.39058,156.9064,0.0047884034,1442826,-220,-147,-1002,9166
43880003,4000,0,0.06668525,-0.71805495,-10.115571,-0.0004402895,0.0013075955,-0.04001583,60.37673,156.9064,0.0047884034,1442826,-521,335,1927,9161
43984006,4003,0,-0.38018614,0.29242095,-9.543315,-0.012039042,0.0075644646,-0.053249978,60.37673,156.9064,0.0047884034,1442826,422,320,1141,9161
44084010,3985,0,0.03864701,0.9859763,-9.759709,0.0010693702,-0.0004076017,-0.035193153,60.4072,156.9064,0.0047884034,1442826,-162,806,3853,9172
44184004,4001,0,-0.23500271,1.1743549,-9.751484,0.008860128,0.002695573,-0.0341788,60.448753,156.9064,0.0047884034,1442826,1572,-60,2012,9187
44288003,3992,0,0.33785033,-0.5936666,-10.1969385,0.009379214,-0.008242252,-0.02425111,60.42105,156.9064,0.0047884034,1442826,-52,148,2563,9177
44388003,4000,0,0.15790093,-0.6583481,-10.023827,-0.00017296558,-0.0001165939,-0.04091796,60.443214,156.9064,0.0047884034,1442826,567,-76,1371,9185
44489603,4000,0,0.024224056,0.16162719,-9.721752,0.0071500903,0.011505199,-0.024661614,60.451523,156.9064,0.0047884034,1442826,42,-287,348,9188
44593620,4017,0,0.08136439,1.0788187,-9.783176,-0.0028050528,-0.014723436,-0.03845542,60.426594,156.9064,0.0047884034,1442826,-609,90,3013,9179
44693632,4029,0,0.38668007,0.49198967,-9.886339,0.012440739,0.00095604337,-0.036255553,60.44044,156.9064,0.0047884034,1442826,1510,394,3251,9184
44797637,4024,0,0.092158295,-1.0472534,-10.269538,-0.0018082104,-0.00044631946,-0.029215308,60.454292,156.9064,0.0047884034,1442826,313,-166,-45,9189
44901632,4029,0,-0.43362918,-0.09407138,-9.617394,0.0012707155,0.009885263,-0.02993549,60.487534,156.9064,0.0047884034,1442826,-959,-175,1371,9201
45001603,3999,0,-0.12168404,0.5527267,-9.447242,-0.010705518,-0.0013328088,-0.06013655,60.493073,156.9064,0.0047884034,1442826,-1355,318,586,9203
45105603,3999,0,-0.06820631,0.57662266,-9.705888,-0.0109906765,-0.0022297031,-0.047645457,60.490303,156.9064,0.0047884034,1442826,688,224,2343,9202
45205610,4007,0,0.32655114,-0.2632684,-10.203879,-0.0010923897,-0.0032617217,-0.066667005,60.526314,156.9064,0.0047884034,1442826,-212,-29,54,9215
45305623,3985,0,0.3689963,-0.5689984,-9.698956,0.0058056233,-0.005951046,-0.042173136,60.515236,156.9064,0.0047884034,1442826,-560,65,3092,9211
45405628,4025,0,-0.44375497,0.19287859,-10.118279,-0.0023677847,0.004221879,-0.061243974,60.512466,156.9064,0.0047884034,1442826,-445,-848,-727,9210
45509629,4026,0,-0.2853403,1.1091931,-10.234184,0.0062081497,-0.003793993,-0.047671232,60.534626,156.9064,0.0047884034,1442826,-268,-1029,-1268,9218
45614427,4016,0,0.24345005,-0.24070813,-9.752083,0.010668434,-0.0016334152,-0.029501423,60.534626,156.9064,0.0047884034,1442826,-141,-113,3347,9218
45715203,4000,0,0.023057772,-0.56901777,-10.18404,-0.005463562,0.0033062233,-0.047376018,60.523544,156.9064,0.0047884034,1442826,813,-524,287,9214
45815203,4000,0,0.076459646,-0.3037479,-9.675594,-0.0006473663,-0.0014594884,-0.044431977,60.578945,156.9064,0.0047884034,1442826,-549,286,2866,9234
45919203,4000,0,0.13173616,0.99128264,-9.595729,0.010206452,-0.0014709827,-0.021736307,60.565098,156.9064,0.0047884034,1442826,39,10,3781,9229
46023205,3995,0,0.7066723,0.31195635,-10.730368,0.013389208,-0.008932532,-0.053977273,60.612186,156.9064,0.0047884034,1442826,198,-347,444,9246
46123203,3977,0,-0.09102891,-0.75936365,-10.334058,-0.010413796,0.003637289,-0.041202534,60.603878,156.9064,0.0047884034,1442826,987,-167,1623,9243
46227251,4048,0,0.033669695,-0.24769242,-9.907638,-0.010499123,0.015514523,-0.06257277,60.58172,156.9064,0.0047884034,1442826,173,247,-371,9235
46327210,3940,0,-0.3698193,0.71902084,-10.101752,0.011676973,-0.0006331217,-0.030560791,60.648197,156.9064,0.0047884034,1442826,-886,-688,805,9259
46431204,3954,0,0.0134375915,0.8808102,-9.695281,0.007834883,-0.005288403,-0.038282562,60.628807,156.9064,0.0047884034,1442826,-210,-699,3554,9252
46531211,3990,0,0.8730668,0.076156035,-9.773718,-0.002497791,-0.0092008505,-0.028506659,60.6205,156.9064,0.0047884034,1442826,409,1741,4756,9249
46631206,4003,0,0.0785485,-0.48789805,-10.326118,0.0015136425,0.0031404346,-0.03914947,60.67867,156.9064,0.0047884034,1442826,927,-56,1090,9270
46732803,3989,0,0.04852483,-0.76292896,-9.446063,-0.0058371,0.009514582,-0.025823373,60.65928,156.9064,0.0047884034,1442826,228,766,2418,9263
46836803,3977,0,0.010019654,1.2892201,-9.772122,0.0004968932,-0.0013246507,-0.032924496,60.65374,156.9064,0.0047884034,1442826,-300,-583,-67,9261
46940803,4000,0,0.5298894,0.890408,-10.497495,0.011374163,0.002911473,-0.037084416,60.68144,156.9064,0.0047884034,1442826,1034,-278,999,9271
47040803,4000,0,0.3206294,-0.17308585,-9.950081,-0.014217866,-0.0030523464,-0.053243775,60.71191,156.9064,0.0047884034,1442826,301,229,1310,9282
47144810,4007,0,0.34638068,-0.6430783,-9.8063135,0.004582934,0.0006609652,-0.02740829,60.70637,156.9064,0.0047884034,1442826,-1083,735,2958,9280
47244803,4000,0,-0.6613889,0.16407719,-9.785175,-0.005677759,0.0074663805,-0.062017716,60.73407,156.9064,0.0047884034,1442826,-724,-827,1200,9290
47344808,3997,0,0.17466213,0.9984312,-9.166783,-0.0042302413,-0.004690414,-0.04409975,60.69806,156.9064,0.0047884034,1442826,-1586,797,4224,9277
47448835,4020,0,0.76320547,-0.00045674006,-10.010303,0.009432831,-0.007617742,-0.026351664,60.67036,156.9064,0.0047884034,1442826,220,280,2596,9267
47556803,3997,0,0.004790089,-0.48354673,-9.932309,0.0008242803,-0.004285536,-0.034610573,60.73407,156.9064,0.0047884034,1442826,-1061,707,1893,9290
48470404,3989,0,-0.05518331,-1.1313354,-9.5017395,0.002822768,-0.0048303525,-0.015347358,60.806095,156.9064,0.0047884034,1442826,-500,314,3328,9316
48574419,4016,0,-0.1519921,0.71425337,-9.190495,-0.0058299717,0.0015855086,-0.042254027,60.814404,156.9064,0.0047884034,1442826,-22,265,2607,9319
48674418,3975,0,0.24743085,1.5247211,-9.706961,0.011259813,0.0018669134,-0.033333488,60.817173,156.9064,0.0047884034,1442826,69,-58,2249,9320
48774403,3976,0,0.17841026,1.2974628,-10.339555,0.01393548,-0.0008059812,-0.05087939,60.861496,156.9064,0.0047884034,1442826,570,-530,2388,9336
48876010,3991,0,-0.3463476,0.11642158,-10.452945,0.0017185854,-0.007029564,-0.038467813,60.844875,156.9064,0.0047884034,1442826,-369,-569,2015,9330
48976005,4001,0,0.15221453,-0.68353796,-10.035975,-0.008270614,-0.0012097845,-0.040268358,60.869804,156.9064,0.0047884034,1442826,544,623,1588,9339
49080043,4040,0,-0.30400094,-0.32489383,-9.942305,-0.006247726,0.010258121,-0.050691966,60.867035,156.9064,0.0047884034,1442826,-151,-768,-1084,9338
49180003,3956,0,0.24249807,0.5067776,-9.118573,-0.006984043,-0.0077990703,-0.0337708,60.867035,156.9064,0.0047884034,1442826,-327,299,1699,9338
49280063,4026,0,0.14971228,1.0899352,-9.905958,0.007869312,0.0014440314,-0.034736086,60.861496,156.9064,0.0047884034,1442826,-119,303,680,9336
49384049,4021,0,0.34002706,-0.009937834,-10.077858,-0.002816508,-0.0106638,-0.047392692,60.936287,156.9064,0.0047884034,1442826,-579,-167,-74,9363
49484011,4008,0,0.10695677,-0.59798276,-9.797675,0.0073225475,-0.0079273805,-0.035449248,60.886425,156.9064,0.0047884034,1442826,129,-57,2744,9345
49588013,4010,0,0.044925045,0.21251662,-10.027122,0.00841031,0.009458854,-0.052124023,60.930748,156.9064,0.0047884034,1442826,495,-215,-686,9361
49688003,3992,0,-0.3155753,0.55641395,-9.661224,0.006928866,0.011256669,-0.04651975,60.930748,156.9064,0.0047884034,1442826,-167,-584,3004,9361
49788004,3986,0,0.124327935,1.1946123,-9.435569,-0.00067897374,0.011892335,-0.044780694,60.922436,156.9064,0.0047884034,1442826,858,33,2268,9358
49892022,3999,0,-0.31962055,-0.10805423,-10.065268,-0.0015095694,-0.0020278243,-0.051589496,60.950138,156.9064,0.0047884034,1442826,-58,-871,1740,9368
49993603,4000,0,0.08248617,-0.46496704,-9.885554,-0.0125658475,-0.0017886751,-0.059271105,60.94737,156.9064,0.0047884034,1442826,125,-894,659,9367
50093603,3984,0,0.379618,-0.21476743,-9.73989,-0.002579937,0.010600704,-0.047067583,60.958447,156.9064,0.0047884034,1442826,-328,153,1350,9371
50193604,4001,0,0.3790793,0.5543382,-9.1425705,0.0031434388,-0.00071792305,-0.041598238,60.96953,156.9064,0.0047884034,1442826,-1041,523,2918,9375
50297603,3947,0,0.40592867,0.7300393,-9.534228,-0.007273973,-0.008175257,-0.044490892,60.958447,156.9064,0.0047884034,1442826,1335,864,2137,9371
50397615,4012,0,0.4971049,0.010370544,-10.160905,0.008678552,-0.010633246,-0.04613933,60.97784,156.9064,0.0047884034,1442826,164,325,1624,9378
50501603,4000,0,-0.26513168,-0.8869196,-10.073536,-0.0027393086,0.0023190067,-0.041075107,60.991688,156.9064,0.0047884034,1442826,-691,217,961,9383
50605603,3993,0,-0.68293756,0.7433874,-9.398982,-0.00705126,0.0134748025,-0.03854722,60.972298,156.9064,0.0047884034,1442826,617,-749,1605,9376
50705603,3994,0,0.14933774,1.0033838,-9.300159,-0.001240019,0.0047497014,-0.021573968,61.03047,156.9064,0.0047884034,1442826,131,547,2969,9397
50809620,4017,0,0.19887567,-0.40325612,-9.79975,-0.0042461245,0.001631511,-0.036083836,61.01939,156.9064,0.0047884034,1442826,54,-98,1382,9393
50909680,4077,0,0.33717036,-0.75362325,-9.740691,-0.0053961817,-0.0023521024,-0.035242945,61.063713,156.9064,0.0047884034,1442826,-571,778,1757,9409
51009603,3999,0,-0.0028016067,-0.34131414,-9.855472,0.0026558056,0.0016793965,-0.023293678,61.03878,156.9064,0.0047884034,1442826,-271,507,2924,9400
51115205,3972,0,-0.09398311,1.128819,-9.784577,-0.011968764,0.013547153,-0.046197858,61.049862,156.9064,0.0047884034,1442826,-81,-244,-324,9404
51215221,4018,0,0.609404,0.6455511,-10.000963,-0.0028884,0.0028995066,-0.034255728,61.08033,156.9064,0.0047884034,1442826,-978,573,2559,9415
51319203,4000,0,-0.049920466,-0.4408775,-10.1044,-0.004731326,0.006553679,-0.0408168,61.066483,156.9064,0.0047884034,1442826,1039,-685,1172,9410
51423232,4020,0,-0.13003652,-0.07467829,-9.513912,0.010182018,0.004456488,-0.022263378,61.088642,156.9064,0.0047884034,1442826,108,-95,3811,9418
51523220,4017,0,-0.14331493,1.0759381,-9.41545,0.00937781,0.012055378,-0.032151606,61.08033,156.9064,0.0047884034,1442826,490,-459,656,9415
51623203,4000,0,-0.39124945,1.5115075,-9.528295,0.006228027,0.0063728816,-0.033155624,61.088642,156.9064,0.0047884034,1442826,145,-754,3068,9418
51727204,4001,0,0.45168868,0.23976655,-9.796183,0.008921022,-0.00199027,-0.039339446,61.141273,156.9064,0.0047884034,1442826,532,-63,2504,9437
51831204,4001,0,0.27130595,-0.931347,-9.471076,-0.00485147,-0.005765916,-0.047156822,61.102493,156.9064,0.0047884034,1442826,338,767,1842,9423
51931204,3964,0,0.09948635,-0.12912442,-9.502429,0.0056694876,-0.002064442,-0.030895343,61.132965,156.9064,0.0047884034,1442826,-296,366,1868,9434
52035231,4027,0,-0.3191277,1.0386236,-9.64593,-0.0075556063,0.0007331204,-0.048001193,61.141273,156.9064,0.0047884034,1442826,-529,368,2746,9437
52136804,4001,0,0.23748536,0.38275054,-9.724728,-0.014638013,-0.012915829,-0.066032246,61.157894,156.9064,0.0047884034,1442826,-641,505,2393,9443
52236871,4068,0,0.23020877,-0.3268137,-10.094864,-0.0038824033,-0.017264696,-0.050127834,61.144043,156.9064,0.0047884034,1442826,-636,183,2481,9438
52336804,4001,0,0.33578748,-0.79066527,-9.351724,-0.004033661,-0.01598583,-0.0365607,61.135735,156.9064,0.0047884034,1442826,233,750,4091,9435
52436803,4000,0,-0.11850324,-0.80703473,-9.766559,0.0017998121,-0.0026769368,-0.034506306,61.166203,156.9064,0.0047884034,1442826,567,-29,2048,9446
52540844,4034,0,-0.21567935,0.8909731,-9.650791,-0.01266002,0.006226663,-0.065994546,61.182823,156.9064,0.0047884034,1442826,-427,140,1516,9452
52640820,4017,0,0.089161694,1.0005877,-9.711824,-0.005855372,0.0069899783,-0.05650283,61.218838,156.9064,0.0047884034,1442826,-31,422,2156,9465
52744816,3972,0,0.12223515,-0.30947527,-10.322071,0.0044094813,-0.0074273217,-0.05373542,61.193905,156.9064,0.0047884034,1442826,-402,-14,1514,9456
52844845,4029,0,-0.07583343,-0.29262182,-9.909696,0.0033305811,0.0013421203,-0.053518645,61.199444,156.9064,0.0047884034,1442826,986,5,2141,9458
52952819,3981,0,-0.6234479,0.84686065,-9.934988,-0.0043551307,0.0068848683,-0.04691817,61.232685,156.9064,0.0047884034,1442826,-266,-930,812,9470
53052813,4010,0,-0.20412046,0.62423146,-10.221213,0.0069930535,0.00031398237,-0.05197739,61.204987,156.9064,0.0047884034,1442826,749,-626,3140,9460
53157609,4789,0,0.47032264,-0.9553404,-10.069824,-0.008292639,-0.013647678,-0.054030597,61.252075,156.9064,0.0047884034,1442826,-800,-32,299,9477
53258403,4000,0,-0.39274138,-0.20495655,-9.711412,-0.008133385,0.017188285,-0.0400386,61.246536,156.9064,0.0047884034,1442826,143,-231,1431,9475
53358403,3993,0,-0.29930794,0.4199167,-9.440146,-0.0048385295,0.0055901213,-0.049641512,61.279778,156.9064,0.0047884034,1442826,19,-480,4222,9487
53462417,4014,0,0.3342875,0.9352498,-9.389453,0.007992657,-0.0034674888,-0.040555608,61.263157,156.9064,0.0047884034,1442826,1616,17,1503,9481
53562419,4010,0,0.42543587,-0.21001862,-9.846262,0.0007510558,-0.013182594,-0.049742922,61.277008,156.9064,0.0047884034,1442826,-389,542,2463,9486
53662403,3992,0,0.24377735,-0.7375338,-9.480229,0.0003904777,0.0024420691,-0.025625264,61.29086,156.9064,0.0047884034,1442826,-49,525,3407,9491
53766404,4001,0,-0.12063743,0.18945599,-8.995443,0.0011272926,0.013143621,-0.02304475,61.277008,156.9064,0.0047884034,1442826,165,234,3807,9486
53866430,4027,0,0.1026942,0.8464853,-9.375569,-0.009734697,0.0038189334,-0.04993644,61.265926,156.9064,0.0047884034,1442826,-524,141,1223,9482
53966411,4008,0,0.054469846,0.8182475,-9.4780445,-0.0053004,0.005480165,-0.029616475,61.321327,156.9064,0.0047884034,1442826,238,302,4100,9502
54070403,4000,0,0.5054922,-0.60490984,-9.706016,-0.0024031326,-0.006831551,-0.04723778,61.33518,156.9064,0.0047884034,1442826,277,25,2203,9507
54170403,4000,0,-0.056033425,-0.68816864,-9.470558,-0.00082448195,0.003739671,-0.031754013,61.34626,156.9064,0.0047884034,1442826,-34,66,4485,9511
54276009,3995,0,0.43901882,0.50452954,-9.329287,-0.00215778,-0.0131898485,-0.04826198,61.33241,156.9064,0.0047884034,1442826,-644,180,2571,9506
54376039,4036,0,0.34911618,1.2471592,-10.035215,0.00637382,0.00025055325,-0.039678037,61.34349,156.9064,0.0047884034,1442826,1210,-80,2118,9510
54476010,4007,0,0.9766734,0.6340902,-9.76684,0.007507645,-0.0030894945,-0.031665236,61.34903,156.9064,0.0047884034,1442826,736,393,3369,9512
54580003,3999,0,0.04573743,-0.61431235,-10.437559,-0.006683748,-0.0018496006,-0.051909532,61.37673,156.9064,0.0047884034,1442826,-360,-235,-228,9522
54680003,3967,0,0.1500379,-0.7581586,-9.654933,-0.0017614247,0.009704972,-0.017703816,61.393353,156.9064,0.0047884034,1442826,306,891,4428,9528
54780058,3996,0,-0.09377328,-0.047232553,-9.8078375,-0.00936397,0.0052427594,-0.053997666,61.36288,156.9064,0.0047884034,1442826,-1323,-278,489,9517
54880004,4001,0,-0.13343342,1.0219051,-9.557748,-0.0038480156,0.013591855,-0.044671148,61.40166,156.9064,0.0047884034,1442826,1315,19,2710,9531
54984035,4031,0,0.35931528,0.6382603,-9.820475,0.005087522,-0.010715704,-0.036311515,61.415512,156.9064,0.0047884034,1442826,654,285,2456,9536
55084004,4000,0,0.3092227,-0.11991099,-10.410571,0.003308823,-0.002194764,-0.040054057,61.432133,156.9064,0.0047884034,1442826,1117,142,2339,9542
55188003,3975,0,0.048181366,-0.38446343,-9.538122,0.0003315364,0.0084410105,-0.01591624,61.42105,156.9064,0.0047884034,1442826,575,652,4063,9538
55288850,3999,0,-0.26493964,0.38192433,-9.749986,-0.008367028,0.00041374413,-0.042080194,61.40166,156.9064,0.0047884034,1442826,11,-293,874,9531
55389632,4014,0,-0.35536844,1.0322897,-9.965729,0.002469801,0.009809618,-0.044517335,61.429363,156.9064,0.0047884034,1442826,46,-861,1227,9541
55489610,3977,0,-0.09619342,0.3948835,-10.241602,0.007938018,0.0006901269,-0.06254316,61.42382,156.9064,0.0047884034,1442826,-292,-709,1561,9539
55593603,4000,0,0.313272,-0.6477951,-10.145043,4.414853e-05,-0.0031590646,-0.031564407,61.434902,156.9064,0.0047884034,1442826,540,-302,1214,9543
55693603,4000,0,0.06403814,-0.3636557,-10.388236,0.004442365,-0.0011337672,-0.057837248,61.493073,156.9064,0.0047884034,1442826,216,-66,1177,9564
55797603,3997,0,-0.023539795,0.9304783,-9.571983,-0.012896672,-0.0029955313,-0.037792638,61.432133,156.9064,0.0047884034,1442826,-1043,148,1959,9542
55901603,4000,0,0.19752191,0.9036073,-10.136063,0.009948301,-0.00097110413,-0.036516435,61.490303,156.9064,0.0047884034,1442826,30,-425,1510,9563
56001610,4007,0,0.22336279,-0.121756874,-10.133068,-0.0010681123,-0.0085322745,-0.0431033,61.45983,156.9064,0.0047884034,1442826,-88,-53,2587,9552
56101604,4001,0,0.06882009,-0.41826665,-10.06741,-0.007841002,0.0009518641,-0.06560931,61.490303,156.9064,0.0047884034,1442826,192,-490,810,9563
56205603,3944,0,0.29941028,0.70444226,-9.511141,0.009074574,0.007990423,-0.032278284,61.495846,156.9064,0.0047884034,1442826,400,149,2496,9565
56305603,3966,0,-0.002819492,0.6131531,-9.450623,0.0032356307,0.0013384083,-0.049135063,61.515236,156.9064,0.0047884034,1442826,-450,-314,1421,9572
56407203,3955,0,0.10639485,0.76958334,-10.07861,0.010236824,-0.007856665,-0.042987473,61.498615,156.9064,0.0047884034,1442826,425,-639,371,9566
56507220,4008,0,0.21973525,0.10422873,-9.848004,-0.0008439674,-0.008144584,-0.050376255,61.537395,156.9064,0.0047884034,1442826,725,90,2313,9580
56611238,4035,0,0.3325561,-0.59440035,-9.806823,0.0072044837,-0.0004898076,-0.01628819,61.520775,156.9064,0.0047884034,1442826,550,20,600,9574
56711215,3996,0,0.017533213,0.22007284,-9.835557,0.006163174,0.011044885,-0.03287625,61.562325,156.9064,0.0047884034,1442826,56,429,2457,9589
56815203,4000,0,0.3620263,0.9983491,-9.59041,-0.0032125711,-0.0038789976,-0.053973045,61.537395,156.9064,0.0047884034,1442826,423,402,292,9580
56919203,4000,0,0.55116016,-0.42162812,-9.7798195,-0.008741725,-0.0034522265,-0.035592843,61.548477,156.9064,0.0047884034,1442826,-208,341,3156,9584
57019203,3986,0,0.35378942,-0.881518,-10.269229,-0.0056266314,0.00028016674,-0.04449387,61.548477,156.9064,0.0047884034,1442826,-687,247,209,9584
57123210,4007,0,-0.41167253,0.13560113,-9.460802,-0.0059312144,0.012096458,-0.04430357,61.531857,156.9064,0.0047884034,1442826,-270,-300,1593,9578
57227236,4015,0,-0.23234852,1.7240467,-9.858707,-0.0021744743,0.012943031,-0.04730831,61.590027,156.9064,0.0047884034,1442826,996,-790,2790,9599
57327230,4027,0,-0.07996208,0.83281386,-9.68922,-0.010778917,0.0016229964,-0.058791667,61.584488,156.9064,0.0047884034,1442826,12,366,2341,9597
57432804,3994,0,0.38343057,-0.77140576,-9.690758,-0.01217957,-0.005063621,-0.040049415,61.590027,156.9064,0.0047884034,1442826,-250,577,2826,9599
57532838,4007,0,0.20533691,-0.5368739,-9.338615,0.001695604,0.0049978825,-0.0438506,61.60111,156.9064,0.0047884034,1442826,-646,584,3308,9603
57632832,4028,0,-0.10833846,0.49444076,-9.256937,0.007598779,0.011102863,-0.027684089,61.603878,156.9064,0.0047884034,1442826,95,-354,1403,9604
57736804,3994,0,-0.29753223,1.16169,-9.79283,-0.00282229,0.003861851,-0.0668853,61.63712,156.9064,0.0047884034,1442826,-163,-1170,174,9616
57840804,4001,0,0.051057998,0.19988516,-10.361896,0.0065273633,-0.010451354,-0.057627484,61.645428,156.9064,0.0047884034,1442826,342,-521,2218,9619
57940804,4000,0,0.106583364,-0.5299348,-10.008728,-0.013063516,-0.006086883,-0.053103544,61.65928,156.9064,0.0047884034,1442826,21,-545,1418,9624
58044804,4001,0,-0.7462758,-0.16433425,-9.96708,-0.007013563,0.0047822576,-0.041089278,61.65374,156.9064,0.0047884034,1442826,-1232,-534,2122,9622
58144804,4000,0,-0.29905325,0.60773265,-9.5332775,-0.005160907,0.01258822,-0.03176505,61.63989,156.9064,0.0047884034,1442826,439,-60,2403,9617
58244809,4005,0,0.23127931,1.3348678,-9.910879,-0.0032699853,0.0063968115,-0.045687586,61.65928,156.9064,0.0047884034,1442826,-280,283,846,9624
58348804,4000,0,0.47193134,0.08199205,-10.128798,-0.003970975,0.0005353587,-0.0429733,61.65651,156.9064,0.0047884034,1442826,516,369,3409,9623
58446411,3988,0,0.5584485,0.059434116,-9.750886,0.005733555,-0.0151266325,-0.017096957,61.68698,156.9064,0.0047884034,1442826,535,319,4531,9634
58550410,4007,0,0.17318663,-1.1662767,-9.938565,-0.009700444,0.0010425044,-0.056158848,61.6759,156.9064,0.0047884034,1442826,-146,960,3290,9630
58650426,4023,0,0.06933333,-0.60385954,-9.84546,-0.004107373,-0.0011349597,-0.037677094,61.71191,156.9064,0.0047884034,1442826,-817,34,941,9643
58754411,3997,0,-0.22961782,1.2630116,-9.689631,-0.0041487445,0.006040644,-0.043995023,61.722992,156.9064,0.0047884034,1442826,-553,556,1766,9647
58854403,4000,0,0.3215379,0.78117114,-9.69549,0.00018138037,-0.012864064,-0.03446009,61.70637,156.9064,0.0047884034,1442826,-540,119,2094,9641
58954403,3992,0,0.36537716,0.16247453,-10.392389,0.013211359,-0.0073240316,-0.04289994,61.7036,156.9064,0.0047884034,1442826,299,-279,947,9640
59058403,4000,0,0.1702515,-0.88628995,-9.985751,-0.0037963127,0.0016389389,-0.02272276,61.74515,156.9064,0.0047884034,1442826,-42,-9,1051,9655
59162404,3986,0,-0.14349586,0.4720876,-9.145719,-0.0028216057,0.0126792155,-0.026908465,61.74515,156.9064,0.0047884034,1442826,-170,728,4779,9655
59262431,4020,0,0.50549006,0.92195034,-9.32711,0.00013193248,0.0028544755,-0.037575815,61.74792,156.9064,0.0047884034,1442826,-644,179,2730,9656
59366403,4000,0,0.61289597,0.055687886,-9.813738,-0.006239445,-0.0018640498,-0.04714419,61.778393,156.9064,0.0047884034,1442826,-310,612,2904,9667
59468003,4001,0,0.1324711,-1.0637634,-9.978159,-0.0062179435,-0.015286396,-0.047228877,61.775623,156.9064,0.0047884034,1442826,-529,539,2778,9666
59568003,3994,0,0.45150223,-1.0214087,-10.2312,0.004331898,-0.006590464,-0.032911126,61.772854,156.9064,0.0047884034,1442826,172,-132,582,9665
59668004,4001,0,-0.036382258,-0.22901179,-9.826339,0.008159494,0.005360129,-0.03976783,61.75069,156.9064,0.0047884034,1442826,678,65,2417,9657
59772003,4000,0,0.46271673,0.9413969,-9.592903,0.0006686493,-0.0012647498,-0.040648304,61.792244,156.9064,0.0047884034,1442826,-198,313,867,9672
59872003,4000,0,0.3073354,1.0065886,-10.282702,0.014026448,-0.00055499567,-0.0317363,61.806095,156.9064,0.0047884034,1442826,782,1,377,9677
59976004,4001,0,0.54984456,-0.68564206,-10.160562,0.004465917,-0.005478288,-0.022087991,61.808865,156.9064,0.0047884034,1442826,-61,465,1665,9678
60080003,3998,0,-0.18255773,-0.28787255,-9.469959,-0.0032889845,0.0069614574,-0.039133098,61.806095,156.9064,0.0047884034,1442826,-374,-235,1752,9677
60180003,4000,0,0.3397502,0.63809216,-9.243807,-0.0026578666,0.00858714,-0.02270895,61.795013,156.9064,0.0047884034,1442826,220,838,3128,9673
60284018,4015,0,0.019675653,0.7672848,-9.362544,-0.0014593734,0.0012150973,-0.03447476,61.828255,156.9064,0.0047884034,1442826,-218,-509,2970,9685
60384036,4033,0,0.18184972,-0.3098137,-9.659866,-0.011086726,3.178604e-05,-0.04221797,61.833794,156.9064,0.0047884034,1442826,65,187,1188,9687
60485632,4028,0,0.02817465,-0.69834155,-9.979862,-0.0031411564,0.006492146,-0.027881723,61.811634,156.9064,0.0047884034,1442826,127,49,-38,9679
60585604,3995,0,-0.29420823,-0.5218738,-9.526806,-0.012391803,0.009720593,-0.05030831,61.844875,156.9064,0.0047884034,1442826,-972,550,1832,9691
60689651,4032,0,-0.11806887,1.2130029,-9.272549,0.0013102299,0.0039207498,-0.038349573,61.858727,156.9064,0.0047884034,1442826,296,-901,1398,9696
60789628,4024,0,-0.13543382,0.926807,-9.972128,-0.0052262233,0.009965938,-0.045084458,61.883656,156.9064,0.0047884034,1442826,575,-533,1450,9705
60893603,4000,0,0.42164192,-0.5396983,-10.021383,0.007473084,-0.0035785371,-0.03510782,61.878117,156.9064,0.0047884034,1442826,851,-63,2432,9703
60993603,3972,0,0.13493736,-0.7765903,-9.607643,0.0019520953,-0.0050828937,-0.034284376,61.853184,156.9064,0.0047884034,1442826,-602,-235,2361,9694
61093632,4028,0,-0.20386079,-0.26052344,-9.7122555,-0.004303093,0.010183949,-0.035207804,61.897507,156.9064,0.0047884034,1442826,-344,-789,1673,9710
61197604,3989,0,-0.21109897,1.524138,-10.092997,0.0011250821,0.008217721,-0.04931156,61.900276,156.9064,0.0047884034,1442826,309,-917,1416,9711
61297604,4001,0,-0.079856925,1.4471489,-9.912942,-0.0026869024,0.0037716147,-0.0620423,61.891968,156.9064,0.0047884034,1442826,607,-898,1525,9708
61397604,4001,0,0.33024198,0.40727663,-9.618719,0.00032099633,-0.0014200715,-0.04065691,61.925205,156.9064,0.0047884034,1442826,309,123,2725,9720
61499203,3980,0,0.3685587,-0.65445834,-9.827285,-0.0014542588,-0.0026754225,-0.03987479,61.914127,156.9064,0.0047884034,1442826,571,103,1074,9716
61603204,3990,0,0.14996798,-0.53579366,-9.56075,-0.0071985302,0.0025437307,-0.029791662,61.941826,156.9064,0.0047884034,1442826,-1059,451,1674,9726
61703203,3981,0,0.043536548,0.81108224,-9.691516,-0.00023039896,0.005056875,-0.039574407,61.939056,156.9064,0.0047884034,1442826,318,805,2279,9725
61803203,3994,0,-0.022063436,1.0957283,-9.674079,0.011997507,0.0023633384,-0.028317004,61.94737,156.9064,0.0047884034,1442826,-89,-79,1617,9728
61907228,3984,0,0.9676131,-0.033672847,-9.728178,0.004307663,-0.0038561204,-0.03629507,61.9446,156.9064,0.0047884034,1442826,-577,748,2176,9727
62007220,4017,0,0.12037849,-0.3720631,-9.592727,0.008099315,-0.0035353913,-0.021219313,61.955677,156.9064,0.0047884034,1442826,593,-4,3707,9731
62111215,4012,0,0.097866684,-0.04513343,-9.545379,0.00779814,-0.00021545077,-0.028607199,61.96676,156.9064,0.0047884034,1442826,31,49,3852,9735
62211223,4020,0,-0.38306117,0.7850804,-9.817108,-0.0032233517,0.0069799656,-0.061390813,61.98892,156.9064,0.0047884034,1442826,-130,-956,22,9743
62311207,4004,0,0.068646476,1.7490692,-9.489699,-0.0046237838,0.01396594,-0.04421612,61.97784,156.9064,0.0047884034,1442826,1208,578,1846,9739
62415208,3991,0,0.07192171,-0.07088305,-9.947719,-0.0031727443,-0.002648112,-0.027823912,62.00554,156.9064,0.0047884034,1442826,300,40,2534,9749
62516803,3999,0,0.025341466,-0.6678304,-9.920912,-0.0058966815,-0.00095187034,-0.031740356,61.994457,156.9064,0.0047884034,1442826,403,-386,2099,9745
62616803,3978,0,0.083807305,-0.75070035,-9.983133,-0.013157448,0.010703022,-0.046192236,62.00554,156.9064,0.0047884034,1442826,-485,145,971,9749
62716803,3993,0,0.25159082,-0.40420836,-9.616698,-0.0026199047,0.0154665625,-0.0286615,62.01939,156.9064,0.0047884034,1442826,-508,434,2673,9754
62820841,4038,0,-0.26294032,1.1351695,-9.541815,0.009221859,-0.00038936263,-0.030699054,62.047092,156.9064,0.0047884034,1442826,-336,-718,1164,9764
62920803,4000,0,-0.06472031,0.8700171,-9.90973,0.009444576,0.0010569687,-0.03641592,62.02493,156.9064,0.0047884034,1442826,1260,-403,1486,9756
63020803,3990,0,0.3606874,0.028182026,-9.879509,0.005540805,-0.005106493,-0.02260835,62.04432,156.9064,0.0047884034,1442826,826,858,2210,9763
63124833,4030,0,-0.35077596,-0.53344333,-9.989378,0.0029908852,0.0018811265,-0.04683619,62.02493,156.9064,0.0047884034,1442826,-182,-762,2018,9756
63224810,4007,0,0.2850802,0.6043504,-9.814134,0.011677549,0.009597014,-0.029976023,62.01385,156.9064,0.0047884034,1442826,1034,35,1525,9752
63328803,3985,0,-0.02280485,1.101273,-9.7646,-0.0010430978,0.0063575385,-0.040673036,62.06094,156.9064,0.0047884034,1442826,268,-1104,1096,9769
63428832,4029,0,0.16395068,0.6791357,-10.229138,0.007085256,-0.0018861307,-0.035912562,62.07202,156.9064,0.0047884034,1442826,598,-148,1134,9773
63530410,3965,0,0.5597564,-0.47675374,-9.809425,-0.00027321954,-0.010132846,-0.03936749,62.05263,156.9064,0.0047884034,1442826,-455,834,3102,9766
63634403,3957,0,-0.26044488,0.12487377,-10.012198,0.009286914,-0.002003094,-0.031650707,62.09695,156.9064,0.0047884034,1442826,-641,-578,2649,9782
63734422,3979,0,0.33608183,0.7646254,-9.527791,0.011748298,0.0053202845,-0.04241526,62.085873,156.9064,0.0047884034,1442826,95,-97,1277,9778
63834403,3985,0,0.24783786,0.6583396,-9.260425,-0.0028801241,-0.0017971314,-0.02759439,62.09141,156.9064,0.0047884034,1442826,308,519,1425,9780
63938405,3993,0,-0.1356027,-0.31454083,-10.283131,0.004997789,0.0054916027,-0.04387157,62.13019,156.9064,0.0047884034,1442826,572,-684,1028,9794
64038403,4000,0,-0.029656786,-0.60688883,-10.237442,0.00012162124,-0.0066739814,-0.033162616,62.08033,156.9064,0.0047884034,1442826,489,241,2630,9776
64138404,3967,0,-0.2804377,-0.399233,-9.694369,-0.0065261363,0.007155261,-0.041601535,62.119114,156.9064,0.0047884034,1442826,-550,-147,2506,9790
64242430,4020,0,0.24941075,0.6445204,-8.959473,0.0040745744,0.0006980256,-0.04119581,62.116344,156.9064,0.0047884034,1442826,551,343,2933,9789
64342423,4019,0,0.06748766,0.5187221,-9.733766,-0.0021044128,-0.005487788,-0.035104968,62.188366,156.9064,0.0047884034,1442826,355,-171,2212,9815
64442404,3993,0,-0.0109418975,-0.246439,-9.976861,-0.00624262,-0.008951371,-0.040967755,62.152355,156.9064,0.0047884034,1442826,-507,303,3147,9802
64543206,4003,0,0.03103591,-0.4150871,-9.525482,-0.00022813794,0.011230873,-0.039913945,62.157894,156.9064,0.0047884034,1442826,103,316,2661,9804
64648003,4000,0,-0.060718462,0.4896861,-9.610704,-0.0019680928,0.0009985832,-0.042572286,62.157894,156.9064,0.0047884034,1442826,536,199,2208,9804
64748003,4000,0,-0.0646699,0.9404714,-9.02407,-0.006417771,-0.00401135,-0.03275526,62.157894,156.9064,0.0047884034,1442826,-900,314,2943,9804
64848004,4001,0,-0.096341185,0.55438143,-9.951175,-0.008819939,0.009096142,-0.041149803,62.168976,156.9064,0.0047884034,1442826,-63,795,2456,9808
64952003,3969,0,0.31148967,-0.5179898,-9.841352,0.0017774462,-0.011290479,-0.0421999,62.199444,156.9064,0.0047884034,1442826,269,665,2500,9819
65052003,3999,0,0.28606924,-0.94857436,-9.9179325,-0.0024156075,0.0002362924,-0.04491598,62.210526,156.9064,0.0047884034,1442826,267,313,2748,9823
65156031,4028,0,0.25860563,0.5254712,-9.22607,0.0049065696,0.0052816733,-0.038895965,62.210526,156.9064,0.0047884034,1442826,347,253,3781,9823
65256003,4000,0,0.0022293725,0.70447606,-9.347306,0.004395637,-0.0064402055,-0.03930208,62.182823,156.9064,0.0047884034,1442826,-447,230,3180,9813
65356004,3960,0,-0.19218923,0.61193424,-10.075018,-0.0054963264,0.0022145708,-0.04513589,62.213295,156.9064,0.0047884034,1442826,388,-224,328,9824
65460008,4005,0,-0.032741677,-1.0524396,-10.108372,-0.0015910196,-0.0073478655,-0.029215949,62.229916,156.9064,0.0047884034,1442826,153,378,2307,9830
65561603,3989,0,-0.45665854,-0.64722514,-9.787998,-0.007217463,0.008035183,-0.028936021,62.25485,156.9064,0.0047884034,1442826,331,-278,837,9839
65661636,4033,0,-0.4275756,0.6942499,-9.931699,0.0035804338,0.0075268694,-0.029352618,62.252075,156.9064,0.0047884034,1442826,-724,-488,1987,9838
65761604,4001,0,-0.14256419,1.1322203,-9.529457,0.0019854046,0.0038490156,-0.041539304,62.260387,156.9064,0.0047884034,1442826,609,-488,780,9841
65865604,3974,0,0.50482273,-0.12783009,-9.682816,0.0044711255,-0.0017441078,-0.039422736,62.252075,156.9064,0.0047884034,1442826,232,640,2501,9838
65965631,4021,0,-0.06773195,-0.6361723,-9.823839,0.0013249011,-0.00058814837,-0.030054677,62.285316,156.9064,0.0047884034,1442826,79,0,2471,9850
66065613,4003,0,-0.029820444,-0.90268296,-9.624614,-0.0054665636,-0.0066518467,-0.0364339,62.301937,156.9064,0.0047884034,1442826,-1646,767,3260,9856
66169637,4034,0,-0.5251841,0.9387405,-9.931279,-0.0023980634,0.0038705578,-0.06293173,62.27424,156.9064,0.0047884034,1442826,-681,-744,1844,9846
66269603,3998,0,0.08787059,1.0929793,-10.014536,0.012978569,-0.006362765,-0.031130293,62.268696,156.9064,0.0047884034,1442826,-474,-154,2408,9844
66373611,4008,0,0.4159761,-0.18066013,-10.384611,-0.004008057,-0.0032871072,-0.04137516,62.301937,156.9064,0.0047884034,1442826,330,-110,781,9856
66473603,3967,0,0.014749026,-0.72123057,-10.44376,-0.008569656,0.0038318408,-0.04647223,62.31025,156.9064,0.0047884034,1442826,557,-11,1093,9859
66575203,4000,0,-0.22778748,0.19340658,-10.141371,0.0079751145,-0.0019148056,-0.039259512,62.318558,156.9064,0.0047884034,1442826,-750,-653,2587,9862
66679204,4000,0,0.31494674,0.55675215,-9.680828,-0.01374059,0.0005148395,-0.04536505,62.33518,156.9064,0.0047884034,1442826,-251,626,1718,9868
66779210,4007,0,-0.2949648,0.74279344,-9.674528,0.0029988969,0.0066808686,-0.05135227,62.33241,156.9064,0.0047884034,1442826,294,-490,2624,9867
66883204,3999,0,0.35820132,-0.41305575,-9.697777,-0.00088551827,0.007972996,-0.033245187,62.34903,156.9064,0.0047884034,1442826,-178,869,3233,9873
66979202,3955,0,0.0535104,-0.7634163,-10.245121,-0.0051555126,0.00038293685,-0.035893045,62.31302,156.9064,0.0047884034,1442826,78,57,1117,9860
67083220,4017,0,-0.057813216,0.5020714,-10.167003,-0.008588541,0.007867075,-0.06787381,62.34903,156.9064,0.0047884034,1442826,724,175,376,9873
67187212,3995,0,0.17118144,1.4412171,-9.628937,0.012045816,0.0027863379,-0.035877056,62.36842,156.9064,0.0047884034,1442826,-24,-38,4324,9880
67291203,4000,0,0.32353672,-0.040831264,-9.7096,-0.0074809105,0.0007884422,-0.049115263,62.37119,156.9064,0.0047884034,1442826,-236,-417,1834,9881
67391222,4019,0,0.4458458,-0.5483483,-10.528842,0.0027529073,-0.004092662,-0.046064153,62.37673,156.9064,0.0047884034,1442826,785,465,1393,9883
67491231,4027,0,-0.032297537,-0.88374454,-9.890954,-0.0043744734,-0.0057913275,-0.0274117,62.36565,156.9064,0.0047884034,1442826,-816,281,3241,9879
67592813,4010,0,-0.116833545,0.5044304,-10.142002,0.0005361745,0.010171021,-0.045190465,62.396122,156.9064,0.0047884034,1442826,244,-612,1084,9890
