timestamp,integral_dt,error_count,x,y,z,x_integral,y_integral,z_integral,temperature,range_m_s2,scaling,device_id,x_raw,y_raw,z_raw,temperature_raw
24992452,3952,0,-0.26046702,0.7621487,-10.076999,-0.0015610314,0.006823253,-0.042111337,61.562325,156.9064,0.0047884034,1442850,151,-314,-1925,9589
25096464,4013,0,0.1788179,0.3917389,-10.132398,0.0069885994,-0.005627982,-0.0437084,61.520775,156.9064,0.0047884034,1442850,-139,309,-2053,9574
25200481,4006,0,0.08190025,0.84035116,-10.2056055,0.002267406,0.0007343624,-0.03589034,61.537395,156.9064,0.0047884034,1442850,-22,158,-1402,9580
25300481,4006,0,0.16171367,-0.50715715,-9.209308,0.0018149376,0.000481307,-0.037488732,61.565098,156.9064,0.0047884034,1442850,133,-143,-1928,9590
25400475,3965,0,0.29609403,0.59661406,-10.282416,0.0066407765,-0.0068339496,-0.039351188,61.540165,156.9064,0.0047884034,1442850,-474,292,-1069,9581
25504475,3973,0,0.3975585,0.90231794,-10.185436,0.0052000456,-0.009662978,-0.0375088,61.542934,156.9064,0.0047884034,1442850,-59,759,-1710,9582
25604482,3962,0,0.26641813,0.5029421,-9.821115,0.008113931,-0.013600694,-0.030708509,61.515236,156.9064,0.0047884034,1442850,-93,703,-1797,9572
26776482,4007,0,-0.786369,-0.11557829,-9.44271,-0.0131346425,0.008717478,-0.054149725,61.548477,156.9064,0.0047884034,1442850,-436,-1791,-2881,9584
26880482,4007,0,-0.6639814,0.8626301,-10.141589,-0.013319774,0.014731698,-0.05462067,61.573406,156.9064,0.0047884034,1442850,-736,-587,-1269,9593
26980512,4037,0,1.306302,0.83441967,-9.210191,-0.0033027446,-0.016275806,-0.025247741,61.570637,156.9064,0.0047884034,1442850,2195,1131,-2361,9592
27080489,3974,0,-1.2198133,-0.39234176,-9.885242,0.02309517,0.008565825,-0.057364073,61.548477,156.9064,0.0047884034,1442850,-2674,-443,-4130,9584
27184483,4000,0,-1.210948,-0.9676825,-11.521773,0.01809322,-0.0013442575,-0.0790751,61.534626,156.9064,0.0047884034,1442850,-1284,148,-1113,9579
27284483,4000,0,-1.0140283,-0.7213724,-10.81991,0.026357971,0.00020740391,-0.025214115,61.545704,156.9064,0.0047884034,1442850,-1295,-341,-2018,9583
27384495,4012,0,0.19294913,0.13526025,-10.684408,0.008816501,0.008442299,-0.053338744,61.548477,156.9064,0.0047884034,1442850,533,-1051,-906,9584
27488483,3994,0,-0.17197794,1.4630044,-9.968275,0.02559736,0.0057552313,-0.064992025,61.567867,156.9064,0.0047884034,1442850,-1945,146,-4082,9591
27588483,3994,0,0.7929512,0.8902894,-10.6617365,-0.005822932,-0.0104032755,-0.004390062,61.565098,156.9064,0.0047884034,1442850,1239,660,-2634,9590
27692483,4000,0,1.3665679,-1.4221698,-11.16039,-0.0067271763,-0.006539999,-0.022621844,61.592796,156.9064,0.0047884034,1442850,1754,-56,-1688,9600
27792489,3990,0,-0.41399112,-0.97597754,-11.963521,-0.007994364,-0.0010362954,-0.06984481,61.531857,156.9064,0.0047884034,1442850,-546,62,-1204,9578
27892498,3977,0,0.02472788,0.16978747,-10.503345,-0.008243615,0.0006813968,-0.026027657,61.526314,156.9064,0.0047884034,1442850,1291,-228,-1905,9576
27996453,4001,0,1.0261812,1.7943503,-11.263245,0.008021091,-0.012375798,-0.019823572,61.567867,156.9064,0.0047884034,1442850,1244,863,-906,9591
28096452,4000,0,0.59410083,2.0266027,-12.688601,0.008854495,-0.010527096,-0.07627954,61.567867,156.9064,0.0047884034,1442850,-374,1430,-994,9591
28196451,3999,0,0.18250106,1.1272353,-12.951219,0.018980337,-0.010089404,-0.06990703,61.548477,156.9064,0.0047884034,1442850,-981,1495,-692,9584
28300452,3977,0,0.3230813,-2.023785,-11.985619,-0.015649445,-0.007795082,-0.0022430182,61.518005,156.9064,0.0047884034,1442850,938,-491,-1227,9573
28400546,4071,0,-0.28112558,-2.0631678,-11.716791,-0.0062044854,-0.0021146098,-0.0036409013,61.567867,156.9064,0.0047884034,1442850,1007,-854,-1118,9591
28504510,4035,0,-0.7642483,0.6814614,-10.827739,-0.0081677865,0.020489957,-0.05700862,61.540165,156.9064,0.0047884034,1442850,-354,-918,-3290,9581
28604475,4000,0,0.12095199,1.5753263,-10.221195,8.215429e-05,0.015309871,-0.03996242,61.493073,156.9064,0.0047884034,1442850,449,-552,-1485,9564
28704482,4007,0,-0.42462832,1.4405777,-8.745293,0.01798361,-0.00287813,-0.026873123,61.484764,156.9064,0.0047884034,1442850,-1837,602,-2613,9561
28808475,3974,0,0.63420856,-1.3167922,-10.198316,0.029669426,-0.01430279,-0.039676182,61.495846,156.9064,0.0047884034,1442850,136,929,-1499,9565
28908475,3963,0,-1.2230878,-1.158123,-9.580504,-0.016605426,-0.005424511,-0.024925943,61.45706,156.9064,0.0047884034,1442850,-940,163,-1552,9551
29008508,4026,0,-0.9083497,0.14203815,-9.337813,0.04949273,0.012012225,-0.01828181,61.44044,156.9064,0.0047884034,1442850,-2191,-629,-202,9545
29112481,3999,0,-0.48137835,1.1878556,-7.300401,-0.035012215,0.001965595,-0.03954711,61.470913,156.9064,0.0047884034,1442850,50,-288,-3073,9556
29212482,4007,0,-0.9786078,0.07006861,-8.166934,0.034767658,-0.005194684,-0.03283162,61.487534,156.9064,0.0047884034,1442850,-2573,-209,-1878,9562
29316476,4001,0,-0.28713012,-1.4102323,-8.240101,-0.0513369,0.00086199096,-0.042780876,61.468143,156.9064,0.0047884034,1442850,1295,-664,-3101,9555
29420482,3964,0,1.6185802,0.313411,-8.026317,0.029350875,-0.0070285387,-0.029103052,61.484764,156.9064,0.0047884034,1442850,1269,-142,-2079,9561
29520458,4007,0,1.9666297,0.8346359,-7.1455574,0.03169132,-0.0050511286,-0.03243472,61.468143,156.9064,0.0047884034,1442850,1294,194,-2022,9555
29624451,3999,0,-0.49044397,0.017848564,-8.827497,-0.046209324,-0.008180201,-0.032013867,61.47645,156.9064,0.0047884034,1442850,919,632,-822,9558
29724451,4000,0,-1.108499,-0.37165916,-8.428571,-0.038589545,-0.009977059,-0.012521815,61.473682,156.9064,0.0047884034,1442850,-14,-2,62,9557
29824482,3996,0,0.7566162,0.8026723,-9.074655,-0.053554807,0.0032975385,-0.00831398,61.451523,156.9064,0.0047884034,1442850,2766,807,223,9549
29928475,4000,0,-1.4413978,1.0175443,-8.266274,-0.022034382,-0.008115919,0.0105053205,61.462605,156.9064,0.0047884034,1442850,-892,1030,263,9553
30028501,4019,0,0.087959334,0.44146168,-8.991916,-0.04383485,-0.0019136393,-0.014703253,61.45706,156.9064,0.0047884034,1442850,1634,770,-228,9551
30128475,3994,0,-1.6910954,-0.5868111,-8.902632,-0.003980701,0.012012822,-0.021004952,61.498615,156.9064,0.0047884034,1442850,-1640,127,-1092,9566
30232484,4009,0,-1.2789043,0.07350118,-9.028117,0.048247077,0.0097501725,-0.022600539,61.490303,156.9064,0.0047884034,1442850,-3028,304,-355,9563
30332511,4036,0,0.17981067,1.0861233,-9.605633,0.03976962,0.0022798064,-0.03605716,61.506924,156.9064,0.0047884034,1442850,-1537,482,-736,9569
30436511,4023,0,1.6960847,0.27921003,-9.111385,0.00769649,-0.006768711,-0.041504543,61.501385,156.9064,0.0047884034,1442850,1752,-527,-1199,9567
30536476,3995,0,1.9776725,-0.46881297,-9.832404,-0.0078618,-0.0155457165,-0.018390212,61.531857,156.9064,0.0047884034,1442850,2469,257,-969,9578
30636475,4000,0,1.6932317,-0.5581939,-10.930684,-0.020646691,-0.007181883,-0.02968977,61.531857,156.9064,0.0047884034,1442850,2909,76,-24,9578
30740482,3995,0,-0.12644747,0.8963174,-9.813508,0.034940295,0.0048510456,-0.029405303,61.523544,156.9064,0.0047884034,1442850,-1061,114,-2845,9575
30840482,3972,0,0.29500055,1.9571693,-10.518837,-0.013539788,0.000452806,-0.013102832,61.518005,156.9064,0.0047884034,1442850,1388,-512,-1291,9573
30940506,4031,0,0.11141852,2.1347096,-8.94988,-0.017192917,0.0061600655,-0.044889964,61.506924,156.9064,0.0047884034,1442850,819,-72,-4772,9569
31044475,4000,0,0.9529996,0.09017884,-11.859201,0.017868035,-0.022545055,-0.03714017,61.531857,156.9064,0.0047884034,1442850,270,778,1,9578
31144451,3999,0,0.43689844,-1.2400843,-10.538529,0.015136985,-0.0074037854,-0.0429915,61.509693,156.9064,0.0047884034,1442850,-477,465,-3120,9570
31248452,4000,0,0.5006412,-0.89609444,-11.87811,0.003041721,0.009782689,-0.014687333,61.526314,156.9064,0.0047884034,1442850,1189,-1181,1203,9576
31348452,4001,0,0.6129133,1.4417461,-10.297411,0.008252877,0.0069019105,-0.017073296,61.493073,156.9064,0.0047884034,1442850,1240,-532,-1777,9564
31452482,3986,0,-0.2410505,1.598927,-10.129822,-0.019379206,-0.010893829,-0.005409363,61.523544,156.9064,0.0047884034,1442850,805,696,-1280,9575
31556525,4050,0,-0.28869584,-0.8082309,-11.240592,-0.038599532,-0.013907492,-0.042217407,61.506924,156.9064,0.0047884034,1442850,471,835,-1556,9569
31660475,4000,0,-1.070386,-1.0948923,-10.503788,-0.0026847394,0.0036570698,-0.07012775,61.540165,156.9064,0.0047884034,1442850,-1180,-495,-3417,9581
31760505,4024,0,-0.38769418,0.60495585,-9.581236,0.006552331,0.0041358457,-0.02942136,61.518005,156.9064,0.0047884034,1442850,-1466,-324,-3389,9573
31864501,4025,0,0.714785,1.563147,-9.719099,-0.0006227158,0.0014888158,-0.0046200017,61.526314,156.9064,0.0047884034,1442850,868,-279,-257,9576
31964475,3981,0,0.91119534,1.4246361,-10.776238,0.017885264,-0.00022383884,-0.06391206,61.551247,156.9064,0.0047884034,1442850,1109,-5,-1873,9585
32064475,3994,0,-1.1155366,-0.46676975,-10.360994,0.0014867447,-0.0055052224,-0.03479731,61.529083,156.9064,0.0047884034,1442850,-2262,-139,-948,9577
32168524,4049,0,0.4986782,-1.254235,-9.453684,-0.046814516,0.002672623,-0.053821832,61.570637,156.9064,0.0047884034,1442850,2350,-454,-4166,9592
32268488,3983,0,-0.4592006,-0.30632877,-9.440143,0.044359513,0.0117179975,-0.069871455,61.520775,156.9064,0.0047884034,1442850,-2077,-985,-4279,9574
32368516,4041,0,0.61986536,0.8388802,-8.850715,-0.03762792,0.00828976,-0.050348803,61.531857,156.9064,0.0047884034,1442850,2384,-844,-3579,9578
32472475,4000,0,1.2604791,1.4318994,-10.644873,0.025613679,0.0020339638,-0.050464187,61.548477,156.9064,0.0047884034,1442850,487,-101,438,9584
32572488,4013,0,-0.32998723,-0.2975227,-9.871563,0.0020476086,-0.0062833354,-0.056382533,61.526314,156.9064,0.0047884034,1442850,-1632,114,-2612,9576
32676451,4000,0,0.62433887,-1.1227152,-9.424461,-0.048807576,-0.010918348,-0.02122162,61.542934,156.9064,0.0047884034,1442850,2354,57,-3320,9582
32776451,4000,0,-0.15567873,-0.06847632,-10.024594,0.047380216,0.0020277917,-0.010655144,61.562325,156.9064,0.0047884034,1442850,-1522,165,-80,9589
32876452,3966,0,-1.1830459,1.5051826,-9.364985,-0.0334334,0.0125640035,-0.029866276,61.559555,156.9064,0.0047884034,1442850,-234,-250,-356,9588
32980475,3993,0,0.14918666,0.6414288,-7.066399,0.047319002,-0.005117301,-0.03361316,61.534626,156.9064,0.0047884034,1442850,-2294,313,-2525,9579
33084475,4000,0,1.1375868,-0.3601983,-8.095317,-0.032202203,0.0049363105,-0.040169768,61.542934,156.9064,0.0047884034,1442850,2775,-29,-3335,9582
33184520,4039,0,0.7524481,-0.2906797,-7.573023,-0.045313336,0.0025546765,-0.052474372,61.556786,156.9064,0.0047884034,1442850,3023,-873,-5230,9587
33288476,4001,0,-0.7619328,2.153216,-10.342062,0.034121163,0.009042615,-0.024434537,61.590027,156.9064,0.0047884034,1442850,-1984,571,1727,9599
33388489,4013,0,-0.56511533,1.8487229,-8.640008,-0.028515834,-0.0025750052,-0.027307922,61.545704,156.9064,0.0047884034,1442850,-105,391,-3458,9583
33488482,4006,0,1.0384326,1.4154112,-10.179462,0.0298618,-0.020073628,-0.03033999,61.576176,156.9064,0.0047884034,1442850,681,499,-1417,9594
33592475,3965,0,1.2092248,-0.85292375,-10.034118,0.0066336244,-0.008888804,-0.007862452,61.562325,156.9064,0.0047884034,1442850,1122,726,119,9589
33692493,4007,0,0.5181976,-1.5103433,-11.342649,0.019481763,-0.005094302,-0.038309056,61.548477,156.9064,0.0047884034,1442850,-204,160,-645,9584
33796517,4042,0,-0.06650056,0.62256956,-10.367313,0.008830879,-0.0008635257,-0.02130258,61.562325,156.9064,0.0047884034,1442850,1050,-44,-1056,9589
33900475,3993,0,0.13568494,2.2962682,-8.717693,-0.021688828,6.14945e-05,-0.03894053,61.556786,156.9064,0.0047884034,1442850,423,-21,-5172,9587
34000476,4000,0,-0.834361,1.8302387,-9.694532,-0.005076236,0.005198215,-0.06961704,61.573406,156.9064,0.0047884034,1442850,-1451,-416,-4397,9593
34104482,4000,0,0.8044397,-0.22296067,-11.711139,-0.007488555,-0.008491661,0.0037232474,61.534626,156.9064,0.0047884034,1442850,1216,421,-417,9579
34204451,3996,0,-0.2626838,-0.82773787,-11.112461,-0.02052217,-0.0079830345,-0.03104295,61.551247,156.9064,0.0047884034,1442850,-88,139,-2186,9585
34304451,3981,0,-0.4132955,-0.99097604,-11.855048,-0.004216265,-0.0045156586,-0.04112414,61.554016,156.9064,0.0047884034,1442850,-441,-330,-313,9586
34408451,4000,0,-0.966563,-0.1054804,-9.449894,-0.010363181,0.017085182,-0.021883478,61.559555,156.9064,0.0047884034,1442850,-338,-993,-4149,9588
34508475,3985,0,-0.51007044,1.0456405,-10.631924,0.0041492935,0.0068332194,-0.07339845,61.554016,156.9064,0.0047884034,1442850,-907,-1286,-2887,9586
34608475,3961,0,0.4317492,1.518616,-10.293823,-0.0019063093,-0.0024042325,-0.06788045,61.565098,156.9064,0.0047884034,1442850,1089,-245,-3109,9590
34712522,4047,0,-0.6737844,0.82209086,-11.053373,-0.004149539,-0.0011938374,-0.05520084,61.590027,156.9064,0.0047884034,1442850,-1430,452,-933,9599
34812483,3988,0,-0.09826504,-1.0513092,-9.865427,0.018066175,0.0063822893,-0.08173978,61.545704,156.9064,0.0047884034,1442850,-1117,-757,-3708,9583
34916483,4000,0,0.77624977,-0.5034123,-10.801558,0.008667091,0.007645392,-0.054574404,61.592796,156.9064,0.0047884034,1442850,1684,-761,-2144,9600
35020483,3994,0,-0.72042406,1.9010336,-9.837251,-0.007246649,0.012352474,-0.03118678,61.540165,156.9064,0.0047884034,1442850,-898,143,-899,9581
35120517,4006,0,0.35375392,1.6551903,-9.196575,-0.043177173,-0.0061941855,-0.064065084,61.570637,156.9064,0.0047884034,1442850,1921,197,-3238,9592
35224520,4037,0,-0.40544727,-1.024273,-10.0911665,-0.01698639,-0.0024722405,-0.07866575,61.578945,156.9064,0.0047884034,1442850,92,45,-4009,9595
35324515,4026,0,-0.46486923,-1.7124556,-9.8828,-0.037088826,0.007913442,-0.04618776,61.570637,156.9064,0.0047884034,1442850,933,-896,-3716,9592
35424489,4006,0,-0.12652457,-1.3409363,-9.236516,-0.0049526487,0.012523124,-0.024420138,61.559555,156.9064,0.0047884034,1442850,1390,-578,-1603,9588
35528483,4000,0,-0.3109138,0.98405623,-9.036364,-0.01824136,0.009911256,-0.048990827,61.590027,156.9064,0.0047884034,1442850,548,-934,-3135,9599
35628483,3983,0,1.020205,1.6621176,-9.320108,-0.0092246225,-0.0023940345,-0.06670649,61.554016,156.9064,0.0047884034,1442850,2005,-704,-3034,9586
35728532,4080,0,-0.6213187,1.8380922,-8.776497,0.033861913,-0.009705016,-0.028841406,61.551247,156.9064,0.0047884034,1442850,-2099,997,-2492,9585
35832451,4000,0,-1.8790865,-1.0505065,-8.729969,-0.0034767725,-0.014480359,-0.042350527,61.562325,156.9064,0.0047884034,1442850,-2156,149,-1815,9589
35932452,4001,0,1.5198696,-0.5809858,-10.66854,-0.023904545,0.0040542125,-0.028684849,61.612186,156.9064,0.0047884034,1442850,2959,76,1305,9607
36036475,4000,0,0.49084303,0.77170455,-9.572617,0.035771184,0.0043715257,-0.023197828,61.590027,156.9064,0.0047884034,1442850,464,181,-2330,9599
36140475,4000,0,1.0758209,2.6442587,-9.41065,0.021880208,-0.008223295,-0.032252137,61.567867,156.9064,0.0047884034,1442850,898,658,-1533,9591
36240490,4009,0,-1.1852496,1.290352,-9.721397,0.030417657,-0.0043433947,-0.023622187,61.609417,156.9064,0.0047884034,1442850,-2982,618,-1798,9606
36344482,4006,0,-0.7618476,-1.8567086,-9.98282,0.025864078,-0.0015812288,-0.06752938,61.59834,156.9064,0.0047884034,1442850,-1641,-528,-4015,9602
36444476,4001,0,-0.35377082,-1.4817857,-8.858379,-0.041356336,-0.010808652,-0.045703746,61.612186,156.9064,0.0047884034,1442850,1352,-198,-5632,9607
36544481,4005,0,-0.081820115,-1.3033949,-9.802232,0.022890426,0.011133021,-0.06287229,61.578945,156.9064,0.0047884034,1442850,348,-1294,-2868,9595
36648476,3993,0,0.08557048,1.8138458,-10.429253,0.026608106,0.004133305,-0.033448454,61.58172,156.9064,0.0047884034,1442850,-521,-63,176,9596
36748482,3981,0,-0.4617632,2.1556578,-9.238493,-0.013950053,-0.0010208513,-0.02137184,61.60111,156.9064,0.0047884034,1442850,-208,67,-2625,9603
36848475,3999,0,1.277561,1.2719084,-9.984181,-0.0048248144,-0.020826953,-0.021792524,61.576176,156.9064,0.0047884034,1442850,2143,685,-1962,9594
36952476,4001,0,1.3096606,-1.1248183,-10.803349,0.02150009,0.0061520133,-0.05868989,61.559555,156.9064,0.0047884034,1442850,575,-732,-3234,9588
37052506,4030,0,-1.2797787,-1.6978195,-9.9435835,-0.014419323,0.0016080224,-0.07423605,61.592796,156.9064,0.0047884034,1442850,-627,-748,-4170,9600
37156507,4031,0,-0.66089237,1.6069516,-9.223256,-0.0052690646,0.0031873342,-0.020511854,61.592796,156.9064,0.0047884034,1442850,-263,113,-3005,9600
37260452,3970,0,-0.69904786,2.096525,-8.3475485,-0.011556525,0.002530206,-0.033398166,61.612186,156.9064,0.0047884034,1442850,-1658,-531,-4943,9607
37360452,4001,0,0.7942795,1.4820211,-9.892575,-0.029802792,-0.010241519,-0.044761166,61.587257,156.9064,0.0047884034,1442850,2463,22,-2358,9598
37464490,4038,0,0.9347964,-1.0586673,-10.883884,-0.030068789,-0.01006009,-0.04435112,61.573406,156.9064,0.0047884034,1442850,1309,786,306,9593
37564483,4000,0,0.8398651,-1.3903044,-10.635684,0.034005046,0.00053541135,-0.047180824,61.573406,156.9064,0.0047884034,1442850,501,49,-1621,9593
37664489,3976,0,-2.2716796,-0.61525416,-10.2725935,-0.005141794,0.0040992433,-0.07965607,61.587257,156.9064,0.0047884034,1442850,-2135,-397,-1666,9598
37768483,4000,0,0.036305003,1.8062687,-9.724387,0.027907602,0.022431552,-0.039063208,61.58172,156.9064,0.0047884034,1442850,-1326,-277,-1162,9596
37868501,4012,0,-0.6942116,1.5523965,-10.193147,-0.03137977,0.017112678,-0.05417263,61.58172,156.9064,0.0047884034,1442850,-399,-877,-1460,9596
37968483,4000,0,0.65549326,1.2472048,-9.819402,-0.02551446,0.0021531922,-0.054413002,61.590027,156.9064,0.0047884034,1442850,1967,314,-2070,9599
38072483,4000,0,-1.1443865,-0.84105426,-10.360936,-0.0131081445,-0.0052825287,-0.026415672,61.58172,156.9064,0.0047884034,1442850,-1238,845,-1716,9596
38172489,4006,0,0.36165217,-1.0918964,-9.939434,-0.029765816,0.008628232,-0.046440322,61.614956,156.9064,0.0047884034,1442850,2123,363,-2861,9608
38276483,3968,0,-1.1565211,1.1506506,-10.532082,0.026125384,0.01293591,-0.04276468,61.612186,156.9064,0.0047884034,1442850,-2843,-458,373,9607
38380489,4006,0,1.0637466,2.0806766,-10.243661,-0.012877831,-0.0033127367,-0.024446797,61.609417,156.9064,0.0047884034,1442850,1993,320,-442,9606
38480519,4036,0,0.49306074,0.82189965,-11.100676,0.007232227,-0.0018018103,-0.04320382,61.61773,156.9064,0.0047884034,1442850,444,868,-106,9609
38584515,4032,0,0.49273416,-1.0465884,-10.483613,-0.030401997,-0.0032141604,-0.027207736,61.584488,156.9064,0.0047884034,1442850,1312,786,-1440,9597
38684452,3969,0,-0.9439628,-1.0354338,-9.6393175,-0.025006251,0.002379987,-0.06437434,61.63435,156.9064,0.0047884034,1442850,-331,-800,-4952,9615
38784452,4000,0,-1.1473981,0.34200573,-9.407409,0.026056746,0.007520476,-0.0367926,61.65928,156.9064,0.0047884034,1442850,-2510,-723,-1769,9624
38888452,3967,0,1.1826761,1.5266405,-8.34236,-0.020324739,-0.009725416,-0.037836745,61.595566,156.9064,0.0047884034,1442850,1870,254,-3616,9601
38988452,3966,0,0.7937779,1.1366167,-10.23077,-0.0025966787,-0.017206091,-0.05034791,61.62327,156.9064,0.0047884034,1442850,535,661,-1852,9611
39088510,4033,0,1.5035664,-0.511385,-10.708024,0.0001633591,-0.0073663616,-0.06326327,61.631577,156.9064,0.0047884034,1442850,1906,-147,-841,9614
39192496,4020,0,-1.3321884,-2.0327728,-10.969977,0.020383056,0.007066034,-0.063857876,61.62327,156.9064,0.0047884034,1442850,-2461,-925,-789,9611
39292476,3948,0,0.40052634,-0.53513217,-9.406612,0.02226243,0.00060724455,-0.04123257,61.63712,156.9064,0.0047884034,1442850,429,194,-3500,9616
39396494,4012,0,-0.8700184,0.8615771,-8.286905,-0.011639106,0.0057557994,-0.020745533,61.63435,156.9064,0.0047884034,1442850,-1103,-448,-3978,9615
39500476,4000,0,1.4789017,0.33905122,-8.805731,0.019140117,-0.021218674,-0.05220486,61.6205,156.9064,0.0047884034,1442850,1084,697,-3680,9610
39600475,3999,0,0.93089914,-0.71459424,-10.496589,-0.0064559067,-0.016741266,-0.03241333,61.61773,156.9064,0.0047884034,1442850,1064,68,-843,9609
39704476,3994,0,0.09514634,-0.9672925,-8.649674,-0.033305094,0.0013482118,-0.03848669,61.62327,156.9064,0.0047884034,1442850,1569,-284,-4643,9611
39804475,3966,0,-0.36514613,0.09668727,-8.710307,-0.026356451,0.0034856324,-0.013484657,61.603878,156.9064,0.0047884034,1442850,120,-121,-3503,9604
39904476,3962,0,0.91443694,1.0515556,-8.5067835,-0.013118282,-0.0036182087,-0.023591146,61.63989,156.9064,0.0047884034,1442850,1795,4,-3365,9617
40008483,4007,0,-0.6663938,1.5100907,-9.141866,-0.009213041,0.0010605289,-0.06944909,61.645428,156.9064,0.0047884034,1442850,-822,-294,-3134,9619
40108476,4001,0,-0.3348285,0.22699101,-9.855921,-0.038079694,-0.0064311596,-0.059352614,61.65374,156.9064,0.0047884034,1442850,187,303,-2814,9622
40208452,4000,0,0.8133174,-0.79844475,-9.725042,-0.024739975,-0.009035802,-0.0598176,61.62327,156.9064,0.0047884034,1442850,1073,738,-3596,9611
40312452,4000,0,-1.0035589,-0.72912395,-10.4635315,0.01869693,0.0016077142,-0.034181178,61.63989,156.9064,0.0047884034,1442850,-2150,-427,-765,9617
40412520,4068,0,-1.5624803,0.37997198,-10.374494,0.0021306155,0.006642275,-0.039486557,61.628807,156.9064,0.0047884034,1442850,-2289,-973,-678,9613
40516506,4030,0,0.30965784,1.953644,-9.5412245,0.019081444,0.008616203,-0.059845034,61.614956,156.9064,0.0047884034,1442850,-936,220,-2767,9608
40620501,4026,0,1.962683,0.05653963,-10.972358,0.007216112,-0.019866861,-0.034548763,61.63989,156.9064,0.0047884034,1442850,1893,793,-1098,9617
40720475,3993,0,-0.31088537,-1.907705,-10.441455,0.032096274,-0.014659491,-0.022361076,61.65374,156.9064,0.0047884034,1442850,-807,129,-1469,9622
40824482,4006,0,0.12790762,-0.66743207,-11.090224,-0.011759401,0.017492816,-0.03209824,61.62327,156.9064,0.0047884034,1442850,685,-534,246,9611
40924476,3994,0,1.3966433,0.56026417,-10.774308,0.019843934,0.00080224895,-0.026902976,61.66759,156.9064,0.0047884034,1442850,1519,-47,202,9627
41024491,3978,0,-0.29305837,1.6721631,-10.780117,0.033399306,0.0050230366,-0.031626068,61.64266,156.9064,0.0047884034,1442850,-2060,-47,601,9618
41128476,4000,0,0.31026852,1.0585833,-9.836481,0.03282878,0.0024250348,-0.036307454,61.645428,156.9064,0.0047884034,1442850,-1226,-19,-1923,9619
41228482,4007,0,-0.68036354,-0.98218757,-9.473921,-0.011433404,-0.0069088414,-0.08014959,61.631577,156.9064,0.0047884034,1442850,-1224,-604,-3347,9614
41328484,4008,0,1.1125958,-1.6242187,-10.542612,-0.021470852,-0.0022968308,-0.05500599,61.628807,156.9064,0.0047884034,1442850,1939,-264,-1495,9613
41432475,3957,0,0.74658483,-0.88157064,-9.717732,-0.00721526,0.021295546,-0.0020046916,61.66205,156.9064,0.0047884034,1442850,2150,-1312,-357,9625
41532476,4001,0,-0.6301071,0.7106679,-9.299984,0.02600572,0.0135362465,-0.032024547,61.65928,156.9064,0.0047884034,1442850,-1762,-423,-3382,9624
41636476,4000,0,-0.4253515,2.2324476,-10.284103,0.036018398,0.0013881759,-0.030115834,61.645428,156.9064,0.0047884034,1442850,-2190,1159,-905,9619
41740452,4000,0,-1.0725027,-1.104311,-10.165161,0.02059422,-0.0014660098,-0.080091625,61.65928,156.9064,0.0047884034,1442850,-2675,-35,-2754,9624
41840469,4017,0,1.4572212,-1.1140343,-10.694487,-0.034300935,-0.007729374,-0.01750465,61.67867,156.9064,0.0047884034,1442850,2804,1154,-1093,9631
41944483,4031,0,0.3593519,-0.52938896,-9.95946,0.006634781,0.019037394,-0.057635278,61.664818,156.9064,0.0047884034,1442850,1738,-1140,-1781,9626
42044475,3974,0,-1.257403,1.1931938,-10.027453,0.022198057,0.0148491245,-0.018745217,61.65651,156.9064,0.0047884034,1442850,-2170,-87,-2061,9623
42144482,4007,0,1.3980927,1.6143149,-8.583831,-0.020669471,0.008825423,-0.0383295,61.6759,156.9064,0.0047884034,1442850,2317,-737,-3207,9630
42248475,4000,0,1.399979,1.3548678,-10.165128,0.027964093,-0.015555578,-0.02559037,61.664818,156.9064,0.0047884034,1442850,903,663,-1181,9626
42348483,3970,0,-1.010747,-0.585324,-8.691887,-0.0051374002,-0.010604956,-0.03274735,61.664818,156.9064,0.0047884034,1442850,-1604,167,-4202,9626
42448509,4003,0,0.5626194,-1.0376247,-10.53538,0.05133595,8.869858e-05,-0.06280802,61.67867,156.9064,0.0047884034,1442850,-813,152,-2408,9631
42552500,4011,0,-0.5739878,-0.9964234,-9.604022,0.031677656,0.014536166,-0.025279725,61.664818,156.9064,0.0047884034,1442850,-1609,-337,-1689,9626
42652483,4000,0,-1.4877583,0.75224155,-9.255971,-0.012207169,0.02199917,-0.055479806,61.66759,156.9064,0.0047884034,1442850,-1703,-1610,-3323,9627
42756489,4006,0,-0.71537066,1.9489135,-9.213036,-0.010936528,0.0052563073,-0.018218055,61.67313,156.9064,0.0047884034,1442850,-1446,-477,-1949,9629
42860483,4000,0,0.11703041,-0.45208487,-10.465667,-0.035166115,-0.007795116,-0.03139815,61.67036,156.9064,0.0047884034,1442850,919,1060,-1189,9628
42960489,4006,0,0.3261088,-1.4240116,-11.174239,0.035864655,-0.0061642453,-0.02065008,61.65928,156.9064,0.0047884034,1442850,-1254,167,-392,9624
43064489,4006,0,-1.7693185,-0.9477671,-9.848603,0.021923715,0.014087316,-0.055506147,61.69252,156.9064,0.0047884034,1442850,-2410,-893,-3280,9636
43164510,4027,0,0.3885058,0.5825624,-9.109578,-0.03553917,0.0143224,-0.06279695,61.684208,156.9064,0.0047884034,1442850,2029,-1205,-3339,9633
43264452,4000,0,0.29471007,1.8786727,-10.735905,0.023849448,-0.0011595946,-0.036302876,61.68975,156.9064,0.0047884034,1442850,246,178,-460,9635
43368452,4000,0,1.919855,0.69708246,-9.887121,-0.011631694,-0.014050772,-0.0536019,61.69252,156.9064,0.0047884034,1442850,2444,7,-2180,9636
43468452,4000,0,0.9762631,-1.2826204,-10.523008,0.031532675,-0.0067187063,-0.078861065,61.69806,156.9064,0.0047884034,1442850,-56,300,-3165,9638
43568526,4051,0,-0.5393705,-1.9910858,-11.482603,0.018228281,-0.002089455,-0.06369988,61.68144,156.9064,0.0047884034,1442850,-1577,-28,-28,9632
43672475,4000,0,0.61000574,-0.33516586,-9.991051,0.0024963496,0.009097409,-0.021131141,61.68975,156.9064,0.0047884034,1442850,1488,-687,-1180,9635
43772493,4005,0,-0.5607583,1.0301616,-9.999087,0.035194922,0.013052883,-0.023189101,61.67867,156.9064,0.0047884034,1442850,-1747,-780,-826,9631
43876518,4042,0,0.1321632,1.5267538,-9.53297,-0.020849006,0.0029010219,-0.039589316,61.72576,156.9064,0.0047884034,1442850,798,259,-1917,9648
43980475,3999,0,0.25137705,-0.7211775,-9.7932625,-0.019257264,-0.012188971,-0.07669315,61.67867,156.9064,0.0047884034,1442850,631,688,-4708,9631
44080476,3994,0,-0.13781297,-1.4503344,-9.350955,-0.036579024,-0.008962343,-0.07796295,61.69252,156.9064,0.0047884034,1442850,851,-459,-5358,9636
44184476,3962,0,0.1421545,-0.22692429,-10.936508,0.02866792,0.013934787,-0.037818886,61.736843,156.9064,0.0047884034,1442850,-39,-805,-266,9652
44284482,4000,0,0.38950503,1.6090527,-9.640959,-0.013296837,0.015871217,-0.052283153,61.69806,156.9064,0.0047884034,1442850,1940,-361,-3390,9638
44384482,3987,0,-0.24664117,1.5435771,-8.940867,-0.028758978,0.009852534,-0.06370644,61.67313,156.9064,0.0047884034,1442850,601,-1182,-4692,9629
44488476,3996,0,1.4522787,0.20829257,-11.219286,0.018335983,-0.017331649,-0.028916478,61.69252,156.9064,0.0047884034,1442850,940,708,424,9636
44588476,3987,0,1.0782391,-1.1612028,-10.451487,-0.011975294,-0.0013170824,-0.03750639,61.69529,156.9064,0.0047884034,1442850,1601,574,-824,9637
44688452,4000,0,0.35999945,-1.1695312,-10.2438135,-0.024269477,-0.00094683043,-0.070513725,61.69806,156.9064,0.0047884034,1442850,680,167,-2767,9638
44792501,4049,0,-0.77596295,0.5241853,-11.12462,0.012330232,0.0025577901,-0.0027731434,61.73407,156.9064,0.0047884034,1442850,-723,728,407,9651
44892452,4000,0,-0.3341712,1.1945927,-10.206034,0.0047903126,0.008364355,-0.03804829,61.73407,156.9064,0.0047884034,1442850,-116,-472,-435,9651
44996476,4001,0,0.22081767,0.82901084,-10.667696,0.0030707535,-0.012932407,-0.050815947,61.722992,156.9064,0.0047884034,1442850,-157,1039,-784,9647
45100475,3999,0,0.3397878,-1.3261632,-9.653485,-0.013142867,-0.016055055,-0.01363304,61.756233,156.9064,0.0047884034,1442850,542,-84,-1856,9659
45200518,3998,0,-0.76861846,-0.8733033,-9.105357,-0.0025649788,-0.0053055813,-0.023479197,61.74792,156.9064,0.0047884034,1442850,-493,-1037,-2489,9656
45304488,4012,0,0.54881823,1.1450295,-9.847773,-0.021480797,0.011055525,-0.05169966,61.75069,156.9064,0.0047884034,1442850,1957,-1268,-2103,9657
45404476,4000,0,-0.9430336,1.5020176,-9.43618,-0.018924791,0.009581355,-0.04194427,61.73407,156.9064,0.0047884034,1442850,-396,170,-2977,9651
45504476,4000,0,-0.16585189,0.9262389,-9.051661,0.0056864866,-0.00084224844,-0.051418237,61.71191,156.9064,0.0047884034,1442850,-967,-524,-3879,9643
45608476,3995,0,0.75935066,-1.0333002,-11.563974,-0.0048862575,-0.002064661,-0.0077546774,61.736843,156.9064,0.0047884034,1442850,1606,-27,1013,9652
45708514,4014,0,0.47820932,-1.1586426,-10.280543,-0.028125487,0.011694875,0.0015216963,61.73407,156.9064,0.0047884034,1442850,1479,-91,-635,9651
45808511,4035,0,-1.3657864,-0.24882062,-10.101064,-0.003933283,0.0008063515,-0.025548447,61.76731,156.9064,0.0047884034,1442850,-1680,-134,-1307,9663
45912482,4006,0,0.4917091,1.2558488,-9.542963,-0.015914043,-0.0017015844,-0.05329289,61.76731,156.9064,0.0047884034,1442850,1790,-273,-2847,9663
46012476,4000,0,-0.05772432,0.50758517,-9.208316,-0.025295729,0.016568137,-0.03226334,61.75069,156.9064,0.0047884034,1442850,747,-499,-3449,9657
46116476,3993,0,1.0427669,-0.42591476,-10.968285,0.041195374,0.002171313,-0.031405505,61.73407,156.9064,0.0047884034,1442850,-249,633,-25,9651
46220459,4007,0,-1.1585655,-0.6653567,-9.2927475,-0.02300567,0.003368599,-0.010533813,61.761772,156.9064,0.0047884034,1442850,-443,129,-3070,9661
46320473,4021,0,-0.77057683,0.60677356,-8.573762,0.01675448,0.012779343,-0.033263225,61.77008,156.9064,0.0047884034,1442850,-1603,-981,-2146,9664
46424475,4023,0,-0.36602432,1.3804102,-10.46757,-0.016608426,0.004499278,-0.035887193,61.772854,156.9064,0.0047884034,1442850,977,902,-746,9665
46524475,4000,0,-0.33841947,0.9490001,-10.039036,0.0005978532,-0.015140258,-0.009980484,61.78393,156.9064,0.0047884034,1442850,-1298,776,-782,9669
46624482,4007,0,-0.13777904,-0.417521,-9.644475,-0.0026606787,-0.0064296387,-0.020107135,61.792244,156.9064,0.0047884034,1442850,-56,1287,-3130,9672
46728483,3960,0,0.052496675,-1.3981513,-9.631556,0.014426687,-0.0014388948,-0.026101248,61.78393,156.9064,0.0047884034,1442850,205,-684,-2361,9669
46828483,4000,0,0.7397301,0.122510195,-9.184387,0.008157669,0.0115228975,-0.035819285,61.778393,156.9064,0.0047884034,1442850,1622,282,-3530,9667
46928483,3994,0,0.029802106,0.8206395,-9.407949,-0.042458873,0.012763241,-0.05047008,61.7867,156.9064,0.0047884034,1442850,1567,-1028,-2401,9670
47032483,4000,0,0.042764626,0.5905715,-10.211525,0.0152381975,-0.010154495,-0.044985883,61.76454,156.9064,0.0047884034,1442850,-1032,1095,-640,9662
47132513,3992,0,-0.7887558,-0.4137556,-10.7092,0.023358295,-0.0068246694,-0.022741184,61.806095,156.9064,0.0047884034,1442850,-1850,979,-1657,9677
47236520,4031,0,0.25229925,-0.9504636,-10.250693,-0.0134293325,0.008170459,-0.04670395,61.806095,156.9064,0.0047884034,1442850,1408,-623,-2012,9677
47336509,4020,0,0.0991493,-0.016784033,-10.625744,0.008398833,0.021228503,-0.02317566,61.795013,156.9064,0.0047884034,1442850,730,-693,-93,9673
47436483,4000,0,-0.43320435,0.5268505,-9.881424,-0.020367704,0.0048735053,-0.0026116658,61.792244,156.9064,0.0047884034,1442850,857,-978,-303,9672
47540483,3996,0,-0.4636892,1.1447634,-10.434683,0.00208615,0.004194687,-0.09226675,61.795013,156.9064,0.0047884034,1442850,-1479,-157,-1962,9673
47640452,3983,0,-1.1076659,-0.12004051,-10.667939,0.01767203,-0.006962309,-0.03988396,61.778393,156.9064,0.0047884034,1442850,-2604,388,-529,9667
47740509,4057,0,-0.8950285,-1.5283159,-10.031987,-0.0012676204,-0.004841043,-0.050140247,61.795013,156.9064,0.0047884034,1442850,-1341,-87,-2711,9673
47844452,4000,0,0.13135889,-0.5958035,-10.766077,0.018185861,-0.0041334666,-0.031920426,61.814404,156.9064,0.0047884034,1442850,187,178,38,9680
47944475,4000,0,-1.5199519,0.4814969,-9.84903,0.02826605,0.008819549,-0.026391778,61.842106,156.9064,0.0047884034,1442850,-2411,-515,-1012,9690
48048475,3999,0,0.33434775,1.8663416,-11.033696,0.012126819,0.0045230957,-0.026846256,61.797783,156.9064,0.0047884034,1442850,488,723,-595,9674
48148475,3997,0,0.5616378,0.84753186,-9.310829,0.038804803,-0.012731999,-0.03932684,61.828255,156.9064,0.0047884034,1442850,-936,1094,-3088,9685
48248482,3964,0,-1.226367,-0.91938186,-9.15882,0.008672274,-0.0075211613,-0.054997303,61.806095,156.9064,0.0047884034,1442850,-2149,-101,-3728,9677
48352476,4000,0,-1.3165202,-2.214686,-10.674125,0.027162427,-0.008045398,-0.019891411,61.806095,156.9064,0.0047884034,1442850,-1951,144,-731,9677
48452486,4010,0,-1.6368587,-0.4732476,-9.474341,-0.0036813226,0.008062103,-0.051704094,61.792244,156.9064,0.0047884034,1442850,-2077,-706,-2495,9672
48552482,3981,0,-0.5018614,0.9363985,-9.298784,-0.019090164,0.017004274,-0.04692269,61.819942,156.9064,0.0047884034,1442850,-234,-1073,-2969,9682
48656492,4016,0,-0.986947,1.6466086,-9.029547,-0.0055125235,0.0016283994,-0.03174212,61.833794,156.9064,0.0047884034,1442850,-1513,163,-3098,9687
48756518,4042,0,0.24798132,0.2110043,-9.0471115,-0.02455765,-0.00740241,-0.06447829,61.875347,156.9064,0.0047884034,1442850,838,358,-5307,9702
48860476,4000,0,-1.4444437,-1.7388512,-10.400341,0.007089675,-0.0028500378,-0.023893584,61.831024,156.9064,0.0047884034,1442850,-2279,-412,-907,9686
48964476,4000,0,-0.8499041,0.15543859,-10.668528,0.016265344,0.020725,-0.062244847,61.836563,156.9064,0.0047884034,1442850,-1154,-461,-2002,9688
49064510,4035,0,-1.1213224,1.5116696,-10.160432,0.028018162,0.015430065,-0.04689432,61.833794,156.9064,0.0047884034,1442850,-2517,-883,324,9687
49168483,4031,0,0.54128325,0.7269072,-10.077501,0.022402283,0.0027465145,-0.03978563,61.855953,156.9064,0.0047884034,1442850,-484,-79,-2295,9695
49268486,4034,0,0.6728623,-0.6826401,-9.787659,0.033811893,-0.007706719,-0.07270238,61.808865,156.9064,0.0047884034,1442850,-518,231,-4283,9678
49368475,3999,0,-0.8203121,-1.3512534,-10.793352,0.008291182,-0.00096966,-0.07433525,61.817173,156.9064,0.0047884034,1442850,-1623,175,-1441,9681
49472475,4000,0,0.643562,-0.15914893,-9.401163,0.018785596,-0.0017616488,-0.031934977,61.819942,156.9064,0.0047884034,1442850,1076,61,-2375,9682
49572475,3964,0,-0.18129188,1.3496704,-9.41848,0.02800354,0.011778193,-0.04915883,61.836563,156.9064,0.0047884034,1442850,-836,-478,-2511,9688
49672517,4034,0,-0.7923182,2.1560075,-10.4084425,-0.00068595307,0.021489078,-0.06289953,61.847645,156.9064,0.0047884034,1442850,-1403,-288,-1035,9692
49776483,3955,0,1.46163,0.62332225,-9.903204,0.014088894,-0.0092045795,-0.071679525,61.817173,156.9064,0.0047884034,1442850,471,454,-3371,9681
49876483,3994,0,0.16430898,-0.8313404,-11.182287,0.03954652,0.00051588414,-0.033346742,61.836563,156.9064,0.0047884034,1442850,-2166,378,-86,9688
49980483,4000,0,-0.54713166,-1.6396528,-10.832382,0.03877148,0.012288654,-0.060261033,61.817173,156.9064,0.0047884034,1442850,-1724,-837,-2047,9681
50084483,3994,0,-0.42344746,1.045171,-9.401674,0.039954703,0.008589285,-0.021866556,61.833794,156.9064,0.0047884034,1442850,-1429,-349,-1712,9687
50184483,4000,0,-0.13756196,1.7293596,-9.400524,-0.024414359,0.011401349,-0.091812916,61.839333,156.9064,0.0047884034,1442850,-351,-1175,-2708,9689
50288489,3974,0,-1.4540974,0.0062753707,-9.407603,-0.028593475,-0.01470283,-0.041048646,61.825485,156.9064,0.0047884034,1442850,-995,-173,-2674,9684
50388483,4000,0,1.619221,-0.17448899,-10.631651,0.0065383688,-0.0143442685,-0.069739394,61.833794,156.9064,0.0047884034,1442850,1645,949,-2561,9687
50488483,4000,0,0.6289716,-1.8444304,-10.813371,0.027180865,-0.011503501,-0.013460223,61.831024,156.9064,0.0047884034,1442850,-758,303,-316,9686
50592452,4000,0,-0.338103,-1.0291572,-11.095539,0.041688234,0.0046708942,-0.02153637,61.800552,156.9064,0.0047884034,1442850,-1303,-80,234,9675
50692452,3993,0,-1.5778534,1.2880509,-8.840703,-0.0016027968,0.0067707766,-0.04043345,61.822716,156.9064,0.0047884034,1442850,-1822,-395,-2488,9683
50792452,4000,0,0.2613991,1.3742446,-9.152933,-0.029282037,0.016846614,-0.04422755,61.833794,156.9064,0.0047884034,1442850,1459,-873,-2187,9687
50896523,4048,0,0.25737768,0.79302806,-8.693238,-0.030313537,-0.010449885,-0.020107511,61.825485,156.9064,0.0047884034,1442850,752,638,-3129,9684
51608482,3975,0,1.3049049,-0.8425513,-10.730381,-0.021399822,-0.002778503,-0.051403888,61.839333,156.9064,0.0047884034,1442850,2804,401,-884,9689
51712476,4000,0,0.41829646,0.28760347,-8.465385,-0.02204367,0.0024458512,-0.025394132,61.867035,156.9064,0.0047884034,1442850,1406,-611,-3477,9699
51812489,4013,0,0.39907134,0.9464548,-8.591746,-0.03930314,-0.0011000318,-0.026021391,61.880886,156.9064,0.0047884034,1442850,1907,-633,-2961,9704
51916482,3968,0,0.008464743,0.24962576,-10.158805,0.033837616,0.003948322,-0.06405604,61.855953,156.9064,0.0047884034,1442850,-1576,-2,-1725,9695
52020453,4001,0,0.01752763,-1.467584,-10.333377,0.00036936766,-0.0023434518,-0.008895585,61.861496,156.9064,0.0047884034,1442850,741,156,-963,9697
52120452,4000,0,0.5486591,-1.0672771,-9.824328,0.019164272,0.0053746304,-0.017011005,61.867035,156.9064,0.0047884034,1442850,998,-357,-1544,9699
52220452,4000,0,0.7001049,0.09831085,-9.581169,-0.00832405,0.00077238504,-0.03612925,61.858727,156.9064,0.0047884034,1442850,1925,-696,-1018,9696
52324452,3977,0,0.26888084,1.5924911,-9.130626,-0.03305999,-0.0008660072,-0.06556603,61.878117,156.9064,0.0047884034,1442850,1631,-389,-3215,9703
52424546,4071,0,-0.6433091,0.77361786,-9.807688,-0.03968207,-0.0009468872,-0.05953869,61.889194,156.9064,0.0047884034,1442850,167,337,-3473,9707
52528494,4019,0,-0.41571715,-1.5221887,-10.770265,-0.017848149,-0.011818885,-0.0479476,61.858727,156.9064,0.0047884034,1442850,-128,-84,-980,9696
52628476,4000,0,-0.77995205,-1.4229722,-10.339515,-0.014977389,-0.0059970114,-0.028208708,61.878117,156.9064,0.0047884034,1442850,-783,-248,-1830,9703
52728482,4006,0,-0.5851972,-0.20564817,-9.276693,0.0069965655,-0.00081231084,-0.009496518,61.889194,156.9064,0.0047884034,1442850,-868,-332,-2440,9707
52832476,3981,0,-0.8395691,1.5250684,-10.094119,0.017053194,0.005343062,-0.070629016,61.869804,156.9064,0.0047884034,1442850,-1249,-137,-2501,9700
52932475,3963,0,-0.23169303,1.8056782,-10.32672,0.035449386,0.003381256,-0.05604337,61.903046,156.9064,0.0047884034,1442850,-2534,477,-936,9712
53032508,4032,0,-0.3511899,0.21669456,-10.763437,-0.00525612,-0.009760275,-0.054616652,61.855953,156.9064,0.0047884034,1442850,-1085,491,-1061,9695
53136523,4047,0,-0.34509704,-1.8378296,-9.54991,0.031052805,0.00045459316,-0.05045639,61.903046,156.9064,0.0047884034,1442850,-1484,185,-3288,9712
53236483,4007,0,-1.5590743,-1.0108236,-10.511855,-0.00050335145,0.013711239,-0.07363654,61.903046,156.9064,0.0047884034,1442850,-1774,-647,-3050,9712
53340476,4000,0,-0.1533608,1.8663957,-9.499622,0.018125502,0.0063775424,-0.02084046,61.886425,156.9064,0.0047884034,1442850,-486,8,-2056,9706
53444458,3940,0,1.1408525,1.4829284,-11.04936,-0.007028539,-0.01736985,-0.051960744,61.869804,156.9064,0.0047884034,1442850,2311,848,-369,9700
53544452,4000,0,0.91747737,0.18161839,-10.220909,0.025895672,-0.018866679,-0.0058363155,61.869804,156.9064,0.0047884034,1442850,378,954,-984,9700
53648452,4000,0,0.54637223,-1.5610489,-10.751199,-0.040964626,-0.002831886,-0.03698669,61.900276,156.9064,0.0047884034,1442850,1804,288,-1412,9711
53748475,4000,0,1.0395935,-0.94669956,-9.61341,-0.016854672,-0.0034885982,-0.0023404337,61.886425,156.9064,0.0047884034,1442850,2939,264,-2540,9706
53848475,3969,0,0.042123735,0.30335757,-9.290464,0.020881457,-0.0009781416,-0.009393483,61.897507,156.9064,0.0047884034,1442850,371,28,-1501,9710
53952476,4001,0,1.5092946,1.310835,-9.866062,-0.006321411,-0.003703693,-0.058632497,61.875347,156.9064,0.0047884034,1442850,2560,64,-808,9702
54052509,4016,0,-0.47016728,0.05350123,-10.5606985,0.026837196,0.006735672,-0.06534221,61.894737,156.9064,0.0047884034,1442850,-2092,183,-1293,9709
54152495,4012,0,-1.1621907,-1.1439906,-9.52364,-0.012775868,-0.011100439,-0.055253107,61.897507,156.9064,0.0047884034,1442850,-1718,-100,-3170,9710
54256483,4000,0,-1.1853344,-1.3892053,-10.174251,-0.013842123,-0.002848326,-0.024173595,61.897507,156.9064,0.0047884034,1442850,-601,25,-2085,9710
54356501,4012,0,-0.0814593,0.28552127,-9.334818,-0.016240684,0.007963482,0.002797234,61.914127,156.9064,0.0047884034,1442850,182,-369,-888,9716
54460518,4010,0,-1.5298615,1.7072222,-8.728733,-0.016830767,0.008162445,-0.049668644,61.925205,156.9064,0.0047884034,1442850,-1736,-249,-4799,9720
54564502,4019,0,-0.9843509,-0.048838843,-10.473483,0.007971572,-0.020544764,-0.031514723,61.905815,156.9064,0.0047884034,1442850,-1862,868,-2100,9713
54664489,3997,0,1.2007401,-1.0300922,-9.64755,-0.034359816,-0.019370805,-0.027794458,61.916897,156.9064,0.0047884034,1442850,2135,756,-1494,9717
54768483,3993,0,0.587698,-0.843443,-10.595799,-0.030328825,0.010672372,-0.045982864,61.883656,156.9064,0.0047884034,1442850,2552,213,-565,9705
54868452,3969,0,0.31960073,0.19561762,-10.321373,0.036757737,0.0033905846,-0.008693009,61.872574,156.9064,0.0047884034,1442850,-366,612,-881,9701
54968452,3978,0,-0.9895576,1.7873883,-8.746948,-0.02173264,0.016919065,-0.0031013861,61.875347,156.9064,0.0047884034,1442850,-945,-663,-2517,9702
55072452,4000,0,0.18107255,1.9262863,-10.2295885,-0.03189612,0.009485135,-0.043314617,61.889194,156.9064,0.0047884034,1442850,162,325,-299,9707
55172475,4000,0,0.34498307,0.5989575,-10.503786,0.03398705,-0.013056226,-0.01025035,61.864265,156.9064,0.0047884034,1442850,-789,1316,-1076,9698
55272476,4001,0,-0.54260415,-1.3334612,-9.192664,-0.026377577,-0.0098052025,-0.01670165,61.891968,156.9064,0.0047884034,1442850,-490,16,-3739,9708
55376475,4000,0,-1.0243847,-1.2320026,-9.526536,-0.03314767,0.010575052,-0.03718244,61.875347,156.9064,0.0047884034,1442850,-106,-488,-2657,9702
55476476,3967,0,-0.10834815,-0.4553846,-10.362543,0.0026925304,0.019608714,-0.06468802,61.869804,156.9064,0.0047884034,1442850,1256,-1426,-1057,9700
55580526,4050,0,0.74001414,1.887984,-8.711748,-0.02469425,-0.0091348635,-0.012044767,61.889194,156.9064,0.0047884034,1442850,2049,515,-3472,9707
55684476,4000,0,-1.1289994,0.120923564,-9.389616,0.0136468,-0.008184052,-0.07391742,61.878117,156.9064,0.0047884034,1442850,-3161,-529,-2426,9703
55784506,4024,0,-1.163829,-1.6177453,-9.043386,-0.014551634,-0.010870622,-0.042382788,61.875347,156.9064,0.0047884034,1442850,-1124,-81,-3267,9702
55888514,4038,0,-1.1926517,-1.2081687,-10.064987,0.018589381,-0.00035015115,-0.05972957,61.889194,156.9064,0.0047884034,1442850,-1279,-230,-3632,9707
55988476,3982,0,0.25460503,0.029436564,-9.145094,0.033124015,-1.5838188e-05,-0.04252679,61.889194,156.9064,0.0047884034,1442850,-160,-511,-2956,9707
56088476,4000,0,1.3625103,1.2304713,-9.841313,-0.0018692631,-0.005129195,-0.038192257,61.855953,156.9064,0.0047884034,1442850,2149,-575,-388,9695
56192520,4044,0,-0.030720733,1.5358301,-8.602902,-0.000336956,-0.01177479,-0.011897886,61.858727,156.9064,0.0047884034,1442850,-513,1190,-2984,9696
56292476,3970,0,0.08235113,0.31757304,-10.188064,-0.009027965,-0.0238384,-0.039448287,61.855953,156.9064,0.0047884034,1442850,308,1275,-2505,9695
56392487,4035,0,-0.6007621,-1.1929386,-11.479626,0.013117562,0.000263469,-0.053520117,61.872574,156.9064,0.0047884034,1442850,-774,217,-966,9701
56496458,4006,0,0.0018976432,0.41728637,-10.060651,-0.005660431,0.022551676,-0.04828369,61.90859,156.9064,0.0047884034,1442850,222,-31,-2457,9714
56596496,4013,0,0.097439975,1.5254494,-9.788606,-0.004111848,0.014310749,-0.08963839,61.875347,156.9064,0.0047884034,1442850,70,-893,-2458,9702
56700475,3993,0,-0.31132627,1.5463654,-10.031262,0.0033201105,0.009058884,-0.027757175,61.894737,156.9064,0.0047884034,1442850,-855,304,-1611,9709
56804475,4000,0,0.6098923,-0.45064116,-11.019969,0.0018970806,-0.0136077395,-0.014284604,61.891968,156.9064,0.0047884034,1442850,996,497,-551,9708
56904476,4000,0,0.0037251986,-1.4359822,-11.100456,-0.0062704347,0.0018310754,-0.030506946,61.894737,156.9064,0.0047884034,1442850,595,-187,-162,9709
57008476,4000,0,-0.2238707,1.1361789,-10.034345,-0.012167725,0.009537348,-0.045653824,61.861496,156.9064,0.0047884034,1442850,-199,-388,-1614,9697
57108476,4000,0,-1.0967222,2.229691,-10.307294,0.017817663,0.014551159,-0.04487532,61.897507,156.9064,0.0047884034,1442850,-2454,573,-929,9710
57208520,4038,0,0.3724071,1.5716751,-10.04438,0.028049445,-0.00046388572,-0.058039837,61.897507,156.9064,0.0047884034,1442850,-625,883,-2092,9710
57312476,3997,0,1.4768146,-1.0335321,-10.025775,0.009427923,-0.012339797,-0.008463445,61.878117,156.9064,0.0047884034,1442850,1294,268,-290,9703
57412482,4007,0,1.0394129,-1.5208806,-10.018882,-0.02557336,-0.006059712,-0.024897119,61.847645,156.9064,0.0047884034,1442850,2831,-315,-1909,9692
57512482,4006,0,0.50820905,-1.3827523,-9.5142565,0.0093287295,0.01076576,-0.0105347205,61.872574,156.9064,0.0047884034,1442850,1607,-336,-2265,9701
57616476,3961,0,0.17193578,0.82193947,-9.109937,-0.014107231,0.0036139677,-0.04534366,61.894737,156.9064,0.0047884034,1442850,788,-497,-2590,9709
57716506,4031,0,1.0226595,1.7853585,-9.403842,-0.017550357,-0.003284845,-0.05897316,61.872574,156.9064,0.0047884034,1442850,2628,-260,-2469,9701
57820483,4031,0,0.06662106,0.021728879,-9.732641,-0.034468092,-0.014852166,-0.02379222,61.878117,156.9064,0.0047884034,1442850,1534,540,-2166,9703
57924452,4000,0,-1.2087383,-1.430009,-9.277891,-0.012015188,0.0072507914,-0.054657876,61.897507,156.9064,0.0047884034,1442850,-1433,-770,-4514,9710
58024452,4000,0,-0.566242,-1.2863944,-9.878878,-0.047590133,0.011800274,-0.059511945,61.872574,156.9064,0.0047884034,1442850,1566,-951,-2225,9701
58128475,3986,0,-0.081003964,1.6950723,-9.195363,-0.01486489,0.0065609943,-0.03699474,61.844875,156.9064,0.0047884034,1442850,-473,-628,-2157,9691
58432483,4000,0,0.97963905,-1.1327077,-10.5066595,-0.038764462,-0.015115088,-0.026033154,61.869804,156.9064,0.0047884034,1442850,1398,1111,-1071,9700
58532483,3994,0,0.66398746,-1.2450522,-10.270607,-0.009156544,0.0027935363,0.0022469289,61.880886,156.9064,0.0047884034,1442850,2136,-313,-939,9704
58632483,3974,0,-0.4616647,-0.8737339,-9.790846,0.021099761,0.008089946,-0.043817226,61.880886,156.9064,0.0047884034,1442850,-590,-1026,-808,9704
58736530,4041,0,0.9207849,2.5029945,-10.242347,0.013142027,0.01036653,-0.075822845,61.897507,156.9064,0.0047884034,1442850,1187,167,-1165,9710
58836483,4000,0,-0.6943087,2.1328099,-10.253241,0.03821626,0.013309274,-0.033834964,61.872574,156.9064,0.0047884034,1442850,-2218,156,-1295,9701
58940489,4006,0,1.2385265,-0.7969349,-9.788984,0.030700192,-0.009502553,-0.052753754,61.894737,156.9064,0.0047884034,1442850,283,83,-2955,9709
59040483,4000,0,-1.1586404,-1.4270928,-10.239989,0.016219953,-0.0016901518,-0.06716005,61.875347,156.9064,0.0047884034,1442850,-2190,-22,-3719,9702
59140518,4035,0,-0.34527656,-1.1225424,-9.801751,-0.03786535,0.0013200365,-0.065105945,61.900276,156.9064,0.0047884034,1442850,470,41,-2945,9711
59244452,4000,0,-0.08070926,1.3210032,-9.630945,-0.022762442,0.0051480867,-0.017321821,61.894737,156.9064,0.0047884034,1442850,425,-465,-1162,9709
59344452,4000,0,0.79933035,1.7367094,-9.975303,0.0087335585,0.0010293468,-0.019219253,61.894737,156.9064,0.0047884034,1442850,1446,-714,-386,9709
59444452,4000,0,-0.2678765,2.190927,-9.471555,0.016302722,-0.0034238277,-0.054269698,61.919666,156.9064,0.0047884034,1442850,-2058,402,-2236,9718
59548475,3986,0,0.20570612,-0.48181957,-11.05094,0.0343684,0.0025617513,-0.045996945,61.900276,156.9064,0.0047884034,1442850,-1198,633,-1308,9711
59648505,4023,0,-1.0013367,-1.4114342,-10.08329,-0.014565077,-0.0021490064,-0.019837568,61.869804,156.9064,0.0047884034,1442850,-869,-184,-1502,9700
59752520,4044,0,-1.1842673,0.8450994,-9.111259,0.010263589,0.014902356,-0.06680972,61.900276,156.9064,0.0047884034,1442850,-2289,-609,-4210,9711
59852475,3992,0,-1.0717394,1.433648,-9.89355,-0.035037354,0.014487577,-0.042466067,61.886425,156.9064,0.0047884034,1442850,149,-452,-1433,9706
59952482,4007,0,0.4562059,1.8704093,-9.693304,-0.030525647,-0.011706956,-0.012759823,61.880886,156.9064,0.0047884034,1442850,2030,736,-2194,9704
60056476,4000,0,-0.25095102,-0.49988753,-9.383046,-0.028076677,-0.006493688,-0.07474196,61.875347,156.9064,0.0047884034,1442850,414,-391,-4108,9702
60156478,3972,0,0.012267617,-1.4632868,-10.285869,-0.044084307,-0.00021122163,-0.044749405,61.886425,156.9064,0.0047884034,1442850,1429,-371,-2713,9706
60256507,4031,0,0.5148047,-1.7035744,-9.771149,-0.0063557513,0.008410695,-0.040292047,61.875347,156.9064,0.0047884034,1442850,1994,-752,-3565,9702
60360484,4008,0,-1.0433806,1.2977073,-9.782199,-0.0031959568,0.017418096,-0.0391847,61.905815,156.9064,0.0047884034,1442850,-1761,-340,-434,9713
60460476,4000,0,-0.04334593,1.575023,-9.046507,-0.03810817,0.0065758466,-0.0663359,61.933517,156.9064,0.0047884034,1442850,1223,-253,-2832,9723
60564476,3975,0,-0.8265088,0.15528631,-10.374322,0.031648863,0.0041905865,-0.07053293,61.94737,156.9064,0.0047884034,1442850,-2919,-359,-872,9728
60668452,4000,0,0.16076869,-1.1515152,-11.332201,0.017969923,0.00066959177,-0.04458932,61.897507,156.9064,0.0047884034,1442850,35,233,-12,9710
60768478,4026,0,-1.1546304,-0.98513025,-9.964757,0.03928606,0.003933979,-0.054534927,61.930748,156.9064,0.0047884034,1442850,-1454,-696,-3022,9722
60872489,4037,0,-0.33336726,1.4030555,-9.961972,-0.031435724,0.01973617,-0.043936215,61.941826,156.9064,0.0047884034,1442850,711,-634,-935,9726
60972475,3999,0,-0.40055233,1.6750659,-8.584408,-0.013809276,0.00023337547,-0.03620395,61.939056,156.9064,0.0047884034,1442850,-149,460,-4708,9725
61072475,4000,0,0.2870755,0.77009785,-8.690295,-0.03241583,-0.012105081,-0.036046967,61.922436,156.9064,0.0047884034,1442850,1267,662,-4858,9719
61176476,3981,0,-0.84678596,-1.8471274,-10.194314,0.020227622,0.005425984,-0.079517946,61.903046,156.9064,0.0047884034,1442850,-1419,-719,-2817,9712
61276482,4000,0,-1.28239,-0.91448087,-10.526857,-0.0032552024,0.015195196,-0.06831013,61.925205,156.9064,0.0047884034,1442850,-1943,-612,-2629,9720
61376476,4000,0,-1.0749285,0.45495817,-9.253796,-0.004678526,0.012670709,-0.056848444,61.914127,156.9064,0.0047884034,1442850,-1237,-611,-3716,9716
61480481,4005,0,0.09365022,2.4322457,-9.835951,0.027111685,0.013998385,-0.044810407,61.919666,156.9064,0.0047884034,1442850,-1186,-368,-1555,9718
61580508,3992,0,-0.9060536,1.5473183,-10.082779,0.024246886,0.004332497,-0.027088858,61.916897,156.9064,0.0047884034,1442850,-1944,-126,-2045,9717
61684493,4017,0,1.058487,-0.7575071,-10.755949,0.01766631,-0.0028228292,-0.0649719,61.941826,156.9064,0.0047884034,1442850,771,254,-1111,9726
61784514,4038,0,-0.5931218,-1.5044078,-10.572456,0.031833544,0.0005176563,-0.06475172,61.930748,156.9064,0.0047884034,1442850,-1668,341,-1563,9722
61884475,3999,0,-1.0436077,-0.7008949,-10.362217,-0.022102598,0.0073029427,-0.04738762,61.955677,156.9064,0.0047884034,1442850,-1044,-173,-845,9731
61988476,4000,0,-0.6818176,1.8578264,-8.722136,-0.026085563,0.0036396459,-0.040381372,61.90859,156.9064,0.0047884034,1442850,-517,-684,-2587,9714
62088452,3970,0,0.89108145,1.7152576,-9.193044,-0.014564445,0.0022575613,-0.035002496,61.933517,156.9064,0.0047884034,1442850,1832,-350,-3835,9723
62188525,4067,0,0.85944104,1.7742051,-10.834062,0.03150291,-0.0081687365,-0.069195546,61.878117,156.9064,0.0047884034,1442850,68,861,-2203,9703
62292475,4000,0,1.4260737,-1.4571491,-10.387299,0.018503545,-0.006747703,-0.05639754,61.922436,156.9064,0.0047884034,1442850,930,-559,-3471,9719
62392482,4007,0,-1.9156373,-2.1488187,-10.976687,-0.00069153216,0.0013727368,-0.07932647,61.914127,156.9064,0.0047884034,1442850,-2335,-372,3,9716
62496475,3993,0,-1.442955,0.98197764,-8.767991,-0.024509288,0.013410603,-0.037852332,61.891968,156.9064,0.0047884034,1442850,-1407,-403,-2656,9708
62596489,4003,0,1.2632996,1.6617864,-8.637902,-0.008675464,0.018416123,-0.027187917,61.922436,156.9064,0.0047884034,1442850,2381,-645,-3816,9719
62696483,3969,0,-0.23024277,2.1908023,-10.22332,0.026186781,0.009963779,-0.06753784,61.919666,156.9064,0.0047884034,1442850,-1000,81,-2271,9718
62800483,4000,0,0.037859157,0.23088065,-9.974346,0.034959562,-0.011176392,-0.032302834,61.925205,156.9064,0.0047884034,1442850,-1767,665,-2370,9720
62900483,4000,0,-0.5877627,-1.4202057,-9.020569,-0.03621171,-0.0149883125,-0.03661558,61.939056,156.9064,0.0047884034,1442850,249,573,-3573,9725
63000483,3983,0,1.0218804,-1.2393533,-10.317171,0.021898586,0.01170473,-0.043690294,61.92798,156.9064,0.0047884034,1442850,1205,-252,-3066,9721
63104483,4000,0,0.48527166,0.27311963,-9.016526,0.029682413,0.00463821,-0.0075404565,61.911358,156.9064,0.0047884034,1442850,502,-293,-2715,9715
63204521,4038,0,-0.754484,2.0530753,-9.1272955,0.0022062417,0.010455318,-0.074487746,61.911358,156.9064,0.0047884034,1442850,-1770,-336,-3372,9715
63308483,4000,0,-0.41512364,1.5141109,-10.061477,0.022621954,-0.005774582,-0.042572685,61.903046,156.9064,0.0047884034,1442850,-1817,1009,-1719,9712
63408483,3994,0,-0.21823193,-0.5878225,-8.924904,-0.017569467,-0.019670261,-0.013522178,61.914127,156.9064,0.0047884034,1442850,-89,598,-4165,9716
63508452,3993,0,0.929312,-1.7001308,-10.0644,-0.02470751,-0.012025261,-0.053932294,61.919666,156.9064,0.0047884034,1442850,1703,367,-2628,9718
63612452,3982,0,-0.23159307,-0.9247534,-9.9000435,-0.016750503,0.001307316,-0.040174834,61.933517,156.9064,0.0047884034,1442850,37,-701,-1476,9723
63712481,4006,0,-1.4660785,0.4250706,-9.397153,-0.013803553,0.00725827,-0.030045286,61.90859,156.9064,0.0047884034,1442850,-1607,-842,-1807,9714
63812475,3993,0,0.49960136,1.085213,-8.645836,-0.018907696,0.00022638193,-0.013957138,61.911358,156.9064,0.0047884034,1442850,1506,-638,-2662,9715
63916482,4007,0,-1.3646706,0.2423021,-8.787614,-0.016969793,-0.006908348,-0.02815443,61.933517,156.9064,0.0047884034,1442850,-2174,454,-3109,9723
64016509,4002,0,1.2163721,-0.69386363,-9.342502,-0.031669974,-0.019626044,-0.018547736,61.916897,156.9064,0.0047884034,1442850,2132,1120,-2186,9717
64120515,4039,0,-1.3948474,-1.3735111,-9.069869,-0.017440517,0.0024169981,-0.051406756,61.936287,156.9064,0.0047884034,1442850,-1624,-1296,-3459,9724
64220475,3999,0,-0.34021848,-0.48421156,-8.919083,-0.036513314,0.0138317505,-0.036458284,61.914127,156.9064,0.0047884034,1442850,1741,-1437,-3614,9716
64320476,4000,0,1.257716,1.2369419,-8.767049,0.016760012,0.007858973,-0.01083532,61.925205,156.9064,0.0047884034,1442850,1891,-183,-2451,9720
64424476,4000,0,0.33662373,1.3057727,-9.558984,-0.019472277,-0.006930905,-0.049976874,61.96953,156.9064,0.0047884034,1442850,1815,352,-1945,9736
64524476,3970,0,0.56641984,0.28850234,-9.320588,0.034065623,-0.012541944,-0.04621844,61.950138,156.9064,0.0047884034,1442850,-67,1123,-5197,9729
64624546,4070,0,-1.6439596,-1.8981183,-9.428019,-0.0062398673,-0.012533411,-0.0545927,61.90859,156.9064,0.0047884034,1442850,-2085,-305,-3548,9714
64728476,3987,0,-1.9003958,-0.930149,-10.503567,0.006869838,0.014149227,-0.0721008,61.930748,156.9064,0.0047884034,1442850,-2286,-671,-2016,9722
64828452,4000,0,-0.9462657,0.2668192,-9.297189,-0.028045932,0.022586633,-0.04305238,61.98061,156.9064,0.0047884034,1442850,329,-1353,-2385,9740
64932458,4006,0,-0.8884666,2.0859885,-10.049961,-0.02923085,0.0037373058,-0.03001604,61.914127,156.9064,0.0047884034,1442850,-707,-291,-1803,9716
66248452,4000,0,0.671351,-0.1422311,-9.747969,-0.0043521156,-0.0009075325,-0.030154074,61.96399,156.9064,0.0047884034,1442850,1023,353,-2235,9734
66352457,4005,0,0.01746076,-1.2091657,-9.553012,-0.035690308,-0.0049466346,-0.06361683,61.9446,156.9064,0.0047884034,1442850,884,-499,-4116,9727
66452482,3993,0,-0.8325935,-0.00238932,-8.681219,-0.027340338,0.0012986083,-0.016739149,61.941826,156.9064,0.0047884034,1442850,-306,59,-3778,9726
66556483,4008,0,-0.32285264,1.519761,-9.242416,-0.015753172,0.012896065,-0.076429695,61.96676,156.9064,0.0047884034,1442850,-745,-1322,-3915,9735
66656475,4000,0,-1.4564831,1.5350727,-9.149246,-0.0046288176,0.01561092,-0.050439827,61.994457,156.9064,0.0047884034,1442850,-2448,-702,-3754,9745
66756475,3993,0,-0.22760567,0.52807844,-9.667317,-0.015735758,-0.010526726,-0.064439386,61.98061,156.9064,0.0047884034,1442850,-424,119,-3682,9740
66860490,4001,0,-0.15908816,-1.48069,-10.936259,0.026469165,-0.0040450934,-0.04675567,61.975067,156.9064,0.0047884034,1442850,-1146,118,-161,9738
66960483,3964,0,-1.5572618,-1.3519081,-11.303313,-0.014116512,0.0048926743,-0.060002297,61.97784,156.9064,0.0047884034,1442850,-1661,-664,143,9739
67060528,4045,0,-1.3985264,0.28272784,-10.263918,0.008609625,0.019740198,-0.03983209,61.972298,156.9064,0.0047884034,1442850,-2392,-745,-648,9737
67164489,4006,0,0.17698278,2.403522,-9.523492,0.016006872,-0.00043620868,-0.027520867,61.975067,156.9064,0.0047884034,1442850,-363,420,-2038,9738
67264489,4006,0,0.8650171,1.259108,-9.466218,0.012691855,-0.016556785,-0.053100873,61.994457,156.9064,0.0047884034,1442850,316,844,-2868,9745
67368483,4000,0,1.9767157,-0.9624283,-10.727969,0.0101373345,-0.00079526217,-0.05388419,61.991688,156.9064,0.0047884034,1442850,2184,409,-2389,9744
67468483,3999,0,0.9738097,-1.3331424,-10.721798,0.037018497,0.0019493749,-0.058929045,62.0,156.9064,0.0047884034,1442850,178,-455,-1947,9747
67568491,3977,0,-1.3474886,-0.98412174,-10.382162,0.017003644,-8.9081004e-07,-0.07626652,61.98892,156.9064,0.0047884034,1442850,-1898,-816,-2935,9743
67672452,4000,0,0.5749563,2.6032348,-10.373254,0.025079608,0.014940437,-0.041866105,61.994457,156.9064,0.0047884034,1442850,214,700,-271,9745
67772452,4000,0,-0.537125,2.5319963,-9.900687,0.019782841,0.0024753045,-0.04374063,61.99723,156.9064,0.0047884034,1442850,-2142,599,-1606,9746
67872452,3960,0,-1.2401177,0.8990307,-10.566257,0.0027780267,-0.011562406,-0.044449776,61.96676,156.9064,0.0047884034,1442850,-2690,-135,-588,9735
67976480,4005,0,0.28466517,-0.92818063,-10.798675,0.028648151,-0.004668105,-0.06271718,61.950138,156.9064,0.0047884034,1442850,-1271,334,-2298,9729
68076501,4019,0,-1.2099074,-1.4751328,-9.907871,-0.004172707,-0.0010665955,-0.075425684,61.975067,156.9064,0.0047884034,1442850,-1395,-537,-3879,9738
68180482,4007,0,-0.86738324,1.6680017,-9.908922,0.01949117,0.01730879,-0.031543482,62.0,156.9064,0.0047884034,1442850,-2027,231,-1280,9747
68284476,4000,0,0.5426173,2.0538802,-9.19862,0.024666322,-0.009398239,-0.043713275,61.99723,156.9064,0.0047884034,1442850,-360,867,-3696,9746
68384499,4023,0,-1.0230168,-0.3370903,-9.419339,0.025455743,-0.0130290305,-0.046520825,61.99723,156.9064,0.0047884034,1442850,-2560,-183,-3827,9746
68488508,4032,0,0.6030559,-0.942751,-11.369744,0.026919035,0.0068390807,-0.050114136,61.975067,156.9064,0.0047884034,1442850,-434,238,209,9738
68588524,4042,0,-0.13388133,-0.5512748,-10.42296,0.036318783,0.006506595,-0.07015652,62.04155,156.9064,0.0047884034,1442850,-633,234,-1089,9762
68688476,4000,0,-0.711257,0.5241972,-9.490658,0.011984002,0.004916423,-0.06604468,62.01662,156.9064,0.0047884034,1442850,-1192,-795,-4087,9753
68792476,4000,0,1.6259276,2.3727846,-10.351789,0.0226177,0.012327054,-0.0656846,61.98615,156.9064,0.0047884034,1442850,1359,231,-1022,9742
68892476,3967,0,0.1643058,1.4432194,-10.428912,0.023044901,0.0026233885,-0.07140622,62.00554,156.9064,0.0047884034,1442850,-1837,259,-1534,9749
68992525,4042,0,-0.4125934,-0.5653514,-8.825381,0.02488536,-0.012993449,-0.06258561,62.00554,156.9064,0.0047884034,1442850,-1947,-30,-4786,9749
69096452,4000,0,-0.9387284,-1.4263109,-10.316903,0.028122207,0.011838429,-0.05102373,61.98892,156.9064,0.0047884034,1442850,-1914,-585,-3056,9743
69196452,4000,0,-0.30768448,0.3761875,-8.329852,0.013584094,0.0047816886,-0.048679102,61.98061,156.9064,0.0047884034,1442850,-1182,-159,-4218,9740
69300483,4031,0,-0.06464994,2.5443773,-9.288217,0.028359706,0.017788295,-0.045126617,62.01385,156.9064,0.0047884034,1442850,-1260,-441,-3813,9752
69400475,4023,0,0.5020232,1.1575491,-9.214887,0.017573534,-0.0103299,-0.04765834,61.98892,156.9064,0.0047884034,1442850,-1258,840,-2327,9743
69500482,3933,0,-1.1237046,0.56881267,-10.357687,5.155895e-05,-0.017040158,-0.03976134,61.98615,156.9064,0.0047884034,1442850,-1899,780,-1330,9742
69604484,4008,0,1.3193641,-1.4567115,-9.835735,0.0077628014,-0.00333713,-0.031862173,62.01385,156.9064,0.0047884034,1442850,2225,-269,-1919,9752
69704476,4000,0,-0.2061391,-0.2668173,-10.616898,0.012927594,0.010579827,-0.009192512,61.994457,156.9064,0.0047884034,1442850,-140,-288,110,9745
