timestamp,integral_dt,error_count,x,y,z,x_integral,y_integral,z_integral,temperature,range_m_s2,scaling,device_id,x_raw,y_raw,z_raw,temperature_raw
24993223,4019,0,-0.10179259,0.7730982,-9.863235,5.055734e-05,0.0038947524,-0.03908919,63.2964,156.9064,0.0047884034,1442826,-141,17,2039,10215
25097245,4034,0,0.4474563,0.26549444,-9.990992,0.005701948,8.430652e-05,-0.037612632,63.268696,156.9064,0.0047884034,1442826,-92,-309,1906,10205
25201205,3996,0,0.28521034,0.60721606,-9.805166,0.0014806261,0.0013401706,-0.03705275,63.299168,156.9064,0.0047884034,1442826,-88,-160,2346,10216
25301205,4000,0,0.2306971,-0.3165522,-9.216803,-0.002060163,0.002121706,-0.04007802,63.285316,156.9064,0.0047884034,1442826,-304,222,2410,10211
25401205,3994,0,0.6364843,0.31427097,-9.810814,0.0023315214,-0.0061991233,-0.03248953,63.2964,156.9064,0.0047884034,1442826,437,77,1773,10215
25505211,4006,0,0.50237507,0.3009707,-9.811225,0.0005349156,-0.008671202,-0.03771687,63.31302,156.9064,0.0047884034,1442826,411,226,1991,10221
25605205,3989,0,0.41295645,0.045901135,-9.6625395,0.0011681275,-0.0076529416,-0.04063441,63.31025,156.9064,0.0047884034,1442826,446,138,2550,10220
26778852,4041,0,0.40527853,0.70514745,-10.386362,0.0059690387,-0.0064248582,-0.05101024,63.34072,156.9064,0.0047884034,1442826,-1111,-176,582,10231
26878804,3967,0,0.23706639,0.7871595,-9.673184,0.0066212304,0.008911436,-0.04129235,63.38227,156.9064,0.0047884034,1442826,1004,115,2479,10246
26982805,3963,0,-0.061999537,0.16418712,-10.339805,0.0022742185,-0.00014209561,-0.059953067,63.36842,156.9064,0.0047884034,1442826,754,-813,1268,10241
27080411,3975,0,0.6630562,-0.052112665,-10.459158,0.008946444,-0.0017920963,-0.05108051,63.37673,156.9064,0.0047884034,1442826,1024,247,1372,10244
27184404,4000,0,-0.18271601,-1.2137415,-10.977099,-0.005801089,-0.007783377,-0.034387834,63.40166,156.9064,0.0047884034,1442826,-543,44,1407,10253
27284404,4000,0,-0.19588338,-0.619179,-10.615833,-0.0023256862,0.011324681,-0.038528718,63.37673,156.9064,0.0047884034,1442826,-929,153,1784,10244
27384416,4012,0,-0.1268762,0.378161,-10.033539,-0.00041983253,0.006366258,-0.03887454,63.42105,156.9064,0.0047884034,1442826,-443,-296,3019,10260
27488404,3994,0,0.9592142,1.0580902,-10.470604,0.0042633507,-0.010388122,-0.039336614,63.4072,156.9064,0.0047884034,1442826,304,737,3353,10255
27588404,4000,0,0.26807505,0.6574856,-10.841174,0.00048222282,-0.0030531774,-0.058104828,63.4072,156.9064,0.0047884034,1442826,204,-456,3249,10255
27692404,4000,0,0.523185,-1.1813494,-11.0171,-0.0017852118,0.0012885196,-0.04168737,63.41828,156.9064,0.0047884034,1442826,-15,-275,3341,10259
27792404,3984,0,0.30856404,-1.0428975,-11.473355,0.00015142956,-0.0043486976,-0.040331714,63.426594,156.9064,0.0047884034,1442826,-662,226,2211,10262
27892413,4009,0,-0.3885384,0.24766845,-10.4423065,-0.0011182758,0.010357732,-0.041904736,63.41828,156.9064,0.0047884034,1442826,-625,-610,3060,10259
27998054,4049,0,0.20538735,1.2759495,-10.430971,0.0054587456,0.010462904,-0.048059605,63.434902,156.9064,0.0047884034,1442826,-199,-1001,2892,10265
28098051,4046,0,0.5687994,0.62336814,-11.477131,-0.00023606716,6.7451037e-06,-0.042802125,63.41828,156.9064,0.0047884034,1442826,-326,-284,2390,10259
28198005,4000,0,0.54749554,-0.34092587,-11.749361,0.0014231493,-0.006777904,-0.042493768,63.462605,156.9064,0.0047884034,1442826,76,168,3316,10275
28302005,3967,0,0.39743185,-1.0636324,-12.127728,0.0047820373,0.0048183994,-0.053255595,63.40443,156.9064,0.0047884034,1442826,949,685,2542,10254
28402006,4001,0,-0.34456265,-0.78261906,-11.734687,0.0023633037,0.0120362835,-0.05591546,63.45706,156.9064,0.0047884034,1442826,104,239,2256,10273
28502011,3997,0,-0.3336995,0.29445538,-11.257629,0.0029571615,0.017444449,-0.05265766,63.43767,156.9064,0.0047884034,1442826,-162,-505,2199,10266
28606050,3999,0,0.15440847,1.4279895,-9.932991,0.005345066,-0.0017380432,-0.040223435,63.465374,156.9064,0.0047884034,1442826,489,-70,1965,10276
28706052,4047,0,0.73308516,0.38508394,-9.214177,-0.0012030493,-0.010622913,-0.04569837,63.479225,156.9064,0.0047884034,1442826,-255,333,2512,10281
28806011,3974,0,0.49246857,-1.0865958,-9.477931,0.0026042121,-0.016502496,-0.032154903,63.47645,156.9064,0.0047884034,1442826,-139,587,2894,10280
28907623,4018,0,0.050453603,-1.1227924,-9.890418,0.004184941,0.0015227962,-0.033171646,63.473682,156.9064,0.0047884034,1442826,588,-175,1005,10279
29011621,4017,0,0.058952753,0.8688827,-7.8287315,-0.009400237,0.008781687,-0.036573965,63.465374,156.9064,0.0047884034,1442826,-584,420,2849,10276
29111604,4000,0,-0.16008717,1.2460319,-7.8491697,0.007710093,0.005231268,-0.036145374,63.47645,156.9064,0.0047884034,1442826,-89,-614,2510,10280
29211605,3990,0,0.4279988,0.2367272,-8.2583065,0.0061305384,-0.0009741507,-0.020432366,63.512466,156.9064,0.0047884034,1442826,-210,73,1904,10293
29315619,4015,0,-0.3133571,-0.80178684,-8.914368,0.001328235,0.0028300404,-0.0463241,63.45983,156.9064,0.0047884034,1442826,-54,-560,2598,10274
29419604,4000,0,0.4801361,0.17244864,-7.8738933,-0.007578423,0.0066971974,-0.03161107,63.506924,156.9064,0.0047884034,1442826,-129,849,1114,10291
29519605,4001,0,0.6547995,0.7035443,-7.1166396,-0.0027691233,-0.0005570606,-0.027149417,63.520775,156.9064,0.0047884034,1442826,-277,652,1660,10296
29623604,3993,0,-0.22540113,-0.09617976,-8.680626,-0.0017781025,-0.0045541227,-0.042080324,63.534626,156.9064,0.0047884034,1442826,-104,-884,-137,10301
29723604,3978,0,-0.4394774,-0.26581207,-8.219157,0.0029963278,0.007220117,-0.025677025,63.529083,156.9064,0.0047884034,1442826,343,-871,279,10299
29824404,4800,0,-0.57285917,0.2003318,-8.325398,-0.0061671324,0.00240644,-0.040190976,63.554016,156.9064,0.0047884034,1442826,-736,-275,158,10308
29929235,4024,0,-0.1822858,0.5617789,-7.7598243,0.011727858,0.00543031,-0.02223362,63.534626,156.9064,0.0047884034,1442826,128,-397,863,10301
30029217,4012,0,-0.12243267,0.09742392,-8.449964,0.00794766,0.0043444145,-0.01827654,63.537395,156.9064,0.0047884034,1442826,135,-742,491,10302
30129205,4000,0,0.2201464,-0.4650939,-8.745968,0.015679149,0.0001907202,-0.01915848,63.562325,156.9064,0.0047884034,1442826,-275,-792,-845,10311
30233204,3999,0,0.6329037,0.035544895,-8.477598,0.007399468,0.0038518733,-0.030500367,63.565098,156.9064,0.0047884034,1442826,-969,730,1031,10312
30333205,3993,0,0.36469248,0.6473521,-8.735772,-0.0015668485,0.0033525,-0.035659246,63.573406,156.9064,0.0047884034,1442826,-41,639,1100,10315
30437211,3976,0,0.4137046,0.27352232,-9.103608,-0.0036469596,-0.0049969982,-0.05090888,63.556786,156.9064,0.0047884034,1442826,409,131,4509,10309
30537221,3996,0,0.59188926,-0.57844895,-9.353415,-0.0006531995,-0.0014231992,-0.036040887,63.584488,156.9064,0.0047884034,1442826,-73,49,3907,10319
30637205,4001,0,0.10334442,-0.38385314,-10.235863,-0.005453552,0.0040682773,-0.03990317,63.61773,156.9064,0.0047884034,1442826,140,173,3285,10331
30741204,3999,0,0.16335998,0.532077,-9.51414,-0.007501367,0.0035201535,-0.038579185,63.60111,156.9064,0.0047884034,1442826,-1018,327,2471,10325
30838804,4000,0,-0.11641966,1.1751895,-10.155032,-0.011277572,0.017126968,-0.051455237,63.590027,156.9064,0.0047884034,1442826,-977,-97,919,10321
30942825,4014,0,0.3270477,1.5308615,-10.301213,0.0012739681,-0.010461658,-0.052385762,63.603878,156.9064,0.0047884034,1442826,1279,429,4036,10326
31042804,4000,0,0.69837457,0.22721894,-11.016042,-0.00062177406,-0.0078853015,-0.042186115,63.612186,156.9064,0.0047884034,1442826,385,-16,598,10329
31146804,4000,0,0.26317632,-1.0527623,-10.986755,-0.006525336,0.0038736549,-0.048150793,63.603878,156.9064,0.0047884034,1442826,907,-230,2024,10326
31246813,3998,0,-0.07836943,-0.8223905,-11.2096,-0.0007945648,0.011746372,-0.03769871,63.6205,156.9064,0.0047884034,1442826,-118,-33,1117,10332
31350815,4000,0,0.2669795,1.8065381,-9.634627,0.01132425,0.0050075194,-0.04100056,63.664818,156.9064,0.0047884034,1442826,-182,-530,2872,10348
31454804,3993,0,0.39286664,0.6603062,-10.378539,0.011115192,-0.0057225246,-0.04843388,63.664818,156.9064,0.0047884034,1442826,943,214,2719,10348
31554804,4000,0,0.243849,-0.54902893,-11.124686,-0.00032299454,-0.014840638,-0.058224607,63.64266,156.9064,0.0047884034,1442826,-47,-677,1122,10340
31658845,4040,0,0.25437602,-0.8613138,-10.957086,0.00204347,0.00029513217,-0.052867353,63.64266,156.9064,0.0047884034,1442826,539,-1,986,10340
31759604,4000,0,0.5376721,0.33504322,-10.284817,0.011746328,0.0057253568,-0.029896429,63.66205,156.9064,0.0047884034,1442826,-122,-106,2003,10347
31863604,4000,0,0.06645697,1.5103787,-9.379283,0.0036942854,0.006117557,-0.021635376,63.65374,156.9064,0.0047884034,1442826,170,-485,3009,10344
31963610,4006,0,0.24366546,1.3861191,-9.949734,-0.006460463,-0.0017431513,-0.04605092,63.684208,156.9064,0.0047884034,1442826,722,669,3487,10355
32067628,4024,0,0.9123055,-0.9317234,-10.133611,0.00061771565,-0.0071220715,-0.032354586,63.7036,156.9064,0.0047884034,1442826,-673,41,1138,10362
32167604,3968,0,0.038272347,-0.88668835,-9.954926,-0.0054986794,0.002846039,-0.057698343,63.68698,156.9064,0.0047884034,1442826,-580,94,3081,10356
32267640,4024,0,0.6289879,-0.1752648,-9.835999,0.00015040272,0.00805481,-0.052587673,63.7036,156.9064,0.0047884034,1442826,-316,184,560,10362
32371605,4001,0,0.2428681,1.5653328,-9.550187,0.011537024,0.004585299,-0.033971284,63.684208,156.9064,0.0047884034,1442826,368,142,2001,10355
32471603,3996,0,0.60763574,1.279253,-9.341584,-0.0029703383,-0.0011379872,-0.030331327,63.71191,156.9064,0.0047884034,1442826,366,490,2055,10365
32571605,4001,0,0.92183614,0.043437734,-9.857748,0.009640721,-0.0063692364,-0.04613367,63.71191,156.9064,0.0047884034,1442826,461,86,2549,10365
32675604,3993,0,0.2640514,-0.94115466,-10.049671,-0.0045249714,0.0014480725,-0.04939939,63.722992,156.9064,0.0047884034,1442826,-149,-218,346,10369
32775604,3965,0,0.50797033,-0.4031602,-9.313203,0.001918907,0.003953634,-0.018145282,63.742382,156.9064,0.0047884034,1442826,-587,582,1998,10376
32879605,3994,0,0.36477795,1.4931589,-8.128931,0.010584353,-0.0028787998,-0.021288592,63.72853,156.9064,0.0047884034,1442826,-215,-474,977,10371
32981204,3977,0,1.115011,0.5195869,-7.148992,-0.0034349402,0.006541112,-0.044376794,63.756233,156.9064,0.0047884034,1442826,475,1863,3238,10381
33085211,4006,0,-0.3682537,-0.25997412,-8.601385,-0.009243945,-0.0010149709,-0.04350409,63.756233,156.9064,0.0047884034,1442826,-61,-470,285,10381
33185210,4005,0,-0.450211,0.38931796,-8.866321,-0.0022638787,0.0077411565,-0.041858897,63.778393,156.9064,0.0047884034,1442826,560,-1005,682,10389
33289222,4017,0,0.13844208,1.3620489,-8.710032,-0.0015691015,0.0038092895,-0.036199037,63.74792,156.9064,0.0047884034,1442826,-371,262,2043,10378
33389204,4000,0,0.25540608,1.6902169,-9.6536045,0.015816111,0.005800184,-0.057270955,63.7867,156.9064,0.0047884034,1442826,752,-338,-74,10392
33489211,4006,0,0.10766923,0.51786906,-9.222275,-0.0048959106,-0.0096197575,-0.028799586,63.775623,156.9064,0.0047884034,1442826,811,165,3784,10388
33593205,4001,0,0.39772737,-1.1065565,-9.5801,0.0008620565,-0.0056984965,-0.033434086,63.806095,156.9064,0.0047884034,1442826,-341,506,5699,10399
33693204,3999,0,0.4780693,-1.261861,-10.345628,-0.0040666927,0.006851997,-0.029693445,63.76454,156.9064,0.0047884034,1442826,-452,669,2390,10384
33797209,3974,0,-0.5233337,0.560718,-9.5196,0.0011874768,0.008371836,-0.030309808,63.761772,156.9064,0.0047884034,1442826,-1057,-505,3855,10383
33898846,4037,0,0.080708295,2.1162071,-9.399784,0.0085762255,0.010241106,-0.03546685,63.828255,156.9064,0.0047884034,1442826,-474,-87,4132,10407
34002804,4000,0,0.82333064,0.96973026,-10.77904,0.0019246696,-0.014533447,-0.04866116,63.806095,156.9064,0.0047884034,1442826,-65,-213,1233,10399
34102804,3989,0,0.40152803,0.18480073,-11.014764,-0.00027279166,-0.00035684512,-0.035899494,63.817173,156.9064,0.0047884034,1442826,362,106,2630,10403
34202839,4035,0,0.651152,-0.25337037,-11.433669,0.005071163,-0.0015163869,-0.049420424,63.828255,156.9064,0.0047884034,1442826,1149,133,634,10407
34306804,4000,0,-0.012443876,-0.7564473,-10.833547,-0.0028867722,0.005017923,-0.04085508,63.822716,156.9064,0.0047884034,1442826,-569,-222,2182,10405
34406804,3999,0,-0.39952147,-0.06562,-10.294804,0.010469029,0.009314195,-0.021499805,63.853184,156.9064,0.0047884034,1442826,-931,64,5450,10416
34510843,4039,0,-0.11042598,1.5735333,-10.432377,-0.005943295,0.004997343,-0.041632455,63.839333,156.9064,0.0047884034,1442826,-447,-282,1110,10411
34610807,4002,0,-0.1420357,1.5204341,-10.450609,0.00392601,0.003320123,-0.043560404,63.847645,156.9064,0.0047884034,1442826,153,-731,1924,10414
34710804,3969,0,0.38025373,0.91137403,-10.498259,0.006857713,-0.0031219092,-0.04338345,63.864265,156.9064,0.0047884034,1442826,1147,-156,2154,10420
34812404,3993,0,0.706281,-0.6410654,-10.33791,-0.00142362,-0.012922473,-0.05129148,63.850414,156.9064,0.0047884034,1442826,-268,227,2414,10415
34916404,4000,0,-0.19784077,-0.24165276,-10.400357,-0.0130496,0.0039545773,-0.052081525,63.844875,156.9064,0.0047884034,1442826,-31,180,1927,10413
35020404,4000,0,0.06282551,1.5506613,-9.481682,0.014812587,0.0073369695,-0.029830784,63.880886,156.9064,0.0047884034,1442826,225,175,2741,10426
35120438,4012,0,-0.25697818,1.5475483,-9.694482,0.0015167799,-0.0006264703,-0.0547844,63.853184,156.9064,0.0047884034,1442826,56,-658,3065,10416
35224442,4038,0,0.20706163,-0.80025786,-10.791741,-0.00043960463,-0.014653638,-0.05621762,63.897507,156.9064,0.0047884034,1442826,262,-215,674,10432
35324404,3993,0,-0.20725334,-0.9805975,-10.760992,0.003958984,-0.0019908317,-0.060444433,63.891968,156.9064,0.0047884034,1442826,729,-426,1004,10430
35424404,4000,0,-0.590154,-0.9358714,-9.519987,-1.2317963e-05,0.005031963,-0.032061122,63.903046,156.9064,0.0047884034,1442826,-771,156,4953,10434
35528404,4000,0,-0.07083274,1.3763108,-9.488482,0.007339362,0.012257638,-0.04626517,63.911358,156.9064,0.0047884034,1442826,-110,-553,1211,10437
35628404,3982,0,-0.10051183,1.797697,-9.302207,-0.0014783035,0.011462125,-0.044920266,63.886425,156.9064,0.0047884034,1442826,460,-518,2462,10428
35730004,3980,0,0.49413863,1.112382,-8.96865,-0.0015905269,0.004299296,-0.045073748,63.933517,156.9064,0.0047884034,1442826,874,680,1636,10445
35830025,3987,0,-0.17992909,-0.16644917,-9.502683,-0.00021998648,-0.008096169,-0.038581092,63.905815,156.9064,0.0047884034,1442826,689,-486,422,10435
35934007,3972,0,-0.17349644,-0.7270334,-9.378742,0.0029899823,-0.0015478644,-0.039475463,63.925205,156.9064,0.0047884034,1442826,-899,-497,2493,10442
36038015,3999,0,-0.21357986,0.8704198,-8.766567,-0.006497147,0.011335453,-0.025205685,63.9446,156.9064,0.0047884034,1442826,-556,-212,2590,10449
36142004,3950,0,-0.23623659,1.702495,-9.208602,-0.009566685,0.0018791957,-0.05297234,63.96676,156.9064,0.0047884034,1442826,64,-165,3384,10457
36242053,4048,0,0.6708962,0.649987,-9.749709,-0.0019992022,0.0012237672,-0.048420195,63.950138,156.9064,0.0047884034,1442826,-141,5,849,10451
36346005,4001,0,0.15276748,-1.3157427,-10.505299,-0.002876741,0.0006539464,-0.041976314,63.950138,156.9064,0.0047884034,1442826,-236,271,943,10451
36446026,3974,0,-0.24818985,-1.0973768,-10.208668,-0.0004852789,-0.004061564,-0.040977325,63.98338,156.9064,0.0047884034,1442826,-170,-279,2051,10463
36546004,3999,0,-0.38861543,-0.10169334,-9.904788,-0.0014388905,0.0093609495,-0.040534902,63.98338,156.9064,0.0047884034,1442826,-1068,-277,2100,10463
36647605,3990,0,0.10300264,1.2982448,-9.271782,0.0012514275,0.0025527794,-0.027554601,63.9446,156.9064,0.0047884034,1442826,-860,80,2619,10449
36747604,3999,0,-0.030550316,1.8762319,-9.200533,0.008337753,0.0076380605,-0.040299166,63.98615,156.9064,0.0047884034,1442826,21,-196,2419,10464
36851604,4000,0,0.108401746,0.018690057,-9.944657,0.006673309,-0.0065394635,-0.04683908,63.96122,156.9064,0.0047884034,1442826,293,-214,3183,10455
36951636,4032,0,0.9468249,-0.7312459,-10.440499,-0.0034494177,0.0040387805,-0.05255977,63.98061,156.9064,0.0047884034,1442826,365,744,2631,10462
37051605,3996,0,-0.05799456,-1.0844437,-10.748732,-0.0024647838,-0.00037657958,-0.061929848,63.98892,156.9064,0.0047884034,1442826,810,-225,224,10465
37155619,4009,0,-0.06425115,0.9100298,-9.461742,0.004605543,0.016296068,-0.037895285,64.03047,156.9064,0.0047884034,1442826,210,148,920,10480
37259604,4000,0,0.5255482,2.2234695,-9.22368,0.016394911,0.008102432,-0.03982457,64.01662,156.9064,0.0047884034,1442826,-196,27,2536,10475
37359605,4001,0,-0.115418814,1.5666873,-9.580001,-0.0031994528,0.0018423477,-0.050762113,64.00277,156.9064,0.0047884034,1442826,986,-628,2482,10470
37463604,4000,0,0.4322994,-1.0059189,-10.250216,0.001955329,-0.010323331,-0.037747458,64.03324,156.9064,0.0047884034,1442826,54,-151,2938,10481
37564404,4000,0,0.29645503,-1.3318416,-10.091375,-0.0070192497,0.00020332524,-0.042217534,64.02493,156.9064,0.0047884034,1442826,97,688,1780,10478
37664410,3976,0,-0.37132517,-0.6089576,-10.134364,0.005081103,-0.0021719956,-0.04281848,64.04986,156.9064,0.0047884034,1442826,-500,-176,2639,10487
37768404,4000,0,0.56212884,1.3365432,-8.990809,-0.0024446016,0.0023109159,-0.037047297,64.03324,156.9064,0.0047884034,1442826,-722,838,2431,10481
37868423,4019,0,0.14177197,1.7461903,-10.0777445,0.011180087,-0.0013007555,-0.039594866,64.08587,156.9064,0.0047884034,1442826,340,-469,1437,10500
37968404,4000,0,-0.067957245,1.094023,-9.799855,-0.0003321719,-0.014164541,-0.053098906,64.06648,156.9064,0.0047884034,1442826,190,-562,2715,10493
38072404,4000,0,0.19542694,-0.9414646,-10.367744,0.0073979385,-0.0021321191,-0.029857773,64.055405,156.9064,0.0047884034,1442826,883,107,914,10489
38172404,4000,0,-0.19256176,-1.064478,-10.384947,-0.0025383225,-0.0058157,-0.054804735,64.06371,156.9064,0.0047884034,1442826,-574,-287,1467,10492
38276404,3968,0,0.53566676,0.9702864,-9.450079,0.007564527,0.008847006,-0.012816771,64.094185,156.9064,0.0047884034,1442826,-677,721,1776,10503
38380404,4000,0,-0.07033517,1.4935696,-9.103247,-0.003540017,0.010765873,-0.027503077,64.10803,156.9064,0.0047884034,1442826,907,-498,1905,10508
38480441,4037,0,0.15291299,0.21733995,-10.015181,-0.0026550465,-0.0077551603,-0.03731443,64.08033,156.9064,0.0047884034,1442826,117,-513,2062,10498
38584436,4032,0,0.35932034,-1.2014852,-10.339139,0.0012844605,-0.006938498,-0.035718445,64.127426,156.9064,0.0047884034,1442826,711,379,1960,10515
38685222,4818,0,0.10973724,-0.46270356,-10.602336,0.005237112,0.0013927282,-0.05512735,64.099724,156.9064,0.0047884034,1442826,678,-158,-1,10505
38786044,4038,0,0.42442343,0.6530284,-9.151363,-0.001920324,0.009019313,-0.034546077,64.11911,156.9064,0.0047884034,1442826,-938,622,2594,10512
38890043,4039,0,0.23862544,1.4313323,-9.573238,0.00062841293,0.0021624314,-0.057402134,64.12188,156.9064,0.0047884034,1442826,1604,-153,2052,10513
38990006,4000,0,0.4025371,0.16253014,-9.709555,-0.0062264856,-0.00874821,-0.03731807,64.14681,156.9064,0.0047884034,1442826,524,180,2098,10522
39090005,4000,0,0.46374553,-0.85739887,-10.0285425,0.005450556,-0.008822706,-0.03794023,64.132965,156.9064,0.0047884034,1442826,561,-365,3168,10517
39190057,4023,0,0.38644513,-1.4337726,-10.656399,0.005660726,-0.0027635717,-0.04961691,64.08587,156.9064,0.0047884034,1442826,708,-111,1338,10500
39294014,3991,0,-0.37239525,-0.025095893,-10.0692835,-0.009914171,0.013105311,-0.058091242,64.138504,156.9064,0.0047884034,1442826,350,-853,1217,10519
39398004,3999,0,0.64240086,1.1726065,-8.987345,0.009253763,0.0042044763,-0.03600232,64.14404,156.9064,0.0047884034,1442826,1185,468,2783,10521
39502004,3955,0,0.25065008,-0.07579097,-9.482582,-0.00491327,0.00052870624,-0.05057358,64.12466,156.9064,0.0047884034,1442826,1320,-447,2659,10514
39599604,4800,0,0.53167164,-0.4177031,-9.978965,-0.004006319,-0.005519781,-0.043861724,64.18836,156.9064,0.0047884034,1442826,343,222,1324,10537
39703604,3978,0,0.07392233,-0.80194813,-9.67653,-0.00032821618,0.0060499855,-0.038720187,64.16067,156.9064,0.0047884034,1442826,-527,421,3338,10527
39803604,3966,0,-0.020670844,-0.06726162,-9.502001,0.0073379213,0.007593616,-0.038835347,64.19668,156.9064,0.0047884034,1442826,-1137,-366,2793,10540
39907654,4050,0,0.42705518,1.6635346,-9.622136,0.004227564,0.0041130963,-0.046502396,64.20222,156.9064,0.0047884034,1442826,361,7,2328,10542
40007608,4004,0,0.11271519,1.6873578,-9.50724,0.0062681204,0.0019798384,-0.046418358,64.174515,156.9064,0.0047884034,1442826,1237,-441,1192,10532
40107604,3999,0,0.05020715,0.5539383,-10.066078,0.0067936936,-0.0052378904,-0.05369176,64.19668,156.9064,0.0047884034,1442826,917,-346,2375,10540
40211604,4000,0,0.3490299,-1.3658085,-10.546043,-0.0028534373,-0.004783174,-0.03622525,64.177284,156.9064,0.0047884034,1442826,-214,319,1827,10533
40311662,4058,0,0.4564664,-0.7835383,-10.21105,0.0031904378,0.0010676628,-0.028511988,64.19391,156.9064,0.0047884034,1442826,50,395,1815,10539
40411612,4008,0,0.07408675,0.36994407,-10.137704,0.008734692,0.009595204,-0.031361826,64.249306,156.9064,0.0047884034,1442826,31,-6,1515,10559
40517205,3950,0,0.5657194,1.4362968,-9.202239,-0.0007630846,0.0036878723,-0.043593336,64.210526,156.9064,0.0047884034,1442826,41,443,2729,10545
40621227,4000,0,0.4225361,-0.4377501,-9.969362,-0.0056494265,-0.00080154696,-0.031082662,64.213295,156.9064,0.0047884034,1442826,897,194,2255,10546
40721205,4001,0,0.11068075,-1.6411455,-10.07113,-0.0015191552,0.00044707643,-0.029129174,64.213295,156.9064,0.0047884034,1442826,114,430,3258,10546
40825205,4000,0,0.0018138186,-0.14224479,-10.295037,0.004542188,0.00864672,-0.033904605,64.254845,156.9064,0.0047884034,1442826,-904,-650,834,10561
40925204,3999,0,0.02372289,0.6612383,-9.479293,-0.006731873,0.01615758,-0.03335487,64.28532,156.9064,0.0047884034,1442826,-102,-68,2190,10572
41025204,3993,0,0.5581945,1.469777,-9.120338,0.0002881689,0.014778013,-0.01894885,64.254845,156.9064,0.0047884034,1442826,339,893,2964,10561
41129211,4006,0,0.69845974,0.8641261,-9.606148,-0.0011858759,0.00042320733,-0.03957109,64.27978,156.9064,0.0047884034,1442826,728,335,2091,10570
41229205,4000,0,0.63458127,-0.736219,-10.390357,0.005498486,-0.01069183,-0.044115793,64.293625,156.9064,0.0047884034,1442826,238,69,2246,10575
41329223,4018,0,0.17293592,-1.4378067,-10.453183,-0.002270482,-0.010967311,-0.040263675,64.27701,156.9064,0.0047884034,1442826,-306,-188,2423,10569
41430804,4000,0,-0.028760467,-1.1720635,-10.06977,-0.005929588,0.017190976,-0.026303347,64.26316,156.9064,0.0047884034,1442826,-36,220,970,10564
41534804,3970,0,0.2668756,1.3724351,-9.406659,-0.0012243018,0.013647215,-0.027808936,64.27147,156.9064,0.0047884034,1442826,777,98,1367,10567
41634804,3997,0,0.35309964,1.5538623,-9.414318,0.0077062408,-0.0046262112,-0.028969167,64.31302,156.9064,0.0047884034,1442826,409,-173,2180,10582
41738804,4000,0,0.4404868,-0.276114,-10.020273,0.010337774,-0.0036789048,-0.041120265,64.293625,156.9064,0.0047884034,1442826,1516,-76,2853,10575
41842804,3999,0,-0.09097939,-1.2987446,-10.015864,0.0025065034,0.0026244486,-0.028198268,64.32133,156.9064,0.0047884034,1442826,816,-113,3101,10585
41942804,4000,0,-0.220071,-0.9501901,-9.970955,-0.0070096375,0.015414131,-0.045209512,64.31025,156.9064,0.0047884034,1442826,-291,294,553,10581
42042804,4000,0,0.1969449,0.4621782,-9.884423,0.008437372,0.004679968,-0.028435241,64.31025,156.9064,0.0047884034,1442826,-497,5,2318,10581
42146804,3945,0,0.18118246,1.7462493,-9.448034,0.0038888056,0.0013487955,-0.047666106,64.3241,156.9064,0.0047884034,1442826,231,-722,1721,10586
42246823,3990,0,0.706805,1.1719756,-9.265907,0.0011140903,-0.004279274,-0.034076795,64.36288,156.9064,0.0047884034,1442826,672,602,1946,10600
42348404,3970,0,0.5073808,-0.18856624,-9.827023,0.01044107,-0.0093177445,-0.048242867,64.35734,156.9064,0.0047884034,1442826,625,99,4223,10598
42448430,4003,0,0.6408228,-0.95736116,-10.313031,0.00016143912,-0.0036398305,-0.03531527,64.36288,156.9064,0.0047884034,1442826,691,245,979,10600
42552421,4017,0,0.37554762,-0.9937171,-9.596992,0.0006773986,0.003976852,-0.024557529,64.35734,156.9064,0.0047884034,1442826,-1454,181,2246,10598
42652404,4000,0,0.08625567,1.205202,-9.652735,0.013409422,0.016628562,-0.037315734,64.37396,156.9064,0.0047884034,1442826,384,-160,1229,10604
42756404,4000,0,0.60600084,1.9157939,-9.383391,0.013342085,0.005060198,-0.02667448,64.36842,156.9064,0.0047884034,1442826,573,-98,2982,10602
42860404,4000,0,0.18656541,-0.588413,-10.331398,0.004821139,-0.011078896,-0.04155011,64.35457,156.9064,0.0047884034,1442826,29,-139,1362,10597
42960410,4006,0,0.72122085,-1.2544712,-10.300018,-0.0012705985,0.0010629409,-0.032706305,64.36565,156.9064,0.0047884034,1442826,-147,754,1416,10601
43064404,4000,0,-0.13903189,-0.504226,-10.197464,0.00026131593,0.004289121,-0.04813715,64.36842,156.9064,0.0047884034,1442826,-813,-180,504,10602
43164432,4028,0,-0.1474732,1.0460588,-9.583735,0.0018404122,0.011825626,-0.048163127,64.37396,156.9064,0.0047884034,1442826,-499,-753,960,10604
43266011,4006,0,0.047516122,1.6308391,-9.306432,0.006371038,0.0085559115,-0.021631896,64.401665,156.9064,0.0047884034,1442826,227,-462,1734,10614
43366005,3968,0,0.7599656,1.2132852,-9.355869,-0.004885347,0.0018145555,-0.04370841,64.37673,156.9064,0.0047884034,1442826,-81,-81,1189,10605
43470081,4077,0,0.59587824,-1.442051,-10.559728,-0.004947642,-0.0028790066,-0.041918635,64.41274,156.9064,0.0047884034,1442826,124,99,2378,10618
43570004,3999,0,0.30562773,-1.637884,-10.28015,-0.0011786949,0.005069688,-0.021076534,64.42105,156.9064,0.0047884034,1442826,-105,803,2852,10621
43674004,3970,0,-0.32603225,0.18184197,-9.44367,-0.0032956065,0.0075778426,-0.04110647,64.437675,156.9064,0.0047884034,1442826,-521,-367,2007,10627
43774005,3967,0,0.032171197,1.2301666,-8.873987,-0.0059797512,0.008733419,-0.030620623,64.42382,156.9064,0.0047884034,1442826,-202,419,2875,10622
43878038,4028,0,0.11322351,0.9992499,-9.686367,0.0063086594,-0.0038878168,-0.046640925,64.443214,156.9064,0.0047884034,1442826,-1,-642,2056,10629
43982050,4017,0,0.4031598,-1.1141171,-10.393499,-0.00048618263,-0.006647494,-0.030619688,64.443214,156.9064,0.0047884034,1442826,291,775,3092,10629
44079628,4787,0,0.4508453,-0.83612597,-10.061251,-0.0036522988,-0.0062345564,-0.06252713,64.437675,156.9064,0.0047884034,1442826,866,314,1913,10627
44183604,4000,0,0.106246844,-0.31601942,-9.970238,-0.005698311,0.0074105226,-0.032599848,64.43213,156.9064,0.0047884034,1442826,98,764,2697,10625
44283604,3969,0,-0.3563852,1.2391651,-9.61287,-0.0063671446,0.006611299,-0.0657213,64.43213,156.9064,0.0047884034,1442826,-543,-887,1348,10625
44387606,4002,0,0.2747897,1.0066495,-9.842581,0.0013878065,-0.014122779,-0.03168478,64.43213,156.9064,0.0047884034,1442826,-656,-131,1648,10625
44487604,3963,0,0.70635265,0.10858163,-10.031266,0.00029793277,-0.0006430736,-0.032200333,64.45983,156.9064,0.0047884034,1442826,878,109,1899,10635
44587604,3999,0,0.3519091,-0.95952475,-10.156045,-0.0004408327,-0.010475065,-0.04241896,64.479225,156.9064,0.0047884034,1442826,502,14,2538,10642
44691604,4000,0,0.20107561,-0.835882,-10.417291,-0.00509357,0.0005728152,-0.03406856,64.479225,156.9064,0.0047884034,1442826,-48,-92,153,10642
44791604,4000,0,-0.24452122,-0.12098892,-10.176897,-0.0039714035,-0.0010121181,-0.041561153,64.46537,156.9064,0.0047884034,1442826,-1535,-618,-363,10637
44891605,3990,0,-0.27037525,1.1282197,-9.665327,0.0003992361,0.0079598995,-0.03959537,64.47092,156.9064,0.0047884034,1442826,-468,-950,511,10639
44997204,4000,0,0.2439179,0.08037517,-9.7019415,-0.0022182143,-0.0016705755,-0.027833024,64.45706,156.9064,0.0047884034,1442826,951,823,2609,10634
45101204,3999,0,0.5105383,-0.7623943,-9.869997,0.008115049,0.006680784,-0.026672738,64.51247,156.9064,0.0047884034,1442826,885,467,3498,10654
45201204,3994,0,0.06524099,-0.4414496,-9.385764,-0.0004869207,-0.009521296,-0.031923924,64.49307,156.9064,0.0047884034,1442826,630,714,4269,10647
45305204,3982,0,-0.3551297,1.3761406,-9.539191,-0.007384085,0.0048180446,-0.051588196,64.484764,156.9064,0.0047884034,1442826,474,-855,1428,10644
45405251,4046,0,-0.02720335,1.4909109,-9.810842,0.014948802,0.005789214,-0.04501911,64.48753,156.9064,0.0047884034,1442826,-305,-863,485,10645
45505205,3994,0,0.551339,0.83454984,-9.854413,0.0035390055,-0.014648626,-0.054723017,64.5097,156.9064,0.0047884034,1442826,1257,444,2560,10653
45609211,4007,0,0.069591604,-1.1275522,-10.298983,-0.001315735,-0.0044191163,-0.03833274,64.52631,156.9064,0.0047884034,1442826,-301,-836,1221,10659
45709228,4024,0,-0.035813067,-0.9009023,-10.377198,0.0029729956,-0.0047930744,-0.05075681,64.49584,156.9064,0.0047884034,1442826,-1218,-1125,-1614,10648
45809209,3974,0,0.22570877,0.102444336,-9.579992,0.0060743596,0.008600788,-0.019800244,64.523544,156.9064,0.0047884034,1442826,-124,462,2195,10658
45910804,3994,0,-0.054285236,0.69888914,-9.349297,-0.014796844,-0.0022376422,-0.05691767,64.53185,156.9064,0.0047884034,1442826,-2108,147,1460,10661
46014804,4000,0,0.5121311,0.66225624,-10.007682,0.015442572,0.0005542665,-0.025472812,64.54294,156.9064,0.0047884034,1442826,402,-665,256,10665
46114804,3993,0,0.9475785,-0.46767056,-10.030607,0.000747459,-0.006527907,-0.026540047,64.556786,156.9064,0.0047884034,1442826,908,335,1792,10670
46218804,3965,0,-0.12907284,-0.641629,-9.964727,0.008321417,0.007701919,-0.028208435,64.57618,156.9064,0.0047884034,1442826,1220,173,3045,10677
46322808,3983,0,-0.16849002,0.86147755,-9.287013,-0.016398218,-0.0008705454,-0.07058477,64.54848,156.9064,0.0047884034,1442826,-1539,-98,807,10667
46422818,4014,0,-0.4133722,1.1129515,-9.456391,-0.010054614,0.00019940501,-0.0523137,64.53462,156.9064,0.0047884034,1442826,802,-470,2762,10662
46522805,4001,0,0.37030005,0.82200587,-9.758693,0.007522758,-0.0044127507,-0.03238695,64.54017,156.9064,0.0047884034,1442826,-357,-511,2212,10664
46626804,3999,0,0.060445335,-1.272624,-9.634189,-0.005904161,-0.0035020867,-0.036030833,64.56786,156.9064,0.0047884034,1442826,-165,267,3703,10674
46728404,4800,0,-0.058764298,-1.040415,-9.679872,-0.0020749914,0.010409581,-0.046364114,64.54571,156.9064,0.0047884034,1442826,-150,58,3253,10666
46828404,4000,0,-0.13633007,-0.11871146,-9.582627,-0.004006515,9.752903e-05,-0.052568164,64.57895,156.9064,0.0047884034,1442826,-784,-621,2028,10678
46928404,4000,0,-0.4200215,1.0927162,-9.531752,0.006483388,0.01026176,-0.047981698,64.58726,156.9064,0.0047884034,1442826,429,-526,2396,10681
47032404,4000,0,0.46840653,0.035494298,-9.506555,0.005229353,-0.0025004088,-0.022298835,64.57063,156.9064,0.0047884034,1442826,-162,365,2210,10675
47132434,3992,0,0.39219505,-0.69650584,-10.438034,0.003658524,-0.01141265,-0.039319113,64.57895,156.9064,0.0047884034,1442826,-614,-397,-1097,10678
47236441,4037,0,-0.21351042,-0.77301055,-10.015422,-0.005992902,0.006771939,-0.0436234,64.58726,156.9064,0.0047884034,1442826,646,-94,2892,10681
47336404,3994,0,-0.22634444,0.09493701,-9.922583,-0.0017726388,0.009311614,-0.0309354,64.58726,156.9064,0.0047884034,1442826,-81,-309,1862,10681
47436404,4000,0,-0.44073853,0.8884476,-9.583831,0.005663879,0.010173768,-0.032254398,64.601105,156.9064,0.0047884034,1442826,136,-509,2307,10686
47540404,3996,0,0.48482177,0.80062336,-9.896588,0.001667663,-0.0046545705,-0.036211733,64.61219,156.9064,0.0047884034,1442826,1020,449,2266,10690
47641204,4000,0,0.6807847,-0.33989364,-10.074661,0.007466439,-0.01141983,-0.024612207,64.62327,156.9064,0.0047884034,1442826,1020,561,2797,10694
47741204,3962,0,0.4266234,-1.3687097,-10.547227,0.0029023325,-0.0071275993,-0.048427366,64.598335,156.9064,0.0047884034,1442826,-299,14,2147,10685
47845211,4003,0,-0.1912365,-0.6319751,-9.611543,-0.005651683,0.015368364,-0.02504734,64.61496,156.9064,0.0047884034,1442826,22,722,3133,10691
47945205,4001,0,0.02504901,0.55604434,-9.231453,0.004707802,0.011779144,-0.02244444,64.63158,156.9064,0.0047884034,1442826,-746,150,2698,10697
48049205,4001,0,-0.038154934,1.2057196,-9.774848,0.0014730332,0.0044767754,-0.029212376,64.601105,156.9064,0.0047884034,1442826,-19,-531,-117,10686
48149205,3993,0,0.81226325,0.23016755,-9.309973,-0.0008279655,-9.034877e-06,-0.040165342,64.62327,156.9064,0.0047884034,1442826,-144,269,2319,10694
48249204,3974,0,0.5421439,-0.8271253,-9.948555,0.0066121286,-0.012173758,-0.029481571,64.60664,156.9064,0.0047884034,1442826,959,821,4255,10688
48353226,4021,0,0.0053536766,-1.8969748,-10.0961895,-0.003037015,0.0070388587,-0.030846745,64.66482,156.9064,0.0047884034,1442826,-178,353,1834,10709
48453205,4000,0,0.06698757,-0.29269987,-9.826171,0.0034737661,-0.00066074147,-0.041973256,64.67867,156.9064,0.0047884034,1442826,-694,260,2811,10714
48553211,4006,0,0.2454891,1.2669706,-9.465196,0.0065318793,0.0073720003,-0.035447158,64.65374,156.9064,0.0047884034,1442826,764,-121,1165,10705
48657205,4000,0,0.7584258,1.145282,-9.313926,0.009384487,-0.00401141,-0.027557412,64.65928,156.9064,0.0047884034,1442826,716,446,3333,10707
48757204,4000,0,0.31445673,-0.11047859,-10.316269,0.00042727432,-0.010942956,-0.055190165,64.67036,156.9064,0.0047884034,1442826,693,-299,1498,10711
48858827,4023,0,0.32935193,-1.4030309,-10.7934265,0.008325361,-0.0026636804,-0.026761297,64.66759,156.9064,0.0047884034,1442826,91,-73,679,10710
48966843,4036,0,-0.0991022,0.7248069,-9.4576645,0.002337872,0.011493462,-0.015308626,64.711914,156.9064,0.0047884034,1442826,576,261,2445,10726
49066847,4043,0,0.040368367,1.195562,-9.118636,-0.009447787,0.0029510087,-0.045821335,64.68698,156.9064,0.0047884034,1442826,-947,272,517,10717
49166804,4000,0,0.70585114,0.86987257,-9.590787,0.002095865,-0.003759282,-0.037300263,64.69806,156.9064,0.0047884034,1442826,-97,120,2844,10721
49266804,4000,0,0.750596,-0.2790124,-9.6395445,0.0028884339,-0.011327837,-0.043558203,64.67036,156.9064,0.0047884034,1442826,188,81,3153,10711
49370813,3978,0,0.12566376,-1.4606521,-10.473758,-0.0019435561,-0.00066224113,-0.040183827,64.71745,156.9064,0.0047884034,1442826,-602,-156,-63,10728
49470806,4002,0,0.08285193,-0.79598784,-9.488365,-0.0035230657,-0.0008375745,-0.029230207,64.68421,156.9064,0.0047884034,1442826,-1052,144,1851,10716
49574805,3970,0,-0.41753903,1.3565603,-9.614527,-0.009545563,0.002273105,-0.055835873,64.72299,156.9064,0.0047884034,1442826,-605,-900,1304,10730
49672438,4034,0,0.300066,1.5906562,-9.682167,-0.00090820994,-0.0032102438,-0.039625205,64.72299,156.9064,0.0047884034,1442826,-260,-68,1014,10730
49776404,4000,0,0.85166556,0.48414448,-9.621181,-0.00089746667,0.0005806291,-0.041431155,64.70914,156.9064,0.0047884034,1442826,928,594,2522,10725
49876404,3994,0,1.2454909,-0.87940955,-10.415543,0.0036453875,-0.0073570423,-0.027417008,64.75623,156.9064,0.0047884034,1442826,-93,180,1093,10742
49980404,4000,0,0.30683836,-1.2675201,-10.543859,0.0015692785,0.010600797,-0.037656542,64.72022,156.9064,0.0047884034,1442826,141,-59,26,10729
50084404,4000,0,0.2032296,0.88479334,-8.995301,0.002170906,0.013708221,-0.021967497,64.73407,156.9064,0.0047884034,1442826,-681,563,2955,10734
50184404,4000,0,0.4897178,1.7153172,-9.411472,0.009056369,0.009899198,-0.03605518,64.75346,156.9064,0.0047884034,1442826,770,137,2922,10741
50288404,3968,0,-0.17112163,0.45339778,-10.078896,0.015390579,-0.002743494,-0.040306438,64.75623,156.9064,0.0047884034,1442826,1018,-132,3492,10742
50388404,4000,0,0.6177879,-0.51275754,-10.435358,-0.004579305,-0.0114150215,-0.05631845,64.750694,156.9064,0.0047884034,1442826,170,-460,1361,10740
50488404,3999,0,0.78390926,-1.6279018,-10.040464,-0.0040077846,-0.0007592052,-0.025814183,64.73684,156.9064,0.0047884034,1442826,180,1023,2673,10735
50594033,4028,0,0.07730847,-0.5325448,-9.691222,-0.0011933038,0.01565687,-0.025618756,64.792244,156.9064,0.0047884034,1442826,-223,54,1200,10755
50694067,4056,0,-0.1027969,1.2409836,-9.171075,0.00028228236,0.0052530197,-0.052442513,64.77008,156.9064,0.0047884034,1442826,-534,354,2854,10747
50794004,3991,0,0.082119584,1.689693,-9.314896,0.00786011,0.0031375538,-0.0387823,64.792244,156.9064,0.0047884034,1442826,120,-376,1780,10755
50898007,3966,0,0.4012424,0.25798675,-9.811071,0.0076471083,-0.010544691,-0.057341162,64.786705,156.9064,0.0047884034,1442826,571,-360,2232,10753
51619604,3993,0,-0.4838104,0.48388126,-9.446221,-0.003173114,0.0059356256,-0.03966662,64.822716,156.9064,0.0047884034,1442826,-155,-433,2313,10766
51723611,4007,0,0.37259093,0.7885116,-9.274282,0.007725719,-0.0028184804,-0.043561473,64.80055,156.9064,0.0047884034,1442826,632,-215,1752,10758
51823604,3970,0,0.08390158,-0.22502494,-9.747113,0.0025807566,-0.0023605567,-0.048362345,64.83933,156.9064,0.0047884034,1442826,661,-235,2816,10772
51923635,3993,0,0.049608115,-1.1368808,-10.496561,0.0031906134,-0.005448376,-0.059095617,64.828255,156.9064,0.0047884034,1442826,-708,-646,1051,10768
52027628,4024,0,0.21435209,-0.38111013,-9.767163,2.3192377e-05,0.009555973,-0.032507576,64.861496,156.9064,0.0047884034,1442826,-389,492,1346,10780
52127604,4000,0,0.10310856,0.5955099,-9.64613,0.0012471549,-0.00072669704,-0.033644665,64.8421,156.9064,0.0047884034,1442826,-1255,-79,223,10773
52227605,4001,0,0.45494226,1.0499344,-9.029725,0.0013724698,-0.0086789485,-0.030341899,64.84764,156.9064,0.0047884034,1442826,-329,657,2209,10775
52333205,3999,0,0.4830721,-0.57509255,-9.73295,-0.00078908633,-0.00774701,-0.052521303,64.84764,156.9064,0.0047884034,1442826,419,-167,2981,10775
52437204,3993,0,0.018904205,-1.3298448,-10.665825,0.006287163,-0.0038491539,-0.028133577,64.869804,156.9064,0.0047884034,1442826,-239,-259,1025,10783
52537204,4000,0,0.07438046,-0.3381889,-9.82447,0.0039026248,0.002665408,-0.03879451,64.872574,156.9064,0.0047884034,1442826,-741,-209,783,10784
52641204,3999,0,0.37843862,1.1478429,-9.381246,0.0075917365,0.0046056258,-0.025929239,64.8892,156.9064,0.0047884034,1442826,-183,457,1504,10790
52741204,3999,0,0.6441646,0.8942216,-9.043758,0.0047673834,-0.012188563,-0.034794994,64.8892,156.9064,0.0047884034,1442826,10,413,3139,10790
52841226,4021,0,0.9360592,0.030821282,-9.75416,0.0051748906,-0.010057911,-0.045085847,64.89197,156.9064,0.0047884034,1442826,781,505,3360,10791
52945235,4031,0,0.16719152,-1.6171523,-10.235653,-0.006393043,-0.0060821385,-0.035619814,64.861496,156.9064,0.0047884034,1442826,-810,692,2463,10780
53045205,4001,0,0.13169801,-0.92788565,-9.904427,0.001493671,0.00569947,-0.025024287,64.905815,156.9064,0.0047884034,1442826,554,488,2144,10796
53150036,4032,0,-0.09890619,1.1938783,-9.3864565,-0.011048119,0.004854194,-0.053059794,64.8892,156.9064,0.0047884034,1442826,-602,223,1918,10790
53246804,4000,0,0.2919905,1.5570015,-9.721975,0.004414819,0.0048822635,-0.05016026,64.89474,156.9064,0.0047884034,1442826,701,202,1269,10792
53350811,4007,0,0.5301063,0.22874188,-9.483972,0.0015263667,-0.010071311,-0.030640453,64.89751,156.9064,0.0047884034,1442826,547,236,3791,10793
53450804,3993,0,0.34833598,-0.7480958,-10.204777,0.006833744,-0.008645093,-0.028683243,64.91412,156.9064,0.0047884034,1442826,1315,418,3148,10799
53550807,3993,0,0.21706617,-1.8440049,-10.940594,0.0013332242,-0.012096388,-0.043990742,64.92521,156.9064,0.0047884034,1442826,201,194,1646,10803
53654804,3970,0,0.110587746,-0.48101133,-9.648827,-0.010881317,0.006059968,-0.038824003,64.92521,156.9064,0.0047884034,1442826,-609,618,1974,10803
53754842,4025,0,-0.2782216,0.7408993,-9.915774,-0.002698258,0.00648844,-0.03128747,64.93352,156.9064,0.0047884034,1442826,-404,-65,-68,10806
53854804,3999,0,0.6316261,1.0616173,-9.364584,0.007920938,0.002548935,-0.03281063,64.91412,156.9064,0.0047884034,1442826,244,222,1898,10799
53958833,4018,0,0.5145779,-0.22243837,-9.335867,0.0085608475,-0.002700953,-0.023702493,64.91967,156.9064,0.0047884034,1442826,874,559,3712,10801
54060404,4000,0,-0.0736324,-1.2141678,-9.92697,0.001593125,0.002491203,-0.053165518,64.941826,156.9064,0.0047884034,1442826,202,-14,1263,10809
54160416,4012,0,-0.5191699,-0.77376807,-9.305088,-0.0038820026,0.0025506588,-0.038153887,64.95568,156.9064,0.0047884034,1442826,-39,-283,3301,10814
54264411,4007,0,-0.16798496,0.95124495,-9.450092,0.0067937756,0.0067816954,-0.031423572,64.96953,156.9064,0.0047884034,1442826,-836,-811,1844,10819
54364406,4002,0,-0.46849743,1.2931161,-9.740062,-0.011208362,7.320626e-05,-0.05336518,64.95568,156.9064,0.0047884034,1442826,-491,-691,-64,10814
54464404,3965,0,0.6161568,0.76009625,-9.437546,-0.0044490797,-0.010435817,-0.03277884,64.96399,156.9064,0.0047884034,1442826,-138,490,2474,10817
54568404,3980,0,0.8550863,-1.3180577,-10.066713,-0.009270935,-0.0033340254,-0.049359076,64.93629,156.9064,0.0047884034,1442826,84,1084,3538,10807
54668404,4000,0,0.031974673,-1.7016917,-10.853542,0.004015204,-0.005772216,-0.045067523,64.96399,156.9064,0.0047884034,1442826,230,-169,598,10817
54768404,4000,0,-0.3911193,-0.9955917,-10.227137,-0.0008126317,0.0004041728,-0.042180337,64.986145,156.9064,0.0047884034,1442826,-1139,-500,2514,10825
54873204,4000,0,-0.17825332,1.1726719,-9.311982,0.0047883373,0.012758123,-0.046739,65.01662,156.9064,0.0047884034,1442826,-1069,-401,3573,10836
54974004,3972,0,0.28549907,1.6869003,-9.288457,-0.0053121606,0.0020644024,-0.050980788,64.980606,156.9064,0.0047884034,1442826,-80,515,2578,10823
55078004,3998,0,0.84028625,0.029126622,-9.57288,0.0050347047,-0.0089970855,-0.031170249,64.97784,156.9064,0.0047884034,1442826,32,971,4577,10822
55182005,3967,0,0.44909963,-1.6461987,-10.244015,0.0022220095,-0.0039103753,-0.026279636,64.986145,156.9064,0.0047884034,1442826,-214,90,2328,10825
55282056,4045,0,0.004906218,-0.5552201,-9.466509,0.0020850673,0.006293882,-0.020908883,65.02493,156.9064,0.0047884034,1442826,-398,-328,3180,10839
55386005,4000,0,-0.1531346,1.4275333,-9.14664,0.0006694057,0.010539814,-0.035437856,65.0,156.9064,0.0047884034,1442826,-573,-572,2304,10830
55486025,3977,0,0.31395024,1.8770373,-9.359662,-0.008669586,0.006777062,-0.055177,64.98892,156.9064,0.0047884034,1442826,675,215,1917,10826
55586036,4032,0,0.44828218,0.7984516,-10.008078,-0.0009791508,-0.0035129383,-0.05039997,65.01385,156.9064,0.0047884034,1442826,73,-336,74,10835
55686005,3972,0,1.1642959,-0.16412614,-9.668272,0.0028990742,-0.010346494,-0.034278307,65.00831,156.9064,0.0047884034,1442826,381,624,2581,10833
55787623,4018,0,0.15590897,-1.5178695,-10.402352,-0.0013957683,0.0013305065,-0.043040257,65.04709,156.9064,0.0047884034,1442826,250,94,1214,10847
55891604,4000,0,0.0016450691,-0.23926064,-9.603677,0.007627181,0.009691062,-0.02742437,65.03601,156.9064,0.0047884034,1442826,-344,-52,3384,10843
55991607,3996,0,-0.18298385,0.91516936,-9.394507,-0.0007788292,0.00828441,-0.04828598,65.00554,156.9064,0.0047884034,1442826,-405,-499,2385,10832
56091628,4024,0,-0.35992083,1.4813895,-9.423307,0.0011854135,0.0063750944,-0.054439705,65.04155,156.9064,0.0047884034,1442826,-570,-1147,1375,10845
56195613,4009,0,0.58338183,0.021706013,-9.940141,-0.0042274566,-0.008872836,-0.059452564,65.07479,156.9064,0.0047884034,1442826,841,-44,1540,10857
56299604,4000,0,-0.0146773895,-0.73386484,-10.337655,0.006263957,1.9342871e-05,-0.039990917,65.0277,156.9064,0.0047884034,1442826,432,-73,914,10840
56399605,4001,0,0.41109616,-0.13567707,-9.629587,0.0041461834,0.0034815732,-0.043650694,65.03047,156.9064,0.0047884034,1442826,25,520,2932,10841
56503604,4000,0,-0.3516473,1.5812008,-9.297254,0.0056539895,0.012486889,-0.042307984,65.06648,156.9064,0.0047884034,1442826,213,-880,2256,10854
56604412,4008,0,0.5203571,1.9906075,-9.179958,0.009821884,-0.0067533706,-0.039356343,65.05263,156.9064,0.0047884034,1442826,849,-140,2335,10849
56705207,4002,0,0.5740615,-0.04329282,-9.803357,-0.00042873027,-0.0027864797,-0.046173368,65.10526,156.9064,0.0047884034,1442826,-536,184,2237,10868
56809239,4023,0,0.18275684,-0.51359767,-10.131896,0.0068039903,0.00325525,-0.047532484,65.091415,156.9064,0.0047884034,1442826,824,-187,1630,10863
56909204,4000,0,0.3199544,-0.2534943,-9.386328,-0.0006702518,-0.0029283706,-0.035310432,65.07202,156.9064,0.0047884034,1442826,-532,359,2075,10856
57009205,4001,0,0.19374135,0.84777784,-9.503285,-0.0049774516,0.008945873,-0.02912053,65.1108,156.9064,0.0047884034,1442826,94,480,1984,10870
57113205,4000,0,0.024328053,1.406303,-9.152307,-0.0018468911,-0.00093384413,-0.04554358,65.132965,156.9064,0.0047884034,1442826,-290,-511,3818,10878
57213205,3995,0,0.2654787,0.2381086,-9.694216,0.0035043852,-0.0057984586,-0.044364467,65.10803,156.9064,0.0047884034,1442826,-414,-718,2763,10869
57317204,3969,0,0.13960259,-1.639383,-10.304309,-0.0019768053,-0.0064433105,-0.0403271,65.096954,156.9064,0.0047884034,1442826,526,740,3832,10865
57421205,3955,0,-0.15670478,-0.31440824,-9.412414,-0.008167556,0.008890159,-0.03233982,65.11634,156.9064,0.0047884034,1442826,-586,158,2483,10872
57522804,3964,0,0.05076493,1.6444193,-8.8534,-0.004916074,0.010328286,-0.028597001,65.12466,156.9064,0.0047884034,1442826,47,363,2314,10875
57622804,3959,0,0.23969403,1.120444,-9.1812935,-0.006191036,0.004761112,-0.035177503,65.127426,156.9064,0.0047884034,1442826,-246,115,1967,10876
57722840,4036,0,0.6600528,0.4841904,-9.503981,0.0071437685,-0.008497737,-0.024586137,65.11911,156.9064,0.0047884034,1442826,288,45,2107,10873
57826804,3999,0,0.29286346,-1.3358411,-10.327528,-0.0027098935,-0.0038557798,-0.036244866,65.14127,156.9064,0.0047884034,1442826,-178,400,1945,10881
57926810,3975,0,0.17654549,-1.1767434,-9.776971,-0.0040117125,-0.011398033,-0.025036957,65.135735,156.9064,0.0047884034,1442826,-822,704,2472,10879
58030805,4001,0,0.19392787,0.8123488,-8.810115,-0.00090112933,0.010890958,-0.029690668,65.14404,156.9064,0.0047884034,1442826,-512,632,3149,10882
58130850,4046,0,0.43669897,1.6173948,-8.95268,-0.0037932917,0.0020595135,-0.03823329,65.14958,156.9064,0.0047884034,1442826,-1195,331,3129,10884
58436404,4000,0,0.07773259,-1.7899544,-10.208697,-0.007386695,-0.0077938256,-0.052925613,65.18282,156.9064,0.0047884034,1442826,-1167,-36,1581,10896
58540404,4000,0,-0.025460366,0.4444567,-9.626668,-0.0004783133,0.0031797406,-0.028816598,65.18559,156.9064,0.0047884034,1442826,-839,61,1608,10897
58640434,4023,0,0.40645918,1.7094959,-9.040355,0.007839236,0.0038462,-0.038866337,65.18005,156.9064,0.0047884034,1442826,225,443,1869,10895
58744443,4039,0,0.89396715,0.84701794,-9.494604,0.013564575,-0.0050620446,-0.037186354,65.19668,156.9064,0.0047884034,1442826,1547,748,3587,10901
58844433,4029,0,0.47176367,-0.4472527,-10.557513,0.008602456,-0.009505603,-0.042559475,65.2216,156.9064,0.0047884034,1442826,943,-181,1455,10910
58944404,4000,0,0.1970732,-1.4056445,-10.73787,-0.003038458,-0.0038651885,-0.048858207,65.20499,156.9064,0.0047884034,1442826,282,-238,1461,10904
59048404,4000,0,-0.23678249,-0.14801967,-9.637606,0.0036883072,0.006972161,-0.03903439,65.213295,156.9064,0.0047884034,1442826,-520,-344,2118,10907
59148404,3982,0,-0.20063926,0.56171393,-9.193351,-0.004709323,0.011252362,-0.034171283,65.19668,156.9064,0.0047884034,1442826,-452,-94,2450,10901
59250005,4000,0,0.24751987,1.8583274,-9.105665,-0.0035050013,0.0067464453,-0.04336042,65.19668,156.9064,0.0047884034,1442826,242,394,2674,10901
59350032,3990,0,0.32758272,1.6544195,-9.573808,0.004083554,-0.0055680047,-0.039217707,65.18282,156.9064,0.0047884034,1442826,1302,-289,1683,10896
59454069,4045,0,0.3503969,-1.2259226,-10.29581,9.717012e-06,-0.013497631,-0.0405911,65.218834,156.9064,0.0047884034,1442826,636,-125,1204,10909
59558005,4000,0,0.010303272,-0.5722363,-10.23312,0.003714904,-0.007973641,-0.02868402,65.24377,156.9064,0.0047884034,1442826,-558,181,2254,10918
59662010,3970,0,0.07076648,1.6552092,-8.785942,-0.0012750961,-0.0022227564,-0.03706245,65.22992,156.9064,0.0047884034,1442826,-723,759,4007,10913
59762012,4007,0,0.34973794,1.9916753,-9.264517,0.010398602,0.0013111408,-0.038284283,65.22714,156.9064,0.0047884034,1442826,898,-350,2705,10912
59866004,4000,0,0.77150685,-0.44541672,-10.450673,0.00830885,-0.011053234,-0.03377699,65.23546,156.9064,0.0047884034,1442826,766,271,1995,10915
59966038,4034,0,0.106012896,-1.0524182,-10.355127,0.003248356,-0.0040210597,-0.037900064,65.249306,156.9064,0.0047884034,1442826,324,408,4238,10920
60067604,4000,0,-0.04540394,-0.4269627,-10.12923,-0.00062188157,0.0030545415,-0.050176032,65.257614,156.9064,0.0047884034,1442826,303,-253,1364,10923
60167605,3994,0,-0.48483497,0.42282957,-9.97602,-0.00042757054,0.01387907,-0.052651536,65.24654,156.9064,0.0047884034,1442826,-307,-613,1549,10919
60267604,3999,0,0.12577316,1.7035353,-9.39211,-0.0015551278,0.007873019,-0.05904324,65.2687,156.9064,0.0047884034,1442826,-187,-327,2619,10927
60371622,4008,0,0.20626296,0.92257315,-9.88362,0.01794194,-0.007082483,-0.027794836,65.27978,156.9064,0.0047884034,1442826,885,-208,1449,10931
60471639,4035,0,0.38183254,-0.08309851,-9.949146,0.004274443,-0.011033494,-0.050156027,65.26038,156.9064,0.0047884034,1442826,579,-73,2700,10924
60571605,4001,0,0.18864882,-0.7102219,-9.94465,8.711498e-05,-0.00346226,-0.052364543,65.252075,156.9064,0.0047884034,1442826,-340,-457,3408,10921
60675609,4005,0,0.25980678,0.39927268,-9.377707,-0.00039220508,0.0076177227,-0.0407924,65.296394,156.9064,0.0047884034,1442826,-249,323,1806,10937
60779604,3960,0,0.5205115,1.7177482,-9.295431,-0.0073512495,0.0068170456,-0.04918049,65.27424,156.9064,0.0047884034,1442826,145,-179,1325,10929
60880404,3997,0,0.42188033,0.59374183,-9.036387,-0.003787935,-0.00096396706,-0.0473391,65.30194,156.9064,0.0047884034,1442826,-12,365,3931,10939
60985205,4000,0,0.5333252,-0.84061265,-10.184856,0.0040807514,-0.008997151,-0.03932989,65.28255,156.9064,0.0047884034,1442826,744,78,1507,10932
61085209,4005,0,-0.07723364,-0.7949185,-10.377888,-0.0013181391,0.0017585761,-0.052207142,65.293625,156.9064,0.0047884034,1442826,447,-150,1359,10936
61185204,3999,0,0.25621969,0.7393162,-9.498835,0.010203373,0.013196262,-0.03346866,65.29917,156.9064,0.0047884034,1442826,495,-131,1450,10938
61289205,4000,0,0.31785563,1.5068842,-9.504252,-0.0011007795,-0.0019183333,-0.03244778,65.33241,156.9064,0.0047884034,1442826,-264,323,1606,10950
61389205,4000,0,0.5112909,1.1637694,-9.7321005,-0.00081346376,-0.012828481,-0.05056188,65.31856,156.9064,0.0047884034,1442826,287,42,1932,10945
61489225,4020,0,0.35159728,0.10798544,-10.537358,0.011269248,-0.011558333,-0.04501543,65.31025,156.9064,0.0047884034,1442826,606,-239,912,10942
61593205,4001,0,0.16954209,-1.5473601,-10.263838,-0.0039459825,-0.0003114075,-0.035378385,65.31025,156.9064,0.0047884034,1442826,-882,55,1942,10942
61693205,4000,0,-0.2197728,-0.7814006,-10.119226,-0.0019545397,0.008062346,-0.04481452,65.33518,156.9064,0.0047884034,1442826,-330,53,585,10951
61794804,4000,0,0.15460654,0.846769,-9.232423,0.0014054668,-0.0025610928,-0.02921011,65.33795,156.9064,0.0047884034,1442826,-405,404,3376,10952
61898816,4011,0,0.3600924,1.4663682,-9.328838,0.00029307796,-0.0057215095,-0.042910196,65.31856,156.9064,0.0047884034,1442826,80,110,1928,10945
62002804,4000,0,0.5472183,-0.6684473,-10.653091,-0.0005251006,-0.01043639,-0.054394633,65.37119,156.9064,0.0047884034,1442826,308,-40,993,10964
62102804,4000,0,-0.007924745,-1.4498621,-10.590818,0.0023143115,-0.009230227,-0.033075932,65.34626,156.9064,0.0047884034,1442826,392,-158,1992,10955
62202804,4000,0,-0.3326651,-1.2284336,-10.06038,-0.0022727994,0.008748287,-0.025691945,65.35734,156.9064,0.0047884034,1442826,-566,-191,2407,10959
62306843,3965,0,-0.38683105,1.0762142,-9.543274,0.0040958156,0.008480367,-0.026372986,65.36011,156.9064,0.0047884034,1442826,-1306,-383,2711,10960
62406815,4011,0,0.19764782,2.0573537,-9.176349,-0.0073647127,0.0072892373,-0.03568951,65.38781,156.9064,0.0047884034,1442826,170,427,1027,10970
62506804,4000,0,0.103534855,1.6783088,-9.270963,0.007120304,0.0005070929,-0.037234593,65.3795,156.9064,0.0047884034,1442826,305,-545,2431,10967
62608457,4053,0,0.16583061,0.30817136,-9.901725,-0.0014260281,-0.009696685,-0.054070286,65.38227,156.9064,0.0047884034,1442826,1383,-213,2105,10968
62712404,4000,0,0.18373445,-0.96304715,-9.985462,-0.008064447,2.7034315e-05,-0.04292743,65.38227,156.9064,0.0047884034,1442826,-287,-28,2404,10968
62812410,4006,0,-0.24743341,-1.184165,-9.775144,-0.0016720428,0.004365973,-0.04047983,65.37119,156.9064,0.0047884034,1442826,-928,-107,2040,10964
62916404,4000,0,0.30887264,1.3631511,-9.42428,0.001087865,0.003745485,-0.032986034,65.39612,156.9064,0.0047884034,1442826,-688,-129,1031,10973
63020404,3963,0,0.8479609,1.3989273,-9.536488,0.0031659647,-0.003580708,-0.03887106,65.39335,156.9064,0.0047884034,1442826,208,63,2891,10972
63120404,4000,0,-0.023774182,0.09540629,-10.320533,0.0048983297,-0.0077883513,-0.04390677,65.39612,156.9064,0.0047884034,1442826,536,169,2607,10973
63224404,4000,0,-0.060590435,-1.0830423,-9.896507,-0.00012808916,-0.0025655476,-0.04476566,65.42105,156.9064,0.0047884034,1442826,-266,179,2686,10982
63324404,4000,0,-0.50332946,-0.60721034,-10.069981,-0.005370327,0.012992432,-0.040393535,65.404434,156.9064,0.0047884034,1442826,-432,-462,1520,10976
63426020,4016,0,0.11473481,1.0247861,-9.893351,-0.0059426585,0.017009836,-0.041646987,65.39612,156.9064,0.0047884034,1442826,-552,129,769,10973
63526004,3950,0,0.0878865,2.0889392,-8.945972,-0.0048446506,0.0061717797,-0.021999124,65.440445,156.9064,0.0047884034,1442826,-436,316,2786,10989
63630041,4037,0,0.27840027,0.82702446,-9.974774,0.0029978529,-0.0067297574,-0.043716148,65.46814,156.9064,0.0047884034,1442826,-50,-135,2775,10999
63730013,4005,0,0.38991717,-0.3903889,-9.981509,-0.008378378,-0.013858867,-0.04313651,65.42936,156.9064,0.0047884034,1442826,-88,117,2556,10985
63834005,3967,0,0.037662487,-0.327455,-9.8979,-0.0009087762,0.012604324,-0.0320953,65.45429,156.9064,0.0047884034,1442826,548,-177,1540,10994
63934005,4001,0,-7.933684e-05,0.26091206,-9.614234,-0.0054072887,0.014537588,-0.032289468,65.4626,156.9064,0.0047884034,1442826,-1032,441,2549,10997
64038005,3990,0,-0.1521311,1.932271,-8.79564,-0.0007898039,0.003539254,-0.036199074,65.45429,156.9064,0.0047884034,1442826,488,-864,2517,10994
64142048,4010,0,0.3826128,-0.14414124,-10.0675,0.011793173,-0.006087863,-0.04172583,65.39889,156.9064,0.0047884034,1442826,411,-690,2376,10974
64242004,3959,0,0.13073173,-1.1943823,-9.995323,-0.0070242165,-0.006628095,-0.056005448,65.41551,156.9064,0.0047884034,1442826,-393,-473,2443,10980
64339611,3954,0,0.2900456,-1.2948023,-10.493506,-0.0008231987,-0.008995153,-0.028827291,65.47092,156.9064,0.0047884034,1442826,-48,-9,2148,11000
64443604,3969,0,0.33237967,-0.18318243,-9.153026,-0.0030079056,0.0062981737,-0.034569994,65.45983,156.9064,0.0047884034,1442826,-1702,643,3123,10996
64547605,4001,0,-0.019336263,1.7919422,-9.071315,-0.0075592026,0.008985767,-0.05503038,65.42936,156.9064,0.0047884034,1442826,555,70,1287,10985
64647604,4000,0,0.30710757,1.6226457,-9.591065,0.009749344,-0.00037785023,-0.046419624,65.47369,156.9064,0.0047884034,1442826,390,20,2973,11001
64747604,3999,0,0.015860472,0.49823987,-9.815218,0.005662874,-0.0023660809,-0.051334172,65.518005,156.9064,0.0047884034,1442826,1203,-167,2260,11017
64851605,4001,0,0.24500187,-1.4060742,-10.602,0.003992579,-0.009425799,-0.040758453,65.49861,156.9064,0.0047884034,1442826,201,-354,793,11010
65365226,4021,0,0.23566331,-1.1536838,-10.386918,-0.003075082,0.0019045016,-0.037506007,65.52631,156.9064,0.0047884034,1442826,629,18,343,11020
66282816,4005,0,0.39775047,-0.48189342,-9.60737,0.00040137777,-0.0032215202,-0.04738468,65.53462,156.9064,0.0047884034,1442826,342,-305,3607,11023
66382856,4052,0,0.21835671,-0.9962786,-9.643555,-0.0022793675,0.0012375673,-0.027143648,65.57618,156.9064,0.0047884034,1442826,-81,7,3280,11038
66482853,4049,0,-0.2551316,-0.80712944,-9.739579,-0.0054544164,0.009024578,-0.029268268,65.55125,156.9064,0.0047884034,1442826,-63,-102,1778,11029
66586834,3970,0,0.44508073,1.4788729,-8.752338,0.009506156,0.011058905,-0.034032956,65.59003,156.9064,0.0047884034,1442826,-139,-41,2473,11043
66686804,4000,0,-0.016966335,1.8351014,-9.17934,0.0058147665,0.0076952693,-0.044106234,65.60664,156.9064,0.0047884034,1442826,-224,-375,3659,11049
66787604,4800,0,0.0109072765,1.0154744,-9.455592,0.006978916,-0.0051120496,-0.05175747,65.58172,156.9064,0.0047884034,1442826,-107,-776,2829,11040
66892462,4058,0,0.5136108,-1.5275035,-10.884314,0.0067973025,-0.012298902,-0.03699354,65.601105,156.9064,0.0047884034,1442826,-237,-84,233,11047
66996404,4000,0,-0.07719609,-0.1779094,-10.117497,-0.0019515962,0.011035729,-0.025808547,65.58726,156.9064,0.0047884034,1442826,-54,-161,1,11042
67096411,4007,0,0.29793647,1.031688,-9.327328,-0.0019432614,0.007275818,-0.025689783,65.57895,156.9064,0.0047884034,1442826,-95,299,1290,11039
67200404,4000,0,0.014119351,1.5864706,-9.606096,0.00077150884,0.0050031487,-0.047175586,65.58726,156.9064,0.0047884034,1442826,987,-585,2068,11042
67300404,3973,0,0.40418723,0.25524855,-10.027165,-0.004145839,0.0009098719,-0.054406047,65.61773,156.9064,0.0047884034,1442826,994,-59,2288,11053
67400404,3965,0,0.7414305,-0.8481275,-10.208422,-0.004521705,1.4407968e-05,-0.046657093,65.5928,156.9064,0.0047884034,1442826,484,740,1883,11044
67504404,4000,0,-0.14717205,-0.7463059,-9.879462,0.0009027701,0.008000231,-0.024110345,65.639885,156.9064,0.0047884034,1442826,-750,-43,3408,11061
67604404,4000,0,0.034674853,0.7211304,-9.678296,-0.0018524958,0.008387128,-0.024375651,65.637115,156.9064,0.0047884034,1442826,-818,318,2536,11060
67706005,4001,0,0.14540194,1.7012516,-9.141682,-0.007073206,-0.0022244072,-0.030052915,65.61219,156.9064,0.0047884034,1442826,-511,789,3482,11051
67806047,4043,0,0.68696713,1.4810623,-9.755418,0.006658051,-0.0062941136,-0.029812943,65.62604,156.9064,0.0047884034,1442826,268,25,1903,11056
67910007,4003,0,0.6633557,-0.3820141,-10.031348,-0.0011545457,0.0035241297,-0.03864428,65.62604,156.9064,0.0047884034,1442826,1110,713,2577,11056
68014010,4000,0,-0.2875513,-0.90505224,-10.251036,-0.0051139416,0.011381403,-0.034870595,65.60664,156.9064,0.0047884034,1442826,-12,-208,1507,11049
68118004,3959,0,-0.21648425,0.7944538,-8.847249,0.0066851145,0.0050339582,-0.032264143,65.65374,156.9064,0.0047884034,1442826,-1395,-34,3965,11066
68218029,4025,0,-0.038084235,1.7058799,-8.935476,-0.0042486596,0.004339531,-0.04497417,65.6205,156.9064,0.0047884034,1442826,-578,602,3434,11054
68322005,4000,0,0.34590563,-0.022016302,-10.450354,-0.0015250666,-0.005374898,-0.05349052,65.64266,156.9064,0.0047884034,1442826,846,-841,975,11062
68422005,3970,0,0.57025874,-0.88933975,-10.372677,-0.0045922548,-0.0007204651,-0.0340727,65.6482,156.9064,0.0047884034,1442826,759,429,3041,11064
68523604,3999,0,0.011173492,-0.760159,-10.340065,-0.005879784,0.0066694333,-0.043349795,65.65928,156.9064,0.0047884034,1442826,-313,-126,1680,11068
68623611,3973,0,0.3216166,-0.24041434,-9.631403,-0.0018317103,0.008178111,-0.032686226,65.69252,156.9064,0.0047884034,1442826,-744,692,2880,11080
68723621,4016,0,-0.022138882,1.3372506,-9.316171,-0.008823563,0.0069277724,-0.037358265,65.67867,156.9064,0.0047884034,1442826,-274,367,2173,11075
68827604,3967,0,-0.097845785,1.2606493,-9.527728,-0.0087969545,-0.0028285857,-0.039030146,65.65928,156.9064,0.0047884034,1442826,668,528,2483,11068
68927604,4000,0,0.28450617,-0.01890982,-10.313866,-0.0013187192,-0.006168635,-0.048207473,65.69806,156.9064,0.0047884034,1442826,47,-165,1200,11082
69027611,4007,0,0.81290025,-1.0131952,-9.969565,0.0032992826,-0.004711318,-0.038957477,65.69252,156.9064,0.0047884034,1442826,1,665,3073,11080
69131604,4000,0,-0.0988553,-0.39027634,-10.049252,-0.0012518439,0.0073507433,-0.044594668,65.69252,156.9064,0.0047884034,1442826,-256,-202,386,11080
69235604,4000,0,-0.18098317,1.4419739,-9.333682,-0.003653029,0.0031921205,-0.03684278,65.67313,156.9064,0.0047884034,1442826,-661,-520,1923,11073
69337205,3994,0,0.17710726,1.4018924,-9.463416,-0.0069308635,-0.0034315344,-0.03928394,65.69529,156.9064,0.0047884034,1442826,873,469,3230,11081
69441211,4002,0,0.37965015,-0.8861591,-10.42678,0.0074640946,-0.007568698,-0.041955683,65.68975,156.9064,0.0047884034,1442826,-61,-385,2799,11079
69541204,3995,0,0.2720339,-0.8954853,-10.123815,0.00642819,0.00046168367,-0.034217805,65.675896,156.9064,0.0047884034,1442826,-36,-191,1813,11074
69641204,3999,0,-0.3150233,-0.025568774,-9.806745,0.00040389376,0.0100453375,-0.055076372,65.72022,156.9064,0.0047884034,1442826,-307,-401,2509,11090
69745239,4034,0,0.4738365,1.4241973,-9.210139,0.002905198,4.5535387e-05,-0.035073794,65.70914,156.9064,0.0047884034,1442826,386,833,2672,11086
