timestamp,integral_dt,error_count,x,y,z,x_integral,y_integral,z_integral,temperature,range_m_s2,scaling,device_id,x_raw,y_raw,z_raw,temperature_raw
85202159,4241,0,0.34639174,0.0964227,-9.758981,0.006372113,-0.0027377317,-0.040153064,54.0,78.0,0.0023928226,1114658,947,959,-3377,0
85302918,5147,0,-0.1602843,0.4249269,-9.719269,0.0054515162,-0.0052940026,-0.049735647,54.125,78.0,0.0023928226,1114658,1144,814,-3533,12680
85403743,4226,0,0.39392677,-0.24416436,-9.685525,-0.0028130817,0.0051522586,-0.040734135,54.0,78.0,0.0023928226,1114658,171,674,-3467,-14
85505567,4199,0,0.21826881,-1.0213943,-10.5077915,0.007921742,-0.00405506,-0.046095267,54.0,78.0,0.0023928226,1114658,536,1283,-2571,2049
85607437,4157,0,0.26476997,-0.51132977,-10.208498,-0.00921948,-0.009833012,-0.046716724,54.125,78.0,0.0023928226,1114658,1237,486,-3517,12686
85709267,4199,0,0.044354513,-0.35691848,-10.216394,0.0012850623,-0.010710235,-0.044457875,54.125,78.0,0.0023928226,1114658,832,1950,-2864,8192
85807993,4226,0,0.33032534,-0.10314552,-9.951187,-0.000548722,-0.009178539,-0.037523568,54.0,78.0,0.0023928226,1114658,1386,1090,-2445,2049
85908767,5230,0,0.04431517,-0.8284244,-9.665333,4.1808547e-05,-0.011836909,-0.052259017,54.0,78.0,0.0023928226,1114658,963,1249,-3412,-14
86013814,4247,0,-0.03322047,-0.28103423,-9.697691,-0.004122568,0.00950482,-0.035772037,54.0,78.0,0.0023928226,1114658,-768,419,-3632,12685
86115618,4173,0,0.093007594,0.8193292,-9.759986,0.011679601,0.0078925025,-0.039785232,54.0,78.0,0.0023928226,1114658,-118,2941,-3648,8193
86219603,4235,0,0.4652368,-0.067115895,-9.756675,-0.0025491845,-0.013701244,-0.04482869,54.0,78.0,0.0023928226,1114658,1588,-473,-2180,2049
86321417,4199,0,0.44519705,-1.354521,-10.062542,0.013313854,0.00024233188,-0.041112363,54.0,78.0,0.0023928226,1114658,-731,309,-2795,8192
86423295,4228,0,0.26806906,0.93931794,-9.684835,0.00085916446,0.0029051045,-0.041601896,54.125,78.0,0.0023928226,1114658,1313,640,-3134,2049
86525159,4212,0,-1.0121163,-1.1925755,-9.837011,-0.0037216933,-0.0041777533,-0.043133136,54.125,78.0,0.0023928226,1114658,-244,1958,-2396,8193
86625918,4156,0,-0.53353876,-0.16881648,-9.867603,-0.006161409,-0.016373891,-0.032663003,54.125,78.0,0.0023928226,1114658,1066,223,-2264,0
86725786,5368,0,1.0365193,0.9294268,-9.853331,0.0013521932,-0.0072864736,-0.057536732,54.0,78.0,0.0023928226,1114658,1919,-32,-3864,12694
86827540,5272,0,1.7005501,0.8850439,-9.860614,-0.015522042,0.00087441626,-0.05243727,54.0,78.0,0.0023928226,1114658,694,-1519,-2439,2048
86929402,5255,0,-1.058325,-1.4936495,-9.525623,-0.0026548458,-0.021264018,-0.055107057,54.125,78.0,0.0023928226,1114658,-331,1618,-4687,-13
87032268,4080,0,1.6685026,1.5948645,-9.739663,-0.0038387077,0.00096582796,-0.034832876,54.125,78.0,0.0023928226,1114658,1480,-1283,-4469,12698
87132070,4253,0,-0.21800764,-1.7856568,-9.726778,0.021362,0.022441385,-0.036090743,54.25,78.0,0.0023928226,1114658,-4066,2805,-3083,11425
87235988,6186,0,-1.1813058,-1.2091557,-9.879032,0.022432923,0.0064109694,-0.055583425,54.125,78.0,0.0023928226,1114658,-753,2945,-3223,2049
87339919,4202,0,2.2654667,0.12794271,-9.2867985,-0.008000191,0.017014686,-0.04889602,54.125,78.0,0.0023928226,1114658,-796,-2990,-5126,2049
87441814,4246,0,-0.07618313,0.8216002,-9.755862,-0.016747568,0.008166183,-0.04847418,54.125,78.0,0.0023928226,1114658,1343,-241,-3564,0
87543626,4209,0,-0.54416573,1.1406091,-9.5194235,-0.023779437,-0.0036556895,-0.031883348,54.125,78.0,0.0023928226,1114658,2463,-266,-2311,16984
87643400,5241,0,-0.5693732,0.7038152,-9.795674,-0.033550937,-0.018032681,-0.04386196,53.875,78.0,0.0023928226,1114658,3930,730,-2547,12690
87745267,5300,0,-0.068596594,-1.0754106,-9.068854,0.029576717,-0.005328762,-0.06066137,54.125,78.0,0.0023928226,1114658,-1208,2741,-4758,-14
87847068,5216,0,-0.14075033,0.40163243,-9.87569,-0.0681831,0.0046477476,-0.032820813,54.125,78.0,0.0023928226,1114658,1009,-3901,-886,2049
87948940,5272,0,2.3358126,-0.37184176,-10.098282,0.018914882,0.010433154,-0.07728658,54.125,78.0,0.0023928226,1114658,-1296,-2605,-4777,12708
88053918,4141,0,2.7412941,0.116465785,-9.879638,0.050978772,0.014451854,-0.06346334,54.25,78.0,0.0023928226,1114658,-2312,-1160,-4970,16985
88155808,4226,0,1.8194765,-1.0116793,-9.836434,0.01137786,0.00087104033,-0.054154605,54.125,78.0,0.0023928226,1114658,-162,-1973,-5385,0
88257647,4230,0,-0.6793502,-0.5667004,-10.020631,-0.079525545,-0.017080417,-0.025485622,54.0,78.0,0.0023928226,1114658,962,-2424,-2146,2049
88357368,4184,0,0.38996217,-0.22112074,-9.218115,0.062356666,0.023175485,-0.07842198,54.0,78.0,0.0023928226,1114658,-1740,2233,-6803,-14
88459303,4286,0,1.3445567,0.8969221,-10.232968,0.047733717,0.002744384,-0.051678978,54.125,78.0,0.0023928226,1114658,1252,889,-4392,11436
88558967,4200,0,-2.1319335,-1.3286101,-8.706972,0.0059718443,-0.014125529,-0.028645912,54.125,78.0,0.0023928226,1114658,-534,7978,-6182,12714
88665018,4149,0,1.0765775,0.6620889,-10.059039,0.07130379,0.0052476423,-0.04292712,54.125,78.0,0.0023928226,1114658,524,2645,-4463,12719
88766868,4156,0,-2.724237,-0.3108566,-8.228481,0.0059148395,-0.00794601,-0.046891436,54.0,78.0,0.0023928226,1114658,-283,8502,-6539,11427
88867668,4177,0,-1.7501824,0.050112348,-10.198293,-0.027593842,-0.005825625,-0.015823185,54.0,78.0,0.0023928226,1114658,900,2863,-2135,12710
88969540,4223,0,2.4641907,0.63272935,-9.310203,-0.05968375,0.0017530177,-0.027066574,54.0,78.0,0.0023928226,1114658,906,-9614,-3191,2049
89071390,4216,0,2.5368252,-0.038053,-11.522275,0.0010614753,0.017647838,-0.04120395,53.875,78.0,0.0023928226,1114658,396,-4664,-464,12715
89173217,4187,0,1.8920363,-0.2530705,-9.641795,-0.024835205,0.0033280156,-0.042807564,54.125,78.0,0.0023928226,1114658,-371,-6486,-4041,-14
89275067,4199,0,2.7487543,1.300452,-10.86847,-0.013186902,-0.0016780548,-0.011172857,54.0,78.0,0.0023928226,1114658,1537,-5982,-40,2049
89376939,5271,0,0.22863582,0.87460864,-10.881625,-0.054130252,-0.0043928553,-0.017127825,54.125,78.0,0.0023928226,1114658,1921,-1947,439,2049
89478768,5248,0,-1.1809493,0.07513962,-9.48605,0.029613359,-0.00806705,-0.045536533,54.125,78.0,0.0023928226,1114658,905,5897,-4433,12716
89578569,4252,0,1.1556232,0.13689858,-9.441712,-0.023968326,-0.0013076081,-0.049397297,54.0,78.0,0.0023928226,1114658,-338,-5337,-3982,12724
89677217,4190,0,0.97042316,1.4652625,-10.248241,0.0021487812,0.01434943,-0.064282425,54.0,78.0,0.0023928226,1114658,-313,-20,-2418,12722
89783338,4271,0,0.94194317,0.48884815,-9.825011,0.0023082034,-0.0075874957,-0.0094784945,54.125,78.0,0.0023928226,1114658,1365,-2296,-32,11447
89885160,4198,0,-0.15519902,0.5711038,-9.563607,-0.008138395,-0.0023949558,-0.007471596,54.0,78.0,0.0023928226,1114658,2436,-508,-2566,8193
89986967,4200,0,2.667732,1.7652392,-8.956007,0.044935226,0.009493497,-0.036606178,54.125,78.0,0.0023928226,1114658,431,-2591,-987,11432
90088846,4227,0,-0.14274015,1.8648561,-8.806565,-0.019102149,-0.00023307628,-0.018702952,54.25,78.0,0.0023928226,1114658,1408,2367,-5570,-14
90192810,5292,0,-0.06516144,-0.4026969,-9.899319,-0.035909865,-0.006266633,-0.033375926,54.125,78.0,0.0023928226,1114658,379,1229,-4206,-14
90294622,5255,0,-0.8432019,-0.13912682,-8.488678,-0.03174054,-0.015972668,-0.020464368,54.125,78.0,0.0023928226,1114658,1469,1978,-4104,12732
90395418,4127,0,-0.6320596,0.094877,-8.203843,-0.026931467,-0.011008523,-0.026860837,53.875,78.0,0.0023928226,1114658,984,2194,-6664,12731
90497304,4237,0,0.7547965,-0.2625165,-9.713008,-0.0015497595,0.0028574325,-0.038162023,54.0,78.0,0.0023928226,1114658,-165,-811,-5667,-14
90594917,5177,0,-1.2461953,-0.020208217,-9.379453,0.009232707,-0.01558201,-0.03396238,54.125,78.0,0.0023928226,1114658,1013,4538,-3668,12734
90696793,5275,0,1.0343486,0.5145416,-9.247109,0.0064065396,-0.003949794,-0.037948616,54.125,78.0,0.0023928226,1114658,1018,1414,-2933,-14
90798624,5256,0,0.91491526,0.6711251,-10.635164,-0.0005143948,0.0029466278,-0.047506496,54.125,78.0,0.0023928226,1114658,788,763,-1083,12733
90901517,4199,0,-0.33868998,-0.3197925,-10.235371,-0.0067698173,-0.0021092829,-0.017136186,54.0,78.0,0.0023928226,1114658,393,994,-1892,2049
91008618,5229,0,0.80594665,0.92595446,-10.758029,-0.012500778,-0.0017677778,-0.042541493,54.0,78.0,0.0023928226,1114658,2835,-1141,1524,-14
91105217,4199,0,0.6051329,1.0194468,-11.220369,-0.005323829,0.0042770407,-0.027877046,54.125,78.0,0.0023928226,1114658,1064,-258,453,8192
91209179,4183,0,0.96670955,0.41670454,-9.667339,0.004923312,-0.009772781,-0.043112572,54.125,78.0,0.0023928226,1114658,986,-614,-3122,12752
91308970,5302,0,-0.37584567,0.6649813,-9.258896,-0.03521048,0.011412791,-0.021968702,54.125,78.0,0.0023928226,1114658,-1080,1102,-6309,12737
91410768,4176,0,-0.46567,1.0425386,-9.565221,0.017958079,0.01873185,-0.034492526,54.125,78.0,0.0023928226,1114658,971,2328,-5860,12750
91512617,4200,0,-1.3330884,0.85705805,-9.722583,0.017634738,-0.0008982406,-0.06804441,53.875,78.0,0.0023928226,1114658,-14,4634,-8521,8193
91614550,5332,0,-0.7915189,0.27126625,-8.919206,-0.036703326,0.0011114806,-0.022111202,54.125,78.0,0.0023928226,1114658,2837,831,-8259,12747
91716341,5234,0,0.33506277,0.11682316,-9.801282,-0.033014964,0.013579235,-0.058334228,54.125,78.0,0.0023928226,1114658,-867,-963,-5061,-14
91818168,5168,0,0.2103612,0.63905084,-9.804351,-0.029963756,-0.005301397,-0.017110458,54.125,78.0,0.0023928226,1114658,1184,-2260,-614,12748
91920070,5302,0,-0.73720264,0.563096,-9.241814,0.006090101,0.009164684,-0.05885993,54.25,78.0,0.0023928226,1114658,489,5477,-2358,11431
92022957,4239,0,1.3022155,-0.90849733,-9.574522,0.0103682615,-0.008349451,-0.0623337,54.125,78.0,0.0023928226,1114658,-876,-1838,-5289,8193
92124767,4188,0,0.8786912,0.3951279,-10.652664,-0.012177866,-0.0015056854,-0.020133717,54.125,78.0,0.0023928226,1114658,1283,-4102,437,-14
92226618,4149,0,-0.39029673,1.1243572,-9.896375,-0.011337785,-0.0101419175,0.003537367,54.125,78.0,0.0023928226,1114658,1174,28,1606,11446
92324267,4121,0,0.27608407,1.2152828,-10.549069,-0.001664108,0.0037444006,-0.04611927,54.125,78.0,0.0023928226,1114658,1043,-651,993,8192
92426159,4241,0,0.99836004,0.06647982,-10.909277,0.036533475,-0.002757448,-0.019895276,54.125,78.0,0.0023928226,1114658,1535,-780,1233,8193
92529021,4130,0,-0.3551929,-0.6523035,-9.727776,-0.034541003,-0.00217376,-0.059293784,54.0,78.0,0.0023928226,1114658,-322,-582,-3696,12763
92628767,4197,0,0.1628236,0.16255996,-9.969159,-0.023916129,0.005972949,-0.00037801327,54.0,78.0,0.0023928226,1114658,1375,-448,1761,-14
92732751,4233,0,1.4769827,1.2698041,-9.607223,0.0028794818,-0.0056711175,-0.013341047,54.125,78.0,0.0023928226,1114658,1083,-4306,-946,2049
92832496,5221,0,0.7311709,1.1573962,-8.120397,0.012269265,-0.011363503,-0.054197863,54.125,78.0,0.0023928226,1114658,838,1547,-6214,-14
92938524,4190,0,0.53544694,-1.1426333,-8.605791,0.0029177843,-0.00488629,-0.012707024,54.125,78.0,0.0023928226,1114658,676,-1126,-6309,12757
93042524,5306,0,-0.49887687,-0.35258114,-9.576834,-0.024509309,0.0022519329,-0.049409837,54.125,78.0,0.0023928226,1114658,-636,-3737,-3985,12766
93143316,4249,0,1.3196476,1.797261,-8.465014,0.021912139,-0.011101256,-0.04244963,54.125,78.0,0.0023928226,1114658,1731,-2812,-7054,11445
93245166,4198,0,0.32351494,0.2029895,-9.182278,0.02704582,-0.012213209,-0.044751536,54.125,78.0,0.0023928226,1114658,469,2196,-5747,-14
93342768,5250,0,0.6238203,-0.21889368,-10.0891075,-0.0017695267,-0.007181376,-0.01374132,54.125,78.0,0.0023928226,1114658,1421,-1060,301,-14
93444617,5227,0,1.4661341,-1.5875226,-11.10971,-0.02118403,-0.0040214793,-0.026790828,54.25,78.0,0.0023928226,1114658,-148,-5015,2157,-14
93546540,5322,0,-0.006553871,-0.5722084,-9.040734,0.025151495,0.010046499,-0.018538453,54.125,78.0,0.0023928226,1114658,-1246,711,-2299,12766
93647347,4280,0,0.9203859,1.6013875,-8.984307,0.012246214,0.0075402567,-0.04184134,54.25,78.0,0.0023928226,1114658,735,-341,-6127,12772
93749166,4165,0,-1.0825391,0.76938313,-9.852819,-0.01728185,0.001848247,-0.062277045,54.0,78.0,0.0023928226,1114658,890,3668,-3957,8193
93850967,4199,0,-0.76500493,-1.3415058,-8.381799,-0.0070741605,-0.01234438,-0.03132755,54.125,78.0,0.0023928226,1114658,263,3696,-9549,12779
93952929,4311,0,1.0276964,-0.55999804,-8.7107525,0.00609683,0.00060277025,-0.040803626,54.125,78.0,0.0023928226,1114658,597,-1021,-7619,-14
94054680,4134,0,1.042728,0.58399975,-9.796992,-0.010338267,0.007941896,-0.04746435,54.25,78.0,0.0023928226,1114658,-955,-3244,-1727,12788
94158618,5235,0,-1.605266,0.56943804,-9.54218,0.010835491,0.0044050184,-0.067873664,54.125,78.0,0.0023928226,1114658,341,5819,-5425,12779
94261518,4200,0,0.019194312,-0.9125101,-11.3769655,0.018739065,-0.001169298,-0.07520083,54.125,78.0,0.0023928226,1114658,-316,2935,-2581,2048
94362325,5257,0,0.8634093,-1.4493395,-10.659557,-0.022533031,-0.0030092418,-0.069478996,54.25,78.0,0.0023928226,1114658,399,-2994,-5973,12782
94463157,4239,0,-0.7971951,-0.15240447,-12.09004,0.0084287785,0.0023553679,-0.052831005,54.125,78.0,0.0023928226,1114658,-326,2338,3374,2049
94564988,4221,0,1.0794084,1.3244822,-11.172829,0.017330792,0.008880217,-0.057170715,54.125,78.0,0.0023928226,1114658,1761,-2451,630,12787
94666818,4200,0,0.040992327,1.5364288,-11.273782,-0.010737657,-0.014250541,-0.058797233,54.125,78.0,0.0023928226,1114658,3031,-80,477,2048
94772919,4203,0,-0.3079298,-0.8307357,-9.918238,0.013125616,0.0018689558,-0.08383132,54.125,78.0,0.0023928226,1114658,149,2739,-6407,12785
94874722,4154,0,0.8332899,-1.2636682,-11.398385,0.00818654,-0.004658413,-0.08851421,54.25,78.0,0.0023928226,1114658,1928,-2461,-2314,12791
94975518,4164,0,-1.5568035,-0.014710795,-9.981814,0.009407484,0.020842372,-0.05040765,54.0,78.0,0.0023928226,1114658,-1823,4646,-3682,2048
95077368,4200,0,0.123303086,1.2924024,-9.97585,-0.03942812,0.002210031,-0.04224421,54.125,78.0,0.0023928226,1114658,-303,-2371,-1929,-14
95179276,4258,0,-0.10244274,0.782023,-11.351667,0.024012277,-0.007910909,-0.023620687,54.125,78.0,0.0023928226,1114658,788,2629,3157,11451
95281068,5217,0,1.8937527,-0.1155641,-11.243559,0.015840415,-0.025745269,-0.047517475,54.0,78.0,0.0023928226,1114658,3985,-2898,1126,12798
95382928,5188,0,0.51626146,-1.4719546,-10.392831,0.0022294964,-0.0010686398,-0.062166646,54.25,78.0,0.0023928226,1114658,-15,2275,-7183,0
95484767,5249,0,0.15393546,-0.21831478,-9.896358,-0.0021862807,0.019782664,-0.077661365,54.25,78.0,0.0023928226,1114658,-1705,69,-4943,2049
95587668,4167,0,-0.8929243,1.4251641,-8.885592,0.021371325,0.00786439,-0.0148730995,54.125,78.0,0.0023928226,1114658,332,4550,-2194,11451
95689518,4157,0,0.42351016,0.4207084,-9.600082,-0.027080417,-0.014780721,-0.023182679,54.25,78.0,0.0023928226,1114658,385,-1629,-2740,12798
95791400,5240,0,0.8579828,-0.8169237,-11.525657,0.029391047,-0.0015601029,-0.09449457,54.125,78.0,0.0023928226,1114658,-488,1190,-5447,12801
95893220,5252,0,-0.48155975,-0.6932501,-11.09422,-0.0058580535,-0.0026870528,-0.062289365,54.125,78.0,0.0023928226,1114658,2243,2689,-1568,2049
95995068,5250,0,0.57055104,0.60094815,-7.902121,0.028684884,0.014413265,-0.037696447,54.125,78.0,0.0023928226,1114658,728,1190,-10860,-14
96095873,4205,0,-1.3440473,1.6269809,-9.011674,-0.023743078,0.005658406,-0.036229696,54.125,78.0,0.0023928226,1114658,1157,2059,-6514,0
96199818,4200,0,0.73375225,-0.31940946,-10.394168,-0.016358104,-0.015749242,-0.015974252,54.125,78.0,0.0023928226,1114658,209,-1966,1886,-14
96299568,4156,0,0.3353138,-1.8855141,-9.003597,-0.0012409245,-0.008033217,-0.028799227,54.25,78.0,0.0023928226,1114658,-280,2010,-9247,12817
96401417,4199,0,-1.1480622,-1.2883016,-13.493147,0.0028535419,0.0047655953,-0.0554033,54.25,78.0,0.0023928226,1114658,296,2911,3501,-14
96500147,4230,0,-0.46833193,-0.8990961,-10.403979,0.013750207,0.011930817,0.017434916,54.125,78.0,0.0023928226,1114658,-932,1415,1429,8193
96604171,4303,0,-0.39224955,1.5872328,-10.80567,0.011487772,-0.0017360636,-0.051101655,54.25,78.0,0.0023928226,1114658,129,1954,3440,12825
96705918,4178,0,0.15883298,1.0915046,-8.478693,-0.012374788,-0.009109743,-0.06469994,54.125,78.0,0.0023928226,1114658,418,1222,-8022,0
96811968,4200,0,0.47414732,-1.2069767,-9.91546,-0.008810093,-0.014085837,-0.04884988,54.25,78.0,0.0023928226,1114658,1944,-170,-4038,-14
96915918,4200,0,0.067681305,0.12524974,-9.559336,0.0081543615,0.011714875,-0.03476786,54.125,78.0,0.0023928226,1114658,1391,-136,-7556,0
97017768,4201,0,-0.039785486,1.1961311,-10.386528,-0.0042356187,-0.003103126,-0.016450232,54.25,78.0,0.0023928226,1114658,-616,124,2389,11465
97119635,4217,0,-0.14693415,1.2470281,-8.928574,-0.0035329107,-0.0039934427,-0.075755596,54.25,78.0,0.0023928226,1114658,498,955,-7078,-14
97220448,4209,0,0.08947273,-0.3157409,-10.993691,0.0070356065,-0.0037045437,-0.019168608,54.125,78.0,0.0023928226,1114658,1016,3532,2750,-14
97322267,4200,0,1.6380986,-1.224023,-10.135069,-0.015364675,-0.009172938,-0.030729413,54.25,78.0,0.0023928226,1114658,957,-3663,-6825,-14
97424122,5254,0,-0.75198877,-1.7723708,-11.592338,-0.020490345,0.006191443,-0.052104026,54.25,78.0,0.0023928226,1114658,-1162,1098,1488,11461
97525970,4165,0,0.36133263,1.111257,-10.226384,0.014150855,-0.003598357,-0.026444435,54.25,78.0,0.0023928226,1114658,1787,-752,-133,8193
97627818,4200,0,-0.56607586,1.4992415,-8.199141,0.011669097,-0.0026893078,-0.07607599,54.0,78.0,0.0023928226,1114658,761,3603,-10295,12834
97729747,5316,0,-0.30758968,1.4492757,-9.723947,-0.025075626,-0.0013354437,-0.069556944,54.125,78.0,0.0023928226,1114658,1222,-2236,-5117,12834
97831518,5251,0,0.40462202,-0.93595403,-11.8365555,0.023398342,-0.01686541,-0.045203365,54.125,78.0,0.0023928226,1114658,1994,1838,2713,11456
97933371,5199,0,0.5717999,-0.0759087,-9.163096,-0.0076206774,0.005173746,-0.059993234,54.25,78.0,0.0023928226,1114658,1318,-2244,-5562,8192
98035278,5311,0,0.05988263,1.1694418,-9.0294895,0.010626509,0.011510488,-0.069393106,54.125,78.0,0.0023928226,1114658,495,1136,-244,11470
98140227,4136,0,-0.8619834,0.060290426,-5.878476,-0.054495454,-0.019318465,-0.009236148,54.125,78.0,0.0023928226,1114658,1316,-769,-1966,8192
98239973,4164,0,2.1989315,-0.32247603,-7.5823936,-0.039137404,0.020781355,-0.050407603,54.25,78.0,0.0023928226,1114658,-1333,-7219,-2721,8193
98341818,4149,0,-1.1362274,-0.09558039,-6.6032434,-0.0076640784,-0.00051438616,-0.035833847,54.25,78.0,0.0023928226,1114658,498,3381,-2927,12844
98443678,4167,0,-0.31972653,1.4311652,-7.86028,-0.013835159,-0.01654729,-0.037154503,54.25,78.0,0.0023928226,1114658,1561,1992,-4355,16985
98545517,5243,0,-0.88410723,0.557671,-7.6314306,0.036360394,-0.011226435,-0.04374693,54.25,78.0,0.0023928226,1114658,-1066,5296,-4334,-14
98647413,5248,0,-0.99234456,-0.45829156,-10.023664,0.03501615,0.0042773797,-0.06177916,54.25,78.0,0.0023928226,1114658,-408,4932,814,12849
98749222,5255,0,0.75308573,-0.722071,-9.027349,0.017239193,0.0031770715,-0.06703056,54.125,78.0,0.0023928226,1114658,369,-2190,-8273,12855
98851067,5207,0,-0.3216437,0.07561844,-8.997063,-0.029180115,0.0066545242,-0.035173688,54.25,78.0,0.0023928226,1114658,-2178,112,-1965,2049
98949773,4205,0,-0.5078872,1.2632718,-9.833382,-0.007562918,0.0058589135,-0.038249467,54.25,78.0,0.0023928226,1114658,209,1325,-3593,12859
99053772,4249,0,0.35821202,1.2468992,-8.915811,-0.02565686,-0.0066373977,-0.047345076,54.125,78.0,0.0023928226,1114658,1428,-2433,-9489,12854
99157716,6325,0,1.2992666,-0.32397944,-11.354606,0.021374356,-0.005377573,-0.10216706,54.25,78.0,0.0023928226,1114658,1527,-2564,-2577,12859
99257420,4202,0,-0.16784135,-0.6768335,-10.646196,-0.018209927,0.010258663,-0.026846945,54.25,78.0,0.0023928226,1114658,1192,1385,-3675,12855
99357168,4168,0,0.15505707,-0.13403179,-11.106599,0.009394605,0.0042918706,-0.060075328,54.25,78.0,0.0023928226,1114658,1291,-1259,-1971,8192
99461159,4217,0,-0.4765585,0.732831,-8.334199,-0.008717558,0.008228153,-0.046778865,54.0,78.0,0.0023928226,1114658,-1279,2231,-6824,8193
99559818,4181,0,0.093550645,1.7035234,-8.989827,0.014827229,0.0025520446,-0.066920914,54.125,78.0,0.0023928226,1114658,602,2147,-8173,12859
99660618,5227,0,1.0593737,0.927122,-10.92666,0.004676315,-0.008151014,-0.058733687,54.125,78.0,0.0023928226,1114658,375,-152,-509,8193
99765646,4228,0,0.7991181,-1.696297,-11.534464,-0.014453137,-0.0073078815,-0.054297157,54.25,78.0,0.0023928226,1114658,458,-2043,-3612,8193
99863340,4273,0,0.55123615,-0.7852724,-10.662359,-0.000959669,0.0024792938,-0.04057255,54.25,78.0,0.0023928226,1114658,2078,-214,-8546,12878
99969318,4159,0,-0.7847014,1.0962713,-10.142269,-0.0101609,0.015286007,-0.04036922,54.25,78.0,0.0023928226,1114658,213,2605,-2633,12868
100066967,4196,0,0.38226148,1.483847,-9.359394,0.0039177076,0.01024138,-0.051675282,54.375,78.0,0.0023928226,1114658,1261,691,-5056,-14
100168846,4223,0,-0.79644,0.35900974,-9.4325905,0.018304255,-0.008741388,-0.03656602,54.25,78.0,0.0023928226,1114658,315,5725,-1114,8193
100270667,4151,0,-1.1771268,-1.4888518,-9.08449,-0.015225137,-0.015171804,-0.048271734,54.25,78.0,0.0023928226,1114658,95,3878,-8739,-14
100371488,4148,0,1.7914128,-0.90726066,-10.05966,-0.014970238,0.0071882433,-0.05704545,54.25,78.0,0.0023928226,1114658,1356,-4856,-2303,-14
100477518,4200,0,1.3622226,0.8678462,-8.517756,-0.020105917,0.005582309,-0.017477298,54.125,78.0,0.0023928226,1114658,-8,-4030,-2323,8193
100579392,4208,0,1.1141976,1.8715825,-9.36602,0.024419876,0.012177663,-0.06805398,54.125,78.0,0.0023928226,1114658,-352,854,-3518,12886
100681217,4199,0,-1.0654342,0.71842015,-9.358735,0.024312789,-0.007898133,-0.024592055,54.375,78.0,0.0023928226,1114658,1218,6576,-783,-14
100783095,4227,0,-0.4323827,-1.7977649,-9.317445,-0.03657395,-0.0164559,-0.064931504,54.25,78.0,0.0023928226,1114658,435,-312,-6139,2049
100882817,4197,0,1.7093171,-1.850489,-10.558901,0.0045881527,0.0013950671,-0.021951174,54.125,78.0,0.0023928226,1114658,1301,-4344,-2312,-14
100985777,4259,0,0.7103047,-0.5537102,-10.451679,0.022765286,0.006677363,-0.044248525,54.25,78.0,0.0023928226,1114658,-968,-1286,1838,12883
101088618,5210,0,0.49684602,2.089228,-9.485589,0.03239938,0.016705811,-0.06928691,54.25,78.0,0.0023928226,1114658,299,1862,-2768,-14
101189417,4200,0,-0.64541775,1.6756998,-8.240119,0.0022826039,0.005975828,-0.039346274,54.25,78.0,0.0023928226,1114658,-1298,4346,-7694,-14
101295469,4129,0,-0.17220053,-1.8189085,-10.349323,-0.02825573,-0.012126279,-0.09031478,54.25,78.0,0.0023928226,1114658,-352,1658,-2739,8193
101393127,4138,0,0.86911005,-1.3997157,-10.6763735,0.042801984,-0.00015248798,-0.028990261,54.25,78.0,0.0023928226,1114658,240,2447,-1496,8193
101498123,4166,0,-1.5383517,-1.144106,-9.435014,0.030436836,0.0065863812,-0.025901627,54.375,78.0,0.0023928226,1114658,-778,5701,-3364,8193
101598918,5181,0,1.2911536,0.95801157,-9.601349,-0.0032465116,0.030296255,-0.05564394,54.25,78.0,0.0023928226,1114658,-272,-4629,-1134,12898
101699730,4207,0,-0.6490455,1.8148218,-7.8692527,0.015156286,0.00082158524,-0.025488155,54.25,78.0,0.0023928226,1114658,292,4979,-6955,12888
101799468,4120,0,0.59565127,1.3273836,-9.920909,0.03205524,0.0018122252,-0.06611131,54.25,78.0,0.0023928226,1114658,-373,-884,-373,12896
101901318,4159,0,-1.2401507,-0.4938353,-9.103585,-0.001368358,-0.006226886,-0.02709591,54.375,78.0,0.0023928226,1114658,430,6051,-6150,11466
102007386,5269,0,-1.1528274,-1.7463071,-9.141839,-0.0003605673,0.008919068,-0.045430776,54.125,78.0,0.0023928226,1114658,-2288,4258,-4777,-13
102109217,5250,0,-0.44311547,0.9202657,-9.757503,-0.021883989,0.007991305,-0.0029708636,54.25,78.0,0.0023928226,1114658,478,-21,1256,8192
102211097,5266,0,0.6466435,1.4134091,-10.101296,0.035027858,0.010561429,-0.080056354,54.25,78.0,0.0023928226,1114658,-686,122,-363,-13
102312948,5276,0,-0.7802974,1.1918677,-8.377993,0.0048070266,-0.0002237866,-0.042593922,54.125,78.0,0.0023928226,1114658,343,5215,-6935,12911
102413763,4245,0,0.14160043,-1.0175653,-10.771724,-0.026704725,-0.013088805,-0.021602353,54.125,78.0,0.0023928226,1114658,1230,-916,477,12907
102515585,4173,0,1.6013905,-1.7332746,-11.296306,0.005157603,-0.0014157824,-0.05698439,54.25,78.0,0.0023928226,1114658,1006,-3383,-1998,8192
102615368,4210,0,-0.93311816,-1.7072221,-9.837448,-0.034242593,-0.002656702,-0.025341544,54.125,78.0,0.0023928226,1114658,-744,1318,-3979,12899
102717181,4182,0,0.31716466,0.13211139,-9.938792,-0.022968413,0.0019983854,-0.03659797,54.25,78.0,0.0023928226,1114658,-282,-2296,-1338,8192
102816968,5284,0,0.16680418,0.9433424,-10.113129,0.033365168,0.018741181,-0.04976237,54.25,78.0,0.0023928226,1114658,-862,2728,-3648,11479
102922968,4200,0,1.1777213,1.4650363,-10.084883,-0.0138176335,-0.009995636,-0.06576809,54.25,78.0,0.0023928226,1114658,2740,-3114,-3206,2048
103021761,4294,0,-0.12017196,0.12219851,-9.720454,0.037095435,-0.0076876497,-0.037375446,54.25,78.0,0.0023928226,1114658,727,3850,-4007,12908
103126668,4114,0,1.6788702,-1.5248471,-9.796006,0.0055486066,0.003721164,-0.034015898,54.25,78.0,0.0023928226,1114658,522,-3856,-5384,2048
103740940,5269,0,-0.7061502,0.07041877,-8.890335,-0.011765086,0.016318401,-0.033908613,54.375,78.0,0.0023928226,1114658,-1491,2468,-4917,12928
103840667,4198,0,0.041086935,0.95547605,-8.638165,-0.0035587426,0.0077707646,-0.066847496,54.375,78.0,0.0023928226,1114658,-1156,335,-7229,-14
103944618,4200,0,0.35799193,1.2293977,-10.0424,0.03925863,-0.0009212594,-0.017961679,54.25,78.0,0.0023928226,1114658,672,2972,-472,8193
104046559,5293,0,1.9300044,-0.868662,-10.008307,-0.0024070356,-0.010771046,-0.05873363,54.25,78.0,0.0023928226,1114658,-592,-3799,-3231,-14
104150446,4228,0,0.0095143495,-0.88308907,-9.984434,-0.00015332244,0.012191434,-0.027032848,54.25,78.0,0.0023928226,1114658,692,559,-2909,-14
104252268,4152,0,-1.3669835,1.3626481,-9.755944,0.0072441604,0.015271774,-0.01631728,54.25,78.0,0.0023928226,1114658,579,3897,-1550,11486
104353128,4177,0,1.0362816,1.3697671,-8.835784,0.021418473,0.0008684847,-0.04698383,54.375,78.0,0.0023928226,1114658,1620,273,-5954,8192
104457042,4173,0,0.4462995,0.73448986,-9.614853,0.005049107,-0.00028795216,-0.03421384,54.125,78.0,0.0023928226,1114658,265,2225,-1017,8193
104556767,6227,0,1.3364822,-0.70984113,-10.148903,-0.01421034,-0.0026282687,-0.07494146,54.25,78.0,0.0023928226,1114658,1686,-1940,-3706,-14
104658631,4162,0,-0.8085035,-1.6651169,-10.260222,0.024329355,0.001275957,-0.0258872,54.375,78.0,0.0023928226,1114658,-770,3713,-3046,-14
104760468,4200,0,0.038107865,-0.39205846,-9.922933,-0.028944096,0.009897475,-0.0380782,54.375,78.0,0.0023928226,1114658,-1898,-2998,-3987,12937
104868618,4200,0,0.26189712,0.771554,-9.268392,-0.004722405,-0.008282283,-0.01973551,54.25,78.0,0.0023928226,1114658,1445,-70,-3597,8193
104968368,4167,0,1.5705785,-0.54283804,-9.708867,0.007941371,0.003420862,-0.03929677,54.25,78.0,0.0023928226,1114658,565,-2466,-5696,-14
105070217,4199,0,-0.07630352,-1.2168,-10.854521,-0.027011529,0.0012181837,-0.04079494,54.25,78.0,0.0023928226,1114658,1074,575,-1307,8192
105172140,4272,0,0.12614997,-0.58325773,-9.599218,-0.0029352196,-0.00044816273,-0.04523879,54.375,78.0,0.0023928226,1114658,-200,-300,-2704,12945
105270767,6299,0,-0.21985823,0.06943452,-9.776114,-0.0033832418,0.016033672,-0.044450846,54.375,78.0,0.0023928226,1114658,93,1515,-5727,12945
105372619,4201,0,0.861981,1.9310663,-9.111071,0.008331645,0.008187663,-0.069967024,54.25,78.0,0.0023928226,1114658,1081,-2276,-7006,8193
105474561,5343,0,0.24221241,1.1515237,-9.660529,0.00222939,-0.004654108,-0.0058518266,54.375,78.0,0.0023928226,1114658,1727,801,861,12945
105578469,4252,0,-0.29930532,-1.161534,-10.507402,0.0015325675,-0.0059857615,-0.093029745,54.375,78.0,0.0023928226,1114658,1633,2825,-5327,11483
105680281,4113,0,0.75438374,-0.82497823,-10.8113365,0.0072484715,-0.007779542,-0.0491386,54.125,78.0,0.0023928226,1114658,579,-2465,540,-14
105781122,4198,0,-0.017433977,0.5532025,-9.126883,0.018039579,0.007551638,-0.0100339465,54.375,78.0,0.0023928226,1114658,-493,266,-3764,-14
105882917,4199,0,-0.40181363,1.7446799,-9.649174,-0.024945684,0.002081995,-0.027157849,54.25,78.0,0.0023928226,1114658,1519,-414,-2434,11495
105984768,4191,0,-0.08997255,0.9631312,-8.0004835,-0.0044622305,-0.012150628,-0.07669451,54.25,78.0,0.0023928226,1114658,1518,961,-11303,-14
106086642,4173,0,-0.106122404,-0.37276182,-10.257851,0.04107727,-0.0092023155,-0.035533894,54.25,78.0,0.0023928226,1114658,2265,4188,-3074,12960
106188468,4200,0,-0.4542321,-1.9567226,-10.089976,0.012986284,-0.00041434297,-0.03863483,54.25,78.0,0.0023928226,1114658,-212,2286,-3166,12970
106288218,4149,0,0.084582426,-0.15233561,-11.672431,0.010884223,0.010033882,-0.071962714,54.375,78.0,0.0023928226,1114658,275,651,-197,12961
106389018,4148,0,-0.29372203,0.84376985,-9.66333,0.026321374,0.011416242,-0.024938008,54.375,78.0,0.0023928226,1114658,-1026,2209,-1915,12962
106490868,4200,0,-0.037297785,1.0727754,-10.944239,-0.004864264,0.0065193553,-0.042123087,54.25,78.0,0.0023928226,1114658,393,-189,1993,12967
106592759,4242,0,0.9088111,-0.06523961,-9.46228,-0.011555023,-0.021264976,-0.053711236,54.375,78.0,0.0023928226,1114658,-192,-3071,-3061,-14
106694599,4232,0,1.7619548,-1.309619,-10.889292,-0.014910591,-0.008861269,-0.035841603,54.25,78.0,0.0023928226,1114658,2296,-3895,-1734,8193
106800618,4160,0,-0.84257084,-0.4555359,-10.560673,0.0074624494,0.010320352,-0.05271846,54.375,78.0,0.0023928226,1114658,152,2018,-3104,8193
106899410,4248,0,-0.8092496,0.47332948,-8.786654,-0.0072495327,0.0055768536,-0.03483943,54.375,78.0,0.0023928226,1114658,-1688,2859,-6141,-14
107001168,4175,0,-0.6715194,1.205158,-9.843073,-0.0036908996,-0.0029798755,-0.064407654,54.25,78.0,0.0023928226,1114658,183,3292,-2249,8192
107105163,4215,0,1.4541181,-0.8085763,-10.545637,0.015194104,-0.009424689,-0.09347254,54.25,78.0,0.0023928226,1114658,1065,-509,-2797,8192
107202768,4177,0,-0.36425918,-0.5901366,-10.437151,-0.0008271108,-0.0022255913,-0.075969145,54.25,78.0,0.0023928226,1114658,1718,3286,-5690,-14
107304618,4200,0,0.59501755,-1.5326273,-10.011859,0.014835987,0.003490805,-0.04901269,54.25,78.0,0.0023928226,1114658,-8,-71,-4859,8193
107406547,5329,0,-0.37507197,-0.62091726,-11.355492,0.025592737,0.008428833,-0.047469884,54.25,78.0,0.0023928226,1114658,-1011,2008,3988,12968
107514618,4149,0,-0.6886812,1.3932854,-9.810525,0.0309632,-0.00039056822,-0.037847675,54.25,78.0,0.0023928226,1114658,1673,5593,-534,12974
107612269,4177,0,-0.015994582,0.25883448,-9.64392,-0.0031154412,-0.006758543,-0.05176537,54.375,78.0,0.0023928226,1114658,1757,553,-4005,8192
107714173,4254,0,-0.26538354,-1.2086949,-9.723205,0.0017420211,-0.017206103,-0.050110195,54.25,78.0,0.0023928226,1114658,864,2662,-5911,8192
107814917,4199,0,0.38604078,-0.8529691,-9.634198,0.013653674,-0.0033384282,-0.09647664,54.375,78.0,0.0023928226,1114658,1557,393,-9594,-14
107916800,4232,0,-1.1433967,0.24808769,-10.847342,0.02311867,0.0062690233,-0.017141217,54.25,78.0,0.0023928226,1114658,420,2853,2386,-14
108021799,4232,0,-0.551079,1.512616,-9.163422,-0.037940595,-0.0026397386,-0.046916064,54.25,78.0,0.0023928226,1114658,1618,-592,-5051,12980
108120469,4184,0,0.029247329,0.8366293,-10.353348,-0.0020054143,0.0064596566,-0.0319055,54.25,78.0,0.0023928226,1114658,891,1374,290,8192
108222317,4159,0,0.41378933,-1.0038601,-9.9278,-0.015428335,-0.012533644,-0.016982216,54.25,78.0,0.0023928226,1114658,1420,-375,-2970,11498
108327376,4211,0,0.3783784,-0.3472938,-10.479036,0.01807121,0.013556013,-0.062429212,54.5,78.0,0.0023928226,1114658,933,-1164,-1237,13001
108429168,4179,0,-0.28572333,1.078095,-9.3099575,-0.0019074383,0.006400945,0.0042518782,54.375,78.0,0.0023928226,1114658,437,583,-599,11502
108534168,4200,0,0.40992293,1.3548534,-9.892029,-0.0034331225,-0.007065299,-0.06586958,54.375,78.0,0.0023928226,1114658,2113,369,-2632,8192
108631847,4229,0,0.06055921,0.56781995,-10.622389,-0.0015773338,-0.0032890444,-0.07777673,54.375,78.0,0.0023928226,1114658,427,1625,-2725,-14
108731568,4170,0,-0.6125971,-0.6035572,-10.21144,0.014763942,-0.015425811,-0.050296813,54.125,78.0,0.0023928226,1114658,1073,5299,-2195,12990
108837669,4238,0,-0.72810805,-0.70762587,-11.205311,-0.0015251093,0.012548921,-0.03373411,54.375,78.0,0.0023928226,1114658,195,2079,1517,11508
108935316,5298,0,-0.21753974,-0.77586037,-9.981307,0.024435533,0.009333127,-0.08021373,54.375,78.0,0.0023928226,1114658,-936,1535,-3160,11510
109041318,4141,0,0.10021919,1.5338144,-7.922696,-0.0061948933,0.0010514684,-0.03288432,54.375,78.0,0.0023928226,1114658,-296,964,-8757,12994
109143215,4248,0,-0.7906745,0.23922728,-10.521618,-0.024549559,-0.008689816,-0.061554693,54.5,78.0,0.0023928226,1114658,807,2079,-2747,2049
109241868,4128,0,0.20072354,-0.21661824,-10.6520605,-0.0059388536,-0.008594309,-0.025475876,54.375,78.0,0.0023928226,1114658,2797,250,-1003,13012
109343717,4199,0,0.5164542,-1.7878464,-9.035289,-0.032290753,-0.015622042,-0.05170668,54.25,78.0,0.0023928226,1114658,983,-858,-8667,16985
109447667,4177,0,0.43033266,0.051520806,-10.10453,0.032893416,-0.000238751,-0.040416185,54.25,78.0,0.0023928226,1114658,891,-130,-1160,13008
109547418,4149,0,0.2435831,1.4860891,-9.331575,0.007264436,0.00056503585,-0.031038538,54.375,78.0,0.0023928226,1114658,997,730,-4627,13008
109651418,4227,0,-1.3124174,0.90150076,-9.398811,-0.020119848,-0.015419801,-0.029622873,54.375,78.0,0.0023928226,1114658,1138,3568,-2916,13006
109753218,4199,0,1.1065063,0.1446306,-10.347231,0.024572326,-0.008059176,-0.10377801,54.375,78.0,0.0023928226,1114658,1882,129,-6806,8192
109853013,5296,0,0.70767957,-0.73073214,-11.363323,0.005806564,-0.006593319,-0.051305465,54.375,78.0,0.0023928226,1114658,2186,24,111,13014
109956968,4251,0,-0.42095742,-0.08816513,-9.4060955,-0.02410807,0.0014847775,-0.075554326,54.25,78.0,0.0023928226,1114658,-1347,1325,-6574,13010
110058771,4172,0,0.17493565,1.5584134,-9.324049,0.03997288,0.007562932,-0.04490842,54.375,78.0,0.0023928226,1114658,1183,242,-2560,8192
110156417,4199,0,0.83430725,1.3068358,-10.2986145,0.0048553688,-0.0037332887,-0.041141234,54.375,78.0,0.0023928226,1114658,1381,-1062,-744,-14
110260368,5232,0,0.84178287,0.69508505,-8.8797455,-0.0073310435,-0.010578604,-0.08969168,54.375,78.0,0.0023928226,1114658,2214,-1180,-11046,13015
110362219,5192,0,0.13684836,-1.7105976,-11.392712,0.024699744,-0.0192498,-0.052658163,54.375,78.0,0.0023928226,1114658,539,2424,1205,-14
110466168,4200,0,-0.9991594,-0.45761275,-9.782301,-0.033503447,0.023860317,-0.042154536,54.375,78.0,0.0023928226,1114658,-1608,416,-6170,0
110566976,4208,0,-0.57198393,0.5879961,-9.628949,0.028551554,0.016999073,-0.02788547,54.375,78.0,0.0023928226,1114658,227,1952,-4196,-14
110664617,4200,0,0.23293935,1.0356605,-9.447259,0.005140287,-0.0009529088,-0.052935272,54.25,78.0,0.0023928226,1114658,173,940,-1986,8193
110766568,4301,0,0.32592416,0.88400465,-9.466355,0.0112916315,-0.00410905,-0.040420085,54.375,78.0,0.0023928226,1114658,-1274,1497,-2590,13022
110868317,4181,0,0.67251146,-0.57517,-9.510921,-0.027051594,-0.009790049,-0.061350152,54.25,78.0,0.0023928226,1114658,-440,-2728,-4041,-14
110970167,4193,0,-0.36196455,-1.3536386,-10.48016,-0.012341478,0.0021914039,-0.06488829,54.25,78.0,0.0023928226,1114658,-802,3313,-2581,8193
111073068,4151,0,-0.79521155,-0.3328216,-11.183197,-0.001774126,0.008592038,-0.016296754,54.25,78.0,0.0023928226,1114658,12,1629,507,13022
111174918,4200,0,0.8492417,1.6613367,-8.6658745,0.0038347933,0.009579631,-0.02251956,54.375,78.0,0.0023928226,1114658,1085,-1451,-5356,13031
111276773,4206,0,-0.79817754,1.578238,-10.060954,-0.005614994,0.0064771585,-0.065414086,54.25,78.0,0.0023928226,1114658,1495,4619,-2806,2049
111378618,4127,0,1.7927476,-0.20454657,-10.221919,0.021626325,-0.01587949,-0.02233476,54.25,78.0,0.0023928226,1114658,2574,-2683,-2734,11520
111484699,4231,0,0.0011249421,-0.8156235,-10.866999,0.032032553,-0.0018297053,-0.04281759,54.25,78.0,0.0023928226,1114658,845,2441,-1612,-14
111584418,4200,0,-0.26334074,-0.4077964,-10.888101,-0.0032464939,-0.0029325313,-0.028437756,54.375,78.0,0.0023928226,1114658,351,565,1292,13039
111686315,4248,0,0.69465166,1.1326488,-7.9371266,0.009554083,0.0017807178,-0.013611224,54.375,78.0,0.0023928226,1114658,533,-367,-7921,0
111787081,4213,0,-0.045839842,1.2912928,-8.662522,-0.02157988,-0.006171862,-0.06292842,54.25,78.0,0.0023928226,1114658,606,1163,-9018,13028
111888967,4250,0,0.8900177,0.051001996,-10.093691,0.04744958,-0.012089057,-0.054120775,54.375,78.0,0.0023928226,1114658,2544,1813,-4034,11522
111990768,4161,0,0.61327446,-1.5860502,-9.951142,-0.008391735,-0.0073649003,-0.032301307,54.25,78.0,0.0023928226,1114658,-811,-777,-2712,13036
112091568,4143,0,0.22190545,-0.36624342,-10.190318,-0.027289113,0.0028723436,-0.054362405,54.375,78.0,0.0023928226,1114658,666,-1583,-2793,13046
112193417,4200,0,-0.21230602,0.85456616,-8.474668,0.01593095,0.003862875,-0.007443754,54.25,78.0,0.0023928226,1114658,365,1629,-5714,8192
112293168,4170,0,-1.5265889,0.83864665,-7.4223213,-0.022082038,0.009267617,-0.026104929,54.25,78.0,0.0023928226,1114658,65,2869,-8789,13039
112395021,4203,0,-1.2446369,0.31590635,-10.745189,-0.012953181,-0.009960592,-0.06459532,54.5,78.0,0.0023928226,1114658,1484,2719,-2110,8193
112496954,4286,0,-0.3567722,-1.3569937,-9.374971,0.0028165297,-0.006376679,-0.03941806,54.25,78.0,0.0023928226,1114658,-824,4358,-7096,13042
112597740,4241,0,-0.26846337,-1.683878,-10.926926,-0.03458062,-0.009759185,-0.06825121,54.25,78.0,0.0023928226,1114658,-512,899,-848,13049
112701699,4282,0,0.56767064,0.5821857,-9.998519,0.013183286,0.005553788,-0.08496836,54.375,78.0,0.0023928226,1114658,-45,-64,-3416,11533
112803500,4183,0,0.089036666,1.7287352,-9.257899,0.020913932,-0.0011348923,-0.021623494,54.375,78.0,0.0023928226,1114658,1272,2041,-284,16985
112903254,4236,0,0.4547323,0.4525749,-9.115175,0.020887736,0.0012573883,-0.058199834,54.375,78.0,0.0023928226,1114658,1222,526,-10039,-14
113000916,4248,0,-0.79480714,0.21796533,-9.605396,-0.030346798,-0.012920782,-0.062274914,54.375,78.0,0.0023928226,1114658,892,1637,-7046,11508
113104907,5339,0,0.86083776,-1.3581107,-10.95668,0.013774882,-0.014934627,-0.089172505,54.5,78.0,0.0023928226,1114658,683,-674,-6830,-14
113205695,4278,0,0.501094,-0.5167512,-10.7332325,0.025055485,0.003015234,-0.025746759,54.375,78.0,0.0023928226,1114658,334,276,165,11528
113311668,4200,0,-0.06379697,1.2558479,-9.019708,0.0040631574,-0.0052634417,-0.026911236,54.375,78.0,0.0023928226,1114658,-830,2779,-1606,8193
113411418,4173,0,-0.08632289,2.0014458,-8.160101,-0.021617336,-0.0053147404,-0.04942631,54.375,78.0,0.0023928226,1114658,1596,-266,-6385,-14
113511168,4200,0,-0.35183007,0.26862013,-10.232857,-0.0142470645,-0.004258711,-0.026911195,54.375,78.0,0.0023928226,1114658,1653,981,31,2048
113613028,4159,0,-0.08671125,-2.2513516,-9.464229,-0.033093564,-0.012456504,-0.04444578,54.5,78.0,0.0023928226,1114658,-760,247,-6821,8192
113716972,5254,0,0.45183867,-0.9613133,-9.2371235,-0.0027005672,-0.003087725,-0.06963493,54.375,78.0,0.0023928226,1114658,-550,13,-6849,13059
113813567,4199,0,-0.9781281,-0.03495053,-8.86366,-0.01827969,0.02091699,-0.041195836,54.375,78.0,0.0023928226,1114658,-1595,823,-8938,16985
113916469,4201,0,0.68509483,1.0571536,-9.07095,0.0033249287,0.0058689476,-0.033319935,54.375,78.0,0.0023928226,1114658,-1163,925,-3831,2048
114019379,4212,0,0.9449279,1.1367786,-10.091878,0.030563587,-0.004564009,-0.060438655,54.375,78.0,0.0023928226,1114658,2558,793,-1016,-14
114125418,4194,0,1.0607421,-1.2524734,-10.952395,-0.031104797,-0.0010892588,-0.014539881,54.375,78.0,0.0023928226,1114658,450,-2681,-718,8192
114227340,5323,0,0.25454408,-0.82426524,-9.547975,-0.017690625,0.014110025,-0.074415684,54.375,78.0,0.0023928226,1114658,-702,-1044,-6591,13070
114329166,5299,0,-0.03233463,0.87156653,-8.435243,-0.008537374,0.0060977563,-0.018562788,54.375,78.0,0.0023928226,1114658,-1154,935,-4478,8192
114425740,5247,0,0.72313964,0.60839736,-9.082518,-0.0050005396,0.01750135,-0.054850914,54.375,78.0,0.0023928226,1114658,-1226,-3795,-4728,13070
114527568,4175,0,0.40646684,1.8977047,-9.254927,-0.030820841,-0.0049578715,-0.023321753,54.375,78.0,0.0023928226,1114658,13,-3547,-2776,11532
114631520,4181,0,0.06578038,-0.8043449,-9.648489,-0.028915342,-0.008639414,-0.021707343,54.375,78.0,0.0023928226,1114658,-231,413,-7601,8192
114731345,5327,0,1.6827667,-0.92453164,-10.312892,-0.0002482278,-0.0077706506,-0.060738876,54.375,78.0,0.0023928226,1114658,3073,-3530,-3765,13078
114836268,4106,0,0.1774351,0.033342976,-9.717426,-0.01477437,0.01462609,-0.043309372,54.375,78.0,0.0023928226,1114658,795,-3356,-2556,13080
114934967,5223,0,-0.85296303,-0.33238146,-9.667924,0.016415108,0.005951262,-0.03800573,54.375,78.0,0.0023928226,1114658,-1281,3538,-2886,-14
115035798,4230,0,-1.3901291,1.923696,-9.3311,-0.013877686,0.0107400585,-0.030913662,54.375,78.0,0.0023928226,1114658,15,3755,-700,0
115141818,4133,0,-0.336166,0.73096764,-8.924774,0.023670428,-0.007378241,-0.030157529,54.25,78.0,0.0023928226,1114658,1262,5854,-4481,13091
115239468,4111,0,0.54301727,0.43886188,-10.564469,-0.0213685,-0.016690684,-0.040346082,54.375,78.0,0.0023928226,1114658,2984,-2286,-677,13082
115341336,4209,0,1.9267051,-1.6409222,-11.629019,0.016183883,-0.007644149,-0.044689182,54.25,78.0,0.0023928226,1114658,563,-1475,3066,8192
115445268,4200,0,-1.1270615,-1.014195,-10.859065,0.036961317,0.008859296,-0.019369133,54.375,78.0,0.0023928226,1114658,-187,4240,-1173,13081
115541868,4141,0,0.72813433,-0.65224713,-9.569,0.010488863,0.019731514,-0.037188,54.375,78.0,0.0023928226,1114658,-130,-2689,-6326,13084
115646867,4199,0,0.7986996,1.7958003,-10.539455,0.015174859,-0.00251617,-0.065958686,54.375,78.0,0.0023928226,1114658,180,-1301,1624,13091
115745567,4199,0,1.5029447,1.8371243,-8.643069,-0.03448638,0.012778274,-0.055085085,54.375,78.0,0.0023928226,1114658,230,-3418,-6320,8192
115847418,4149,0,1.584088,1.0180084,-9.422452,0.0054171057,-0.008367188,-0.06473953,54.375,78.0,0.0023928226,1114658,1850,-2330,-5754,13082
115953519,4250,0,1.4529731,-1.423305,-11.007164,-0.0059231003,-0.007264481,-0.011822507,54.375,78.0,0.0023928226,1114658,262,-3383,1211,16985
116051158,4240,0,0.088819355,-1.5561754,-10.087687,-0.048775706,-0.0015402106,-0.067048155,54.375,78.0,0.0023928226,1114658,236,-2197,-2980,8193
116157187,4202,0,-0.75906485,2.1331916,-9.167764,-0.020331016,0.013509046,-0.0042644273,54.25,78.0,0.0023928226,1114658,-476,1933,624,-14
116254818,5251,0,-0.41678494,1.2146218,-10.904635,-0.005165949,0.008792097,-0.07769588,54.375,78.0,0.0023928226,1114658,483,4273,-4462,13101
116356708,5290,0,0.41123986,1.5900314,-8.962736,-0.034321006,0.002258986,-0.08390655,54.375,78.0,0.0023928226,1114658,-53,-702,-4521,-14
116461748,4276,0,-0.18714917,-1.2955369,-10.346503,-0.041834693,-0.019981528,-0.03354506,54.25,78.0,0.0023928226,1114658,3382,-1261,-3674,13095
116559347,4189,0,1.5374614,-1.9573361,-9.934123,0.030795418,-0.008052392,-0.046772767,54.25,78.0,0.0023928226,1114658,378,-766,-6933,13095
116661172,4155,0,-1.1739128,-1.32202,-8.9549,0.020998899,-0.0008232062,-0.026469372,54.5,78.0,0.0023928226,1114658,715,4212,-8450,13104
117575719,4202,0,-0.39611223,0.41360533,-8.949013,0.0012118173,-0.00067623035,-0.06290879,54.375,78.0,0.0023928226,1114658,16,3479,-5268,13115
117682830,5255,0,-0.020475041,-1.9978927,-10.133113,0.01702139,-0.0036987916,-0.032298017,54.25,78.0,0.0023928226,1114658,-1302,1709,-1151,13114
117779418,4130,0,-0.3557976,-1.1497327,-9.587238,0.025187606,0.008936084,-0.029483125,54.375,78.0,0.0023928226,1114658,-772,3790,-3371,13098
117881267,4199,0,-0.32657248,0.7313853,-10.620501,0.01540075,0.013033083,-0.054678336,54.375,78.0,0.0023928226,1114658,297,2488,-2257,13107
117987368,4209,0,-0.6327878,0.83849317,-8.56409,-0.025229268,-0.008184862,-0.046781946,54.375,78.0,0.0023928226,1114658,575,1473,-8828,13118
118085011,4244,0,0.38424295,0.9796733,-9.34174,0.008175428,-0.0010307953,-0.02957345,54.375,78.0,0.0023928226,1114658,-80,1194,-1710,8193
118186819,5252,0,1.0248921,-0.6707227,-11.367219,-0.010006582,-0.01493629,-0.040829856,54.25,78.0,0.0023928226,1114658,1645,-1040,4115,13104
118288667,5249,0,0.77712065,-1.3371086,-9.082406,-0.012459647,0.0045207785,-0.028230602,54.5,78.0,0.0023928226,1114658,32,-1914,-5430,13118
118390541,5274,0,-0.9087548,-0.18017739,-10.619775,-0.022247763,0.020419383,-0.033245023,54.25,78.0,0.0023928226,1114658,155,111,1113,13131
118491318,4152,0,0.06067772,0.9168032,-8.657533,-0.01957859,0.0050959666,-0.027171448,54.375,78.0,0.0023928226,1114658,-1712,28,-6780,13122
118595317,5299,0,-0.7903668,1.034276,-9.304441,-0.0032886672,-0.008973666,-0.04266724,54.25,78.0,0.0023928226,1114658,714,3148,-3471,13116
118697159,5261,0,0.77902,-0.6594342,-10.665257,0.025654059,-0.0061568245,-0.06603939,54.375,78.0,0.0023928226,1114658,1296,1995,-2254,0
118796941,4274,0,-0.59148186,-1.8867272,-9.613826,-0.01065953,-0.0023067393,-0.064393,54.375,78.0,0.0023928226,1114658,-346,3035,-6789,13131
118898718,4201,0,-0.5449626,-1.0534166,-9.450568,0.009069171,-0.0021658626,-0.030846974,54.375,78.0,0.0023928226,1114658,-510,2403,-5387,13134
119000568,4200,0,-0.6848604,1.6416034,-10.593708,0.008988204,0.013583099,-0.053617798,54.5,78.0,0.0023928226,1114658,559,4103,253,13124
119099340,4272,0,0.21332912,1.2390841,-9.33697,0.00090077927,-0.0006977996,-0.016230624,54.5,78.0,0.0023928226,1114658,-728,1125,-3228,13130
119201159,4219,0,-1.0650661,1.2251697,-9.371609,-0.015918683,-0.006804265,-0.06354586,54.5,78.0,0.0023928226,1114658,1637,2063,-6274,-14
119302968,4200,0,0.6013658,-0.5254767,-8.732296,-0.0008350628,-0.017795265,-0.055575766,54.5,78.0,0.0023928226,1114658,1835,484,-8156,13146
119404869,4245,0,-1.0384015,-1.7516046,-10.461358,0.02307715,-0.0062929187,-0.06654604,54.5,78.0,0.0023928226,1114658,1461,4574,-3371,11551
119506668,4152,0,0.832238,-0.8467407,-9.581864,-0.013085672,-0.009291524,-0.037247855,54.375,78.0,0.0023928226,1114658,168,-3814,-2792,13126
119610620,4174,0,-0.34782094,1.7515284,-9.764228,0.01796218,0.0140306065,-0.05529874,54.5,78.0,0.0023928226,1114658,-90,3542,-3279,13138
119708268,4152,0,0.8318899,1.2643737,-9.56684,0.018914199,0.0045945584,-0.08090881,54.5,78.0,0.0023928226,1114658,1308,380,-4594,11548
119813267,4199,0,-0.33841577,-0.48450163,-9.462776,-0.008196345,-0.012861508,-0.0022378447,54.5,78.0,0.0023928226,1114658,846,3050,-466,-15
119915162,4241,0,0.8178197,-1.7087746,-9.511787,0.0045296107,-0.012345561,-0.05891043,54.375,78.0,0.0023928226,1114658,930,-840,-5776,8192
120016999,4232,0,-1.0628631,-1.5353084,-9.818824,-0.014284315,0.0048160944,-0.05726041,54.375,78.0,0.0023928226,1114658,-472,817,-5520,13133
120118818,4197,0,-0.020163955,0.61108917,-9.915126,0.024664966,0.016367618,-0.06211713,54.5,78.0,0.0023928226,1114658,-258,2546,-4421,11550
120220668,4200,0,1.4910157,1.3901656,-10.411974,-0.023200814,-0.0030513247,-0.019672493,54.5,78.0,0.0023928226,1114658,207,-3971,1893,-15
120324618,4200,0,-0.039571833,0.09979477,-10.169432,0.0237719,-0.01341996,-0.027441908,54.5,78.0,0.0023928226,1114658,3073,2406,-1554,8193
120425417,4199,0,-0.05968945,-1.043629,-9.969435,0.011613423,-0.019507607,0.022858733,54.5,78.0,0.0023928226,1114658,823,3052,334,-15
120526217,5199,0,1.1520844,-0.8413014,-9.088922,0.015527186,0.0004137111,-0.03164374,54.375,78.0,0.0023928226,1114658,2406,-34,-7155,8192
120629159,6302,0,-0.14616387,-0.5470345,-9.624449,-0.011599273,-0.0025078924,-0.028277418,54.375,78.0,0.0023928226,1114658,199,-589,-6384,8193
120733068,4106,0,0.37612894,1.1635953,-10.050856,0.0003119096,0.0022981483,-0.10835014,54.375,78.0,0.0023928226,1114658,-594,1862,-1438,11545
120834917,4199,0,0.48627892,0.06881107,-11.1312895,0.018298462,-0.01798954,-0.060334705,54.5,78.0,0.0023928226,1114658,2338,2373,1889,2048
120934668,4121,0,0.5577806,-0.60164565,-10.428736,0.037547376,-0.013264257,-0.008583184,54.5,78.0,0.0023928226,1114658,1440,2885,-115,13152
121036518,5180,0,-0.13652202,-1.8251288,-10.56908,-0.0020252026,0.004710506,-0.067029566,54.5,78.0,0.0023928226,1114658,-331,448,-5221,2048
121138367,5204,0,0.61860573,-0.74966866,-10.393981,0.008344447,0.009561963,-0.016835542,54.5,78.0,0.0023928226,1114658,-529,-2351,661,8192
121240229,5261,0,-0.6763041,1.2434754,-9.70299,-0.010419577,0.008203832,-0.04187098,54.375,78.0,0.0023928226,1114658,931,950,-2291,13159
121338917,4200,0,1.022466,1.091955,-9.140262,-0.012293005,0.00793191,-0.01843144,54.375,78.0,0.0023928226,1114658,-321,-4079,-3301,-14
121444968,4188,0,-0.27263898,-0.44322014,-8.993527,-0.00613266,-0.013469327,-0.052955993,54.375,78.0,0.0023928226,1114658,838,1872,-6283,13157
121542655,4186,0,-0.1174757,-1.1962336,-9.664941,-0.027169796,-0.005667261,-0.04073858,54.375,78.0,0.0023928226,1114658,1741,274,-5522,-14
121646591,4224,0,-0.66291535,-1.1032925,-9.521604,-0.0027529248,0.0042122332,-0.0576816,54.375,78.0,0.0023928226,1114658,767,2391,-9033,13163
121750546,4181,0,0.3332631,1.120455,-9.201671,-0.0054164142,-0.00019141806,-0.016265377,54.5,78.0,0.0023928226,1114658,-272,-1490,-1712,13160
121852368,4197,0,-0.45328438,1.7343688,-9.251638,0.0016435082,0.006514119,-0.0023823353,54.5,78.0,0.0023928226,1114658,891,1260,-758,11572
121956318,4171,0,1.2533612,-0.06967519,-10.305572,0.032062598,-0.003539838,-0.056636784,54.5,78.0,0.0023928226,1114658,1966,664,-331,0
122053967,4168,0,0.88719565,-0.81800425,-10.927164,0.012207981,-0.008521765,-0.04960511,54.375,78.0,0.0023928226,1114658,1263,-248,-692,8193
122154767,4176,0,-0.21300025,-2.2053385,-10.4868355,0.003808065,-0.0013410966,-0.037728153,54.5,78.0,0.0023928226,1114658,-980,582,-2293,-14
122256618,4200,0,-0.07228891,-0.09625763,-10.820121,-0.008043079,0.02201735,-0.039231025,54.375,78.0,0.0023928226,1114658,-399,-631,383,8193
122356368,4191,0,-0.77356,0.44442523,-9.866255,-0.010628496,0.010123523,-0.031175293,54.5,78.0,0.0023928226,1114658,-366,2155,-2392,-14
122460332,4212,0,0.8992464,0.74660784,-9.925668,-0.012709804,-0.0027687538,-0.0666024,54.375,78.0,0.0023928226,1114658,-808,-2628,-1765,13170
122562196,4229,0,-0.03975965,-0.45123866,-10.228109,0.0061779236,0.0011434256,-0.024584305,54.5,78.0,0.0023928226,1114658,462,2016,-180,-14
122661918,4196,0,1.1123077,-1.3360828,-10.361054,-0.021945663,-0.007166937,-0.045943785,54.375,78.0,0.0023928226,1114658,1504,-2221,-2069,8192
122767967,4144,0,-0.1596898,0.016480377,-9.741654,0.0055092718,0.017512927,-0.04250412,54.375,78.0,0.0023928226,1114658,43,-1030,-3254,8193
122871918,4199,0,-0.76883197,1.4312477,-9.354672,0.01889269,-0.00073743245,-0.028998923,54.5,78.0,0.0023928226,1114658,1433,3989,-1099,-15
122973808,5291,0,1.9654629,0.064347595,-9.528979,0.024099493,-0.0062686065,-0.055185802,54.625,78.0,0.0023928226,1114658,1933,-2264,-4755,13168
123075619,5252,0,0.41362512,-1.697157,-9.928472,-0.038838528,0.0021734738,-0.058177687,54.5,78.0,0.0023928226,1114658,571,-1413,-7521,8193
123178580,4249,0,0.44850945,-0.6917534,-10.791552,0.024686962,0.0077080647,-0.033885773,54.5,78.0,0.0023928226,1114658,1431,-264,-1372,13181
123279318,5250,0,0.5735436,-0.3048531,-9.89509,-0.021223485,0.0057222783,-0.029834205,54.5,78.0,0.0023928226,1114658,-2018,-3096,-1375,2049
123380169,4252,0,0.51781434,0.9162856,-8.403207,-0.0015326453,0.004206767,-0.036305115,54.375,78.0,0.0023928226,1114658,-555,-1570,-7307,13184
123486168,4200,0,-0.23132828,-0.4140844,-9.343074,0.034721993,-0.009284404,-0.018024938,54.5,78.0,0.0023928226,1114658,1069,4529,-6119,2048
123585918,4174,0,-0.32975113,-1.2568097,-9.962871,-0.008390165,-0.004034034,-0.08778388,54.5,78.0,0.0023928226,1114658,-260,2202,-6600,0
123687767,5201,0,-0.077157006,-1.4993706,-9.829356,0.016706437,-0.003868069,-0.053201273,54.375,78.0,0.0023928226,1114658,819,2005,-4820,-15
123787518,4150,0,-0.8436694,-0.40701956,-8.473105,-0.012805914,0.010816897,-0.020530287,54.375,78.0,0.0023928226,1114658,-576,3679,-7426,13191
123890517,4293,0,-0.9630747,1.6358362,-9.850185,-0.0082781715,0.010891028,-0.043494694,54.625,78.0,0.0023928226,1114658,-57,3563,904,11570
123988146,4279,0,0.26107112,1.7820431,-9.585079,-0.007399133,-0.0051733432,0.0028661555,54.375,78.0,0.0023928226,1114658,1997,-1335,-454,13194
124092069,4252,0,-0.087229796,0.23913948,-10.03134,-0.020234583,-0.011815796,-0.0020877824,54.5,78.0,0.0023928226,1114658,2349,793,-815,11574
124193867,4127,0,0.23973197,-1.86775,-10.775948,-0.02646758,-0.006849842,-0.047220774,54.375,78.0,0.0023928226,1114658,1314,594,559,-15
124295737,4219,0,0.32677183,-1.4971806,-10.033737,-0.030984765,0.0064528445,-0.07707415,54.5,78.0,0.0023928226,1114658,-432,-1968,-4521,0
124396517,4199,0,0.475481,-0.34053433,-8.906797,0.004757693,0.005506422,0.00018583561,54.625,78.0,0.0023928226,1114658,-953,-2446,-3554,8192
124498401,4223,0,0.37371996,1.7058865,-10.382172,0.012067396,0.007540645,-0.011434364,54.375,78.0,0.0023928226,1114658,-910,1,2903,13177
124600218,4149,0,1.2565454,1.7335279,-10.61022,-0.007357052,-0.0013334795,-0.03194151,54.625,78.0,0.0023928226,1114658,1980,-3219,-1122,13202
124702072,4186,0,1.3143684,-0.31447795,-10.558573,-0.0036210667,-0.008196006,-0.054860517,54.375,78.0,0.0023928226,1114658,132,-1439,-1246,11575
124803917,4200,0,1.2756563,-1.6492236,-10.192418,0.003962496,-0.0048207627,-0.053269338,54.5,78.0,0.0023928226,1114658,1097,-1377,-5533,16986
124905824,5306,0,-0.62910223,-1.632761,-9.867748,0.020678908,0.010689321,-0.044659194,54.375,78.0,0.0023928226,1114658,-1179,2321,-3061,0
125002367,4169,0,0.5261197,-1.138849,-10.057467,0.00019289875,0.010684909,-0.04815152,54.5,78.0,0.0023928226,1114658,17,-3288,-6172,13192
125109468,5250,0,0.12151829,1.0958612,-9.614965,-0.013902861,0.0034943002,-0.030041022,54.5,78.0,0.0023928226,1114658,-801,424,1833,8192
125206078,4210,0,0.7110072,2.1218421,-8.894847,0.02304168,0.0150592895,-0.063288435,54.5,78.0,0.0023928226,1114658,-16,1840,-6579,0
125312157,4240,0,1.7443233,-0.4677209,-11.125656,0.0068262327,-0.004646347,-0.049733084,54.625,78.0,0.0023928226,1114658,3105,-2890,507,8192
125413973,4198,0,1.2281743,-1.5133146,-11.229936,0.00795803,0.0034327058,-0.059414025,54.5,78.0,0.0023928226,1114658,740,-2979,-1543,13206
125511628,5257,0,-0.66901815,-1.8590403,-10.438233,-0.013360372,-0.0054297666,-0.038372084,54.5,78.0,0.0023928226,1114658,-22,2751,-1680,2049
125613500,5264,0,-1.0034959,-0.084423274,-9.363112,-0.021189727,0.018372826,-0.0889507,54.25,78.0,0.0023928226,1114658,-1530,1270,-5976,2048
125715384,5316,0,0.2465328,2.0572917,-9.868971,0.027002363,0.020223921,-0.032127205,54.5,78.0,0.0023928226,1114658,-245,3954,1874,-15
125816169,4252,0,0.8029647,0.9854422,-9.574512,-0.010978298,-0.0065530916,-0.053933933,54.5,78.0,0.0023928226,1114658,277,-918,-2458,13218
125922168,4199,0,1.0126101,-1.1775783,-10.059281,0.01592223,-0.0135673955,-0.05669603,54.5,78.0,0.0023928226,1114658,2120,-1060,-3503,8192
126019818,4165,0,0.5815497,-1.5153176,-11.063417,0.002557686,-0.01017462,-0.049824823,54.5,78.0,0.0023928226,1114658,1667,-1935,1768,13209
126121739,4272,0,-0.34587666,-0.5987332,-8.879765,-0.013560013,0.0059943576,-0.0015473983,54.375,78.0,0.0023928226,1114658,247,-411,-9001,13219
126223518,4178,0,-0.59892815,0.79928166,-9.750019,0.025525227,0.0031826857,-0.077034086,54.375,78.0,0.0023928226,1114658,-1779,3652,-2256,16985
126325367,4200,0,1.1654328,1.8186547,-9.261483,0.0032376566,0.014237457,-0.048504263,54.5,78.0,0.0023928226,1114658,1246,-1278,-6721,-15
126426167,4200,0,1.247326,0.84945244,-10.414854,-0.02249485,-0.010780554,-0.040886737,54.5,78.0,0.0023928226,1114658,-426,-2451,4181,-15
126528072,4254,0,0.37589237,-0.08836167,-10.342374,0.00411335,-0.012021901,-0.03358374,54.375,78.0,0.0023928226,1114658,3432,1057,-2599,11582
126629867,4127,0,-0.9109374,-1.4241563,-8.593168,0.01089674,-0.0051999795,-0.023453431,54.375,78.0,0.0023928226,1114658,-797,4479,-7437,-15
126731718,4200,0,0.28400835,-0.33041075,-8.59095,0.00392938,0.01809145,-0.022249311,54.5,78.0,0.0023928226,1114658,525,-1898,-9222,13223
126832517,4199,0,1.0652943,0.8077169,-8.882356,-0.010979873,0.0011456655,-0.073528744,54.5,78.0,0.0023928226,1114658,139,-3754,-4530,8192
126939618,5214,0,1.0103313,0.35800126,-8.344753,0.027411059,-0.00962025,-0.0146416975,54.5,78.0,0.0023928226,1114658,958,-438,597,8193
127036218,4172,0,0.91125447,-0.3881232,-11.045389,0.015383698,-0.0017171699,-0.03672303,54.5,78.0,0.0023928226,1114658,-898,1115,107,13232
127143340,5272,0,-0.73669815,-1.7925147,-9.969599,-0.0029382505,-0.010919378,-0.029116893,54.375,78.0,0.0023928226,1114658,579,1364,-2868,13225
127244141,4224,0,0.05191906,0.2850894,-8.732721,0.025734082,0.013210279,-0.06707794,54.5,78.0,0.0023928226,1114658,-191,1507,-10467,13235
127341799,5282,0,0.1343268,-0.36121967,-10.587256,0.021215493,0.022873275,-0.06936737,54.5,78.0,0.0023928226,1114658,-1080,3459,-6836,13221
127447818,4200,0,-0.9640888,1.1850771,-8.5470915,-0.005058946,-0.00210144,-0.04110416,54.5,78.0,0.0023928226,1114658,-1260,4831,-5251,-14
127545467,5249,0,-0.04807465,1.6162865,-9.017022,-0.005951636,-0.0026893788,-0.050095476,54.5,78.0,0.0023928226,1114658,2346,-631,-9927,8192
127647343,5275,0,0.2201324,-0.05607373,-9.457884,-0.013369616,-0.016628183,-0.028603613,54.625,78.0,0.0023928226,1114658,2708,1850,-6653,11587
127748162,4245,0,-0.17458297,-0.9656102,-9.98616,0.016587483,0.0007488388,-0.06732996,54.5,78.0,0.0023928226,1114658,2644,2024,-6176,8192
127849968,4164,0,-0.8756076,-0.87843674,-10.020431,0.0062792497,0.0045225597,-0.030144757,54.5,78.0,0.0023928226,1114658,-775,2364,-696,13222
127956046,4193,0,-0.5696022,1.5112096,-8.073804,-0.01795767,0.008317571,0.004597156,54.5,78.0,0.0023928226,1114658,993,1010,-6878,0
128057868,4152,0,0.83344626,0.6361597,-9.987936,0.028019028,0.0017090755,-0.08098451,54.5,78.0,0.0023928226,1114658,2612,322,-4917,8192
128159718,4200,0,0.7515079,-1.5549337,-10.138597,0.0043423646,-0.004733809,-0.01537175,54.625,78.0,0.0023928226,1114658,-2,-1518,-4878,2048
128260518,4200,0,0.29761982,-1.6394521,-10.693086,-0.013936551,-0.003539025,-0.06981923,54.5,78.0,0.0023928226,1114658,1063,-2771,-3745,13246
129279017,5224,0,1.6167334,-1.4592816,-10.240523,0.013780942,-0.0054376395,-0.056999102,54.5,78.0,0.0023928226,1114658,450,-2299,-6553,13245
129381918,4177,0,0.092468075,-1.3533463,-11.611773,-0.003989367,0.004666742,-0.029514844,54.5,78.0,0.0023928226,1114658,-942,-2086,2829,-14
129483768,4200,0,-0.13583416,0.39730325,-9.400121,0.010406945,0.009199547,-0.063870445,54.5,78.0,0.0023928226,1114658,-348,-1861,-6857,16986
129583522,4144,0,0.9575665,1.6326145,-10.362051,0.02101362,0.0061909407,-0.048118137,54.625,78.0,0.0023928226,1114658,62,941,2229,16986
129685368,4200,0,0.33946902,1.0608665,-9.586726,0.014900004,-0.004344268,-0.055058345,54.5,78.0,0.0023928226,1114658,2384,1111,-5791,13247
129789318,4194,0,1.8513365,-0.87663597,-9.934366,-0.014888206,-0.014636546,-0.044366375,54.625,78.0,0.0023928226,1114658,818,-3135,-1400,13246
129885927,4150,0,-1.0738114,-1.5352998,-9.458941,0.003906785,-0.0027969996,-0.07093126,54.625,78.0,0.0023928226,1114658,1371,3354,-9955,0
129989868,4152,0,-0.7074292,-1.8730041,-9.412527,0.0013416228,-0.0011766297,-0.03433012,54.5,78.0,0.0023928226,1114658,785,2416,-8619,13263
130089646,4222,0,-0.98046285,-0.55424637,-9.723759,-0.008416803,0.014318595,-0.05491968,54.5,78.0,0.0023928226,1114658,112,-242,-7347,8193
130191468,4128,0,0.19077432,1.0059892,-9.343997,0.009879529,0.009529235,-0.065748334,54.5,78.0,0.0023928226,1114658,-819,2900,-4206,13263
130293318,4168,0,-0.15923955,1.9801487,-8.763962,0.024287665,0.0088908905,-0.070973165,54.625,78.0,0.0023928226,1114658,-48,3821,-4824,13253
130397268,4200,0,0.72086066,-1.1699802,-10.934947,0.034378186,-0.0024952912,-0.08384537,54.625,78.0,0.0023928226,1114658,1717,374,-5464,11595
130498084,4211,0,-0.45913088,-1.8995867,-9.592024,-0.0151566025,-0.0073152725,-0.085586645,54.625,78.0,0.0023928226,1114658,1744,1230,-10127,13264
130598867,5221,0,0.4495847,-1.3675185,-9.704494,-0.0019637318,0.008287031,-0.037851986,54.5,78.0,0.0023928226,1114658,-94,-4232,-7044,-15
130700718,5251,0,-2.4744408,-0.1893119,-8.607282,0.011517996,0.0058841226,-0.043221068,54.5,78.0,0.0023928226,1114658,-125,4611,-7987,11598
130803618,4200,0,0.17287102,1.5463988,-8.761085,-0.022651039,0.013806257,-0.025298243,54.625,78.0,0.0023928226,1114658,-484,-469,-7651,16986
130903394,4227,0,0.9968701,1.5814025,-9.474903,0.0055763065,-0.008697784,-0.030339383,54.5,78.0,0.0023928226,1114658,749,-2419,-3083,11602
