timestamp,integral_dt,error_count,x,y,z,x_integral,y_integral,z_integral,temperature,range_m_s2,scaling,device_id,x_raw,y_raw,z_raw,temperature_raw
29485623,3954,0,-0.22814919,0.0943248,-9.683044,0.00011535513,-4.718546e-06,-0.03782537,60.74515,156.9064,0.0047884034,1442850,113,33,-2047,9294
29589637,4015,0,-0.4424971,0.87382954,-9.464733,-0.0035975266,0.00085057033,-0.033376954,60.73407,156.9064,0.0047884034,1442850,360,-56,-1742,9290
29689629,4007,0,-0.5256659,-0.45043665,-10.254637,0.0013721315,0.0037466302,-0.042777542,60.7036,156.9064,0.0047884034,1442850,-1,-440,-1623,9279
29793623,3965,0,-0.5484767,-0.40625882,-9.798586,-0.010059051,-0.0037632994,-0.030790359,60.736843,156.9064,0.0047884034,1442850,552,-73,-1318,9291
29893655,4033,0,0.27342862,2.8829384,-9.574168,0.0059038405,0.005190276,-0.032568447,60.75069,156.9064,0.0047884034,1442850,23,323,-1518,9296
29997623,4000,0,0.4234728,2.8431644,-9.119544,0.005987631,0.006098649,-0.037476584,60.71745,156.9064,0.0047884034,1442850,406,165,-2415,9284
30097622,3984,0,0.011640627,2.0278342,-9.364043,0.0012735408,0.011340367,-0.041013747,60.72576,156.9064,0.0047884034,1442850,318,-121,-2205,9287
30197622,4000,0,-0.06394933,1.7884841,-9.661612,-0.002641397,0.0031019067,-0.036731534,60.71468,156.9064,0.0047884034,1442850,315,-7,-2088,9283
30301651,4029,0,-0.35456514,-0.20920664,-9.888844,0.0032902756,-0.0041618813,-0.04889547,60.75069,156.9064,0.0047884034,1442850,-26,85,-2029,9296
30401652,3991,0,-0.6954826,-0.109234415,-9.653817,0.0046823793,0.0096538905,-0.040799625,60.74792,156.9064,0.0047884034,1442850,-718,-760,-2698,9295
30501671,4047,0,-2.0042386,-0.7450241,-10.143502,-0.0044067297,-0.007770997,-0.041662283,60.74515,156.9064,0.0047884034,1442850,-326,-89,-1505,9294
30605624,3966,0,-1.6432874,-0.16165252,-9.944186,0.0086496305,0.00880178,-0.039508693,60.736843,156.9064,0.0047884034,1442850,-838,-334,-1848,9291
30705622,3953,0,0.6406137,0.5851898,-9.496781,0.012847664,0.025409892,-0.0513952,60.720222,156.9064,0.0047884034,1442850,-283,-698,-2605,9285
30809629,4007,0,0.06932353,-1.6084965,-9.492774,0.017499296,0.023136038,-0.057019234,60.72576,156.9064,0.0047884034,1442850,-600,-1886,-2982,9287
30909629,4007,0,1.6604123,0.13585563,-10.051442,0.011701666,0.009094768,-0.043923434,60.76731,156.9064,0.0047884034,1442850,870,15,-2126,9302
31009622,3999,0,-0.6292824,0.976162,-10.317761,-0.026830357,0.0028030258,-0.049793303,60.74515,156.9064,0.0047884034,1442850,619,647,-1901,9294
31113629,4007,0,0.64824736,-0.11768138,-9.451455,0.025322113,0.0093522025,-0.048180014,60.736843,156.9064,0.0047884034,1442850,-70,-970,-3208,9291
31213622,4000,0,-4.090532,-0.12900104,-9.095748,0.027668627,-0.008293126,-0.022962194,60.761772,156.9064,0.0047884034,1442850,-3927,52,-1828,9300
31313622,4000,0,-0.82562,-0.28888994,-8.7011795,0.035092592,-0.007578389,-0.04118661,60.71468,156.9064,0.0047884034,1442850,-1800,243,-2463,9283
31417622,4000,0,-1.496094,0.15079096,-10.658721,-0.04944272,0.008738654,-0.0386249,60.736843,156.9064,0.0047884034,1442850,500,-253,-1427,9291
31517622,3977,0,-0.77359056,0.34008595,-9.608455,-0.04174539,-0.004141323,-0.006647899,60.761772,156.9064,0.0047884034,1442850,560,-17,-388,9300
31621700,4076,0,-0.024369992,1.2045387,-9.871681,0.047513623,-0.00736548,-0.03705977,60.753464,156.9064,0.0047884034,1442850,-1775,530,-1372,9297
31721695,4073,0,1.2644191,0.63477886,-11.970617,0.008880087,0.00087988074,-0.028356174,60.753464,156.9064,0.0047884034,1442850,1814,-190,1279,9297
31821658,4036,0,-1.7969581,0.17387904,-9.502273,0.018970776,0.0045104027,-0.07132061,60.736843,156.9064,0.0047884034,1442850,-2826,-107,-3072,9291
31925623,3965,0,1.0337921,1.0773631,-9.430743,0.006290122,-0.0040103756,-0.021383528,60.761772,156.9064,0.0047884034,1442850,1876,63,-1121,9300
32025623,3972,0,1.3114643,0.69906825,-10.532717,-0.024011426,0.010740237,-0.045698173,60.742382,156.9064,0.0047884034,1442850,2065,-385,-1765,9293
32125623,3972,0,-0.9666083,0.69123906,-9.720073,0.009394839,-0.0035937508,-0.02805585,60.78393,156.9064,0.0047884034,1442850,-1787,237,-1949,9308
32229622,3970,0,0.13689765,0.24601448,-11.04678,-0.008162912,0.007936536,-0.02969101,60.73407,156.9064,0.0047884034,1442850,562,-129,-98,9290
32329654,4031,0,-0.29934856,0.52250266,-11.569429,0.0077749174,-0.0059138453,-0.04895786,60.753464,156.9064,0.0047884034,1442850,27,-180,-2565,9297
32433627,4004,0,-0.15851177,-0.33561465,-11.573134,0.010358921,-0.0061057564,-0.0047298204,60.739613,156.9064,0.0047884034,1442850,176,-990,58,9292
32533634,3980,0,-0.12745923,-0.20791595,-11.054296,0.018370958,-0.00078369095,-0.07533163,60.72576,156.9064,0.0047884034,1442850,-1285,588,-2865,9287
32633622,4000,0,-0.5682229,-0.8327734,-11.325003,-0.0014418885,0.015482241,-0.02225469,60.78393,156.9064,0.0047884034,1442850,-129,-447,-2002,9308
32737623,3994,0,-0.84818506,1.1104492,-10.555622,0.015497409,0.006077136,-0.06221896,60.7867,156.9064,0.0047884034,1442850,-1123,665,-3527,9309
32837623,3947,0,0.4018275,1.1704873,-9.815928,-0.010491085,0.0060035535,-0.022789076,60.739613,156.9064,0.0047884034,1442850,940,-979,-3038,9292
32937622,3954,0,-0.59986055,1.322814,-11.8375025,0.021698242,-0.0051403074,-0.046760343,60.781162,156.9064,0.0047884034,1442850,-1888,567,-66,9307
33042423,4000,0,0.0779771,-0.38466015,-10.990647,0.016939126,-0.014875395,-0.034970365,60.77008,156.9064,0.0047884034,1442850,-136,1002,-2743,9303
33142448,4025,0,-0.11689541,-0.7646571,-10.131964,-0.006182653,-1.9815983e-05,-0.004033056,60.76454,156.9064,0.0047884034,1442850,1032,882,-3356,9301
33242423,4000,0,-0.9360805,-0.25822043,-10.070776,0.0031356753,0.01172008,-0.077587225,60.772854,156.9064,0.0047884034,1442850,-691,-975,-4932,9304
33346423,4000,0,-0.39947358,1.6527326,-9.371554,-0.013744926,0.005066984,-0.037223533,60.77008,156.9064,0.0047884034,1442850,-868,-170,-4213,9303
33446423,4000,0,-0.22543558,0.75020397,-11.682111,0.019322092,-0.010265446,-0.02206253,60.808865,156.9064,0.0047884034,1442850,-905,419,275,9317
33546429,4006,0,1.375971,-0.799924,-10.991722,0.0022491356,0.004391585,-0.051697236,60.775623,156.9064,0.0047884034,1442850,1831,-347,-1513,9305
33650434,4004,0,-1.1180892,-1.1294289,-9.321636,-0.028133249,0.004346826,-0.033432618,60.76731,156.9064,0.0047884034,1442850,-171,-400,-3509,9302
33750423,4000,0,-0.8962862,0.49799684,-10.4317665,-0.022191728,0.015892843,-0.01589668,60.76731,156.9064,0.0047884034,1442850,362,-120,-1077,9302
33854429,4006,0,-0.39102823,1.6787623,-10.044403,0.028138932,0.01186819,-0.0660847,60.778393,156.9064,0.0047884034,1442850,-1942,127,-2169,9306
33954423,4000,0,-1.4939016,0.5230544,-9.721686,0.013500652,-0.009190374,-0.032127433,60.7867,156.9064,0.0047884034,1442850,-2172,243,-2606,9309
34054423,3976,0,-0.54640967,-0.36114866,-9.748965,-0.02890441,-0.008126199,-0.07621768,60.756233,156.9064,0.0047884034,1442850,-285,47,-3656,9298
34158463,4040,0,-1.670061,-1.3715702,-9.990897,0.007403915,0.0052097486,-0.08077399,60.792244,156.9064,0.0047884034,1442850,-1735,-827,-3507,9311
34258453,4031,0,-1.5137796,0.032378945,-9.8805895,-0.00941168,0.0022201717,-0.027266651,60.781162,156.9064,0.0047884034,1442850,-1894,-176,-560,9307
34362463,4040,0,-1.3666452,1.6746398,-10.18892,0.017514657,0.009708692,-0.04581572,60.74792,156.9064,0.0047884034,1442850,-2464,238,-482,9295
34462423,4000,0,-0.30390617,0.34130847,-8.908173,-0.031224335,-0.011053837,-0.021533746,60.74515,156.9064,0.0047884034,1442850,479,294,-3741,9294
34562451,4022,0,1.593529,-0.78983104,-9.551393,-0.009163505,-0.0044603497,-0.049821682,60.795013,156.9064,0.0047884034,1442850,2287,-274,-2532,9312
34666422,3999,0,1.1202518,-0.9000172,-10.131937,0.0049101273,0.00091790746,-0.017010575,60.75069,156.9064,0.0047884034,1442850,1929,-550,-14,9296
34766429,3976,0,-0.8680007,0.83401954,-8.804444,-0.043597773,0.009646031,-0.018403083,60.77008,156.9064,0.0047884034,1442850,1056,200,-1493,9303
34866473,4050,0,-0.8281731,1.1434128,-7.637319,0.024251286,0.0031189867,-0.072330624,60.759003,156.9064,0.0047884034,1442850,-2089,-32,-4474,9299
34970423,3997,0,-0.5125734,-0.41344938,-8.55083,-0.0338681,0.0023363363,-0.056676354,60.78393,156.9064,0.0047884034,1442850,-22,-41,-1760,9308
35070423,4001,0,0.3657266,-0.96701515,-8.375142,0.031077312,-0.006032341,-0.01928556,60.761772,156.9064,0.0047884034,1442850,-519,437,-1533,9300
35174428,4006,0,0.7984631,0.962975,-8.844495,-0.04916109,0.014991723,-0.012156291,60.78393,156.9064,0.0047884034,1442850,2867,51,-324,9308
35274470,4047,0,-1.3451141,1.2221069,-7.3496785,0.0057147243,0.0070554866,-0.056405723,60.77008,156.9064,0.0047884034,1442850,-1557,-21,-5772,9303
35374423,3956,0,0.6175531,0.48907924,-8.641267,0.03635703,-0.0137818325,-0.046654724,60.761772,156.9064,0.0047884034,1442850,-73,673,-1590,9300
35478423,4000,0,-1.6735986,-0.91715336,-8.400586,-0.042766567,-0.0118613085,-0.02720892,60.792244,156.9064,0.0047884034,1442850,-378,151,-1540,9311
35578470,4047,0,-0.41837755,-0.16423054,-9.436421,0.039611526,0.011145779,-0.0588664,60.789474,156.9064,0.0047884034,1442850,-1274,-333,-966,9310
35678423,4000,0,-0.30076814,0.22538126,-9.142032,-0.035380386,0.009221802,-0.052586645,60.792244,156.9064,0.0047884034,1442850,950,-975,-1775,9311
35782423,3994,0,1.1229576,0.8054471,-9.900368,-0.0343527,-0.01139848,-0.010609049,60.795013,156.9064,0.0047884034,1442850,2909,140,-1031,9312
35882422,3993,0,-0.89735526,0.008741775,-10.031421,0.037426684,-0.0028021012,-0.031797934,60.76731,156.9064,0.0047884034,1442850,-2721,402,-1630,9302
35982440,4017,0,0.7271251,-1.0265732,-10.935886,-0.036923535,0.001041508,-0.0035006534,60.800552,156.9064,0.0047884034,1442850,3227,239,1570,9314
36086435,4012,0,0.06878415,-0.26305145,-9.724503,0.0018461561,0.009420624,-0.05017998,60.811634,156.9064,0.0047884034,1442850,1314,-361,-2093,9318
36186429,4006,0,-1.5476125,1.0537124,-9.237048,0.004606249,0.0030664294,-0.035687044,60.795013,156.9064,0.0047884034,1442850,-2193,-637,-2702,9312
36290423,4001,0,0.5944034,0.6313981,-8.943627,-0.03679464,-0.002425531,-0.053936183,60.789474,156.9064,0.0047884034,1442850,1811,-321,-3736,9310
36390422,3999,0,-2.171229,-0.52031046,-10.488311,0.006602862,0.0011947452,-0.03887815,60.792244,156.9064,0.0047884034,1442850,-2988,330,329,9311
36490422,4000,0,0.45214397,-1.0065815,-10.1622095,0.040908635,-0.007385719,-0.026866574,60.808865,156.9064,0.0047884034,1442850,-54,71,-1679,9317
36594429,4007,0,-1.5109309,0.05568052,-10.071019,-0.022715678,0.009511983,-0.046687897,60.819942,156.9064,0.0047884034,1442850,-884,-790,-1677,9321
36694452,4029,0,0.23455761,1.3057613,-9.14401,0.027309317,0.007717252,-0.055021502,60.811634,156.9064,0.0047884034,1442850,-321,-1042,-1223,9318
36794423,3995,0,1.500638,1.2015661,-10.188454,0.0069627916,0.005115109,-0.06498917,60.800552,156.9064,0.0047884034,1442850,1417,-80,-520,9314
36898422,4000,0,-1.5983512,-1.1345853,-9.004047,-0.016435433,-0.006439703,-0.027942235,60.850414,156.9064,0.0047884034,1442850,-1349,-335,-2100,9332
36998462,4030,0,-0.30256256,-0.7702851,-11.530039,0.028060833,-0.00367562,-0.03746292,60.855953,156.9064,0.0047884034,1442850,-1031,718,1046,9334
37102422,3985,0,-0.40027767,0.25125387,-10.806503,0.027093116,0.0108300615,-0.02642629,60.833794,156.9064,0.0047884034,1442850,-1334,-195,-1087,9326
37202423,3960,0,-0.8072313,1.2978117,-10.635475,-0.030054294,0.007878539,-0.029114751,60.850414,156.9064,0.0047884034,1442850,616,-142,1565,9332
37302457,4035,0,-0.57919323,2.0452983,-9.858248,0.033414744,0.0022775142,-0.071835674,60.822716,156.9064,0.0047884034,1442850,-1419,481,-4107,9322
37406429,4006,0,-1.0154887,0.037194606,-10.644334,0.0055721644,-0.008651116,-0.06792519,60.828255,156.9064,0.0047884034,1442850,-2155,379,-1858,9324
37506422,4000,0,1.5689875,-1.4776984,-10.444591,-0.005514902,-0.013466462,-0.06174473,60.822716,156.9064,0.0047884034,1442850,2452,-432,-3800,9322
37606422,4000,0,-2.4238653,-1.441863,-9.834833,-0.0035023876,0.0046966244,-0.03757721,60.844875,156.9064,0.0047884034,1442850,-2243,-439,-3542,9330
37710463,4040,0,-0.59772426,0.50992817,-9.238929,-0.02057557,0.02031716,-0.0680923,60.825485,156.9064,0.0047884034,1442850,-90,-1618,-3993,9323
37810422,3964,0,1.1607753,1.6582108,-9.210226,0.02744349,0.0026758523,-0.02775214,60.867035,156.9064,0.0047884034,1442850,777,-219,-3376,9338
37914422,3999,0,0.2676684,0.35782984,-10.03425,0.047404584,-0.007333886,-0.061475817,60.828255,156.9064,0.0047884034,1442850,-1317,259,-4489,9324
38014458,4029,0,-0.101526305,-0.967868,-10.069926,-0.04270349,-0.015075384,-0.007076155,60.839333,156.9064,0.0047884034,1442850,1381,555,-2697,9328
38114422,3993,0,0.22260532,-1.1002479,-11.829416,0.03204866,-0.0042536505,-0.013410919,60.828255,156.9064,0.0047884034,1442850,-662,471,850,9324
38218423,4001,0,-1.0358145,-0.31455085,-9.667302,0.023138117,0.006207734,-0.054144204,60.833794,156.9064,0.0047884034,1442850,-1132,-964,-3544,9326
38318429,4007,0,0.37529013,0.805434,-10.382711,-0.03027239,0.0026902657,-0.003452056,60.822716,156.9064,0.0047884034,1442850,1904,130,-60,9322
38418459,4036,0,-0.35705802,2.1506176,-10.079991,0.027334426,0.0007097114,-0.0864685,60.828255,156.9064,0.0047884034,1442850,-1351,286,-2513,9324
38522441,4019,0,-1.3540208,0.5973538,-10.635656,0.007334424,-0.00544321,-0.04799128,60.80332,156.9064,0.0047884034,1442850,-2418,761,-596,9315
39234454,4025,0,-2.6702416,-0.19050549,-6.710695,0.046153072,-0.00066089514,-0.032889925,60.814404,156.9064,0.0047884034,1442850,-4276,-590,-2542,9319
39338423,4000,0,-0.9615085,0.33440635,-8.013554,0.05017075,-0.002051347,-0.02313939,60.817173,156.9064,0.0047884034,1442850,-2483,542,-1151,9320
39438422,3969,0,-0.6743774,0.25052658,-8.50754,0.041843757,0.0022998296,-0.02138474,60.806095,156.9064,0.0047884034,1442850,-2209,418,-678,9316
39542429,4000,0,2.1540513,-0.15435939,-10.874071,-0.024083154,0.0014268196,-0.025850141,60.839333,156.9064,0.0047884034,1442850,2903,322,1796,9328
39642461,4032,0,0.37282303,0.028762473,-9.451357,-0.041221887,0.010209689,-0.01824059,60.833794,156.9064,0.0047884034,1442850,2771,-919,-646,9326
39742422,3997,0,0.5820576,1.1914625,-10.078466,-0.04313068,0.015365405,-0.050322246,60.828255,156.9064,0.0047884034,1442850,2062,-765,395,9324
39846429,4006,0,-0.9594335,1.20734,-10.562358,0.031048343,0.0062386557,-0.06974168,60.828255,156.9064,0.0047884034,1442850,-2870,80,-207,9324
39950422,3977,0,0.46236128,-1.0023681,-11.241895,-0.035155706,-0.007859185,-0.04921698,60.839333,156.9064,0.0047884034,1442850,2435,-300,-160,9328
40050422,3982,0,-2.1396844,-1.4336326,-10.724854,-0.012974434,0.010701349,-0.05916125,60.831024,156.9064,0.0047884034,1442850,-1748,-440,-791,9325
40154459,4037,0,0.44274262,0.73598665,-11.171546,-0.018841777,0.010216543,0.0007029511,60.819942,156.9064,0.0047884034,1442850,2018,-247,2287,9321
40254422,3999,0,-1.0952255,2.2561362,-9.8031435,-0.024241474,0.0063123135,-0.03418768,60.847645,156.9064,0.0047884034,1442850,-541,424,-2432,9331
40354423,4000,0,-0.69531256,2.1875246,-9.540075,0.048697732,0.0020713683,-0.07351528,60.836563,156.9064,0.0047884034,1442850,-2328,112,-4736,9327
40458434,4012,0,0.22471362,-0.5864814,-10.925755,-0.03908197,-0.0142714055,-0.02887014,60.836563,156.9064,0.0047884034,1442850,1226,1083,-2913,9327
40558469,4046,0,-0.86112106,-1.4083985,-10.999877,0.01788643,-0.00544436,-0.06620051,60.836563,156.9064,0.0047884034,1442850,-1313,770,-920,9327
40658422,3999,0,1.0168465,-1.8791416,-11.270415,0.011282101,0.009356629,-0.07433155,60.817173,156.9064,0.0047884034,1442850,1808,-1304,-2329,9320
40762422,3993,0,-2.2412763,0.7702368,-10.498478,0.022323389,0.0102355685,-0.058656998,60.822716,156.9064,0.0047884034,1442850,-2871,-385,180,9322
40862423,3994,0,0.41653115,2.1870494,-9.611979,0.019170497,0.0063266377,-0.033747055,60.847645,156.9064,0.0047884034,1442850,420,202,-1368,9331
40966429,4006,0,-1.3296578,1.3027546,-8.472117,0.0060197823,-0.0050715413,-0.042021945,60.833794,156.9064,0.0047884034,1442850,-2248,306,-5610,9326
41066429,3977,0,0.3874711,0.38380092,-11.5881405,0.04075106,-0.010903181,-0.0315717,60.858727,156.9064,0.0047884034,1442850,-1683,1271,617,9335
41166458,4036,0,1.7248135,-0.8575717,-10.139642,-0.021425232,-0.0045527294,-0.024668192,60.853184,156.9064,0.0047884034,1442850,2601,185,-847,9333
41270422,4000,0,-0.96482897,-0.3649424,-9.727787,0.04364595,0.010004439,-0.019074943,60.822716,156.9064,0.0047884034,1442850,-1874,-118,-2707,9322
41370422,3999,0,0.7303576,0.24399306,-9.573056,-0.030212708,0.010928929,-0.05613412,60.861496,156.9064,0.0047884034,1442850,3016,-664,-1799,9336
41470422,3996,0,-1.4626615,2.2466593,-9.571686,0.0095922,0.005515211,-0.039549477,60.842106,156.9064,0.0047884034,1442850,-2097,-239,-1310,9329
41574458,4036,0,-0.3484561,1.2340789,-9.969328,-0.047405604,-0.017709374,-0.028817846,60.858727,156.9064,0.0047884034,1442850,1435,1641,-2670,9335
41674422,3980,0,0.17200214,-0.28969422,-9.646693,0.041859776,-0.00841898,-0.04700285,60.842106,156.9064,0.0047884034,1442850,-1730,314,-4136,9329
41778423,4000,0,-2.4206817,-1.4867889,-10.235209,0.015207679,-0.006878778,-0.024891872,60.836563,156.9064,0.0047884034,1442850,-2788,32,-1010,9327
41878423,4001,0,0.78462946,-0.7803214,-9.475407,-0.02624184,0.021513892,-0.0293907,60.869804,156.9064,0.0047884034,1442850,3072,-917,-2273,9339
41978437,4015,0,-1.9928248,0.5269141,-10.206443,0.01712811,0.013889475,-0.05044047,60.817173,156.9064,0.0047884034,1442850,-2959,-404,-1401,9320
42082422,3993,0,-0.6939534,1.6134781,-8.380802,-0.015505964,0.012596867,-0.041534096,60.842106,156.9064,0.0047884034,1442850,-1062,-363,-3365,9329
42182422,4000,0,-1.5796508e-05,1.0487684,-10.360129,0.038112998,-0.0009676182,-0.06412689,60.844875,156.9064,0.0047884034,1442850,-1757,472,-548,9330
42282423,4000,0,0.14758769,-0.15414616,-10.609845,-0.03539668,-0.0073432988,-0.010540813,60.880886,156.9064,0.0047884034,1442850,1821,588,846,9343
42386470,4039,0,0.82968915,-0.71315783,-9.767817,0.02759287,0.007960138,-0.054379337,60.842106,156.9064,0.0047884034,1442850,691,-644,-3782,9329
42486423,3965,0,-0.071027406,-0.16324237,-9.964729,-0.035246402,0.010415357,-0.023425158,60.836563,156.9064,0.0047884034,1442850,968,-483,531,9327
42590471,4049,0,0.8833995,1.598482,-8.5753975,0.016482757,-0.0061745513,-0.05472339,60.833794,156.9064,0.0047884034,1442850,1255,-7,-5309,9326
42694422,4000,0,-1.221871,0.9294733,-10.076887,0.028546365,-0.0047181593,-0.029164175,60.867035,156.9064,0.0047884034,1442850,-2639,762,-723,9338
42794422,3999,0,0.3286235,-0.99071187,-9.857497,-0.033469737,-0.0071038194,-0.038415268,60.878117,156.9064,0.0047884034,1442850,1826,1,-2694,9342
42898422,3999,0,0.64620674,-1.210813,-9.777834,-0.04119019,0.0062092957,-0.005697907,60.858727,156.9064,0.0047884034,1442850,2429,-673,-1595,9335
42998422,3953,0,-1.9916989,-0.79142505,-9.984421,0.033542812,0.0057444493,-0.059333332,60.880886,156.9064,0.0047884034,1442850,-3069,44,-1662,9343
43099229,3962,0,-0.37072882,1.2423446,-9.275469,-0.02225985,0.011362935,0.010911738,60.847645,156.9064,0.0047884034,1442850,667,-353,-2430,9331
43203262,3990,0,-0.28890178,1.8344194,-9.665399,-0.032223918,0.007055557,-0.037222296,60.897507,156.9064,0.0047884034,1442850,336,671,-1010,9349
43303223,4000,0,1.297298,1.1317286,-10.544272,0.00693499,-0.008903391,-0.0059609353,60.842106,156.9064,0.0047884034,1442850,1587,828,1022,9329
43403223,4000,0,-1.4218023,-0.93328947,-9.387376,0.00070934463,-0.014810242,-0.049335375,60.844875,156.9064,0.0047884034,1442850,-2166,128,-4084,9330
43507223,4000,0,-1.7364323,-1.0693307,-10.57892,-0.0005715159,-0.0073473575,-0.05065408,60.880886,156.9064,0.0047884034,1442850,-1751,-302,-2127,9343
43607223,4001,0,0.13025162,0.22657442,-9.258171,-0.030990798,0.0020227726,-0.012155382,60.861496,156.9064,0.0047884034,1442850,1096,-506,-1164,9336
43707249,4011,0,0.32172668,1.3660502,-9.00357,-0.024369318,5.5460725e-05,-0.0065938765,60.858727,156.9064,0.0047884034,1442850,2099,-164,-2595,9335
43811223,4000,0,-0.86731243,1.0330836,-9.958477,-0.026795976,-0.0055679563,-0.061261933,60.844875,156.9064,0.0047884034,1442850,-569,-102,-2629,9330
43911223,4000,0,-0.010043104,0.18713123,-10.296584,-0.02104651,-0.012125994,-0.029976696,60.855953,156.9064,0.0047884034,1442850,689,469,-760,9334
44015223,4000,0,-1.7801802,-1.0541525,-9.102395,-0.011355858,0.0062098326,-0.045630418,60.883656,156.9064,0.0047884034,1442850,-1504,-746,-2621,9344
44119223,4000,0,-1.4059343,1.3617148,-10.908762,0.023467705,0.017694524,-0.06294421,60.875347,156.9064,0.0047884034,1442850,-1956,300,624,9341
44219261,4038,0,-0.15051176,2.1666036,-9.775692,0.005773317,0.014005997,-0.045621898,60.861496,156.9064,0.0047884034,1442850,-1024,521,-1443,9336
44323222,3993,0,0.4837261,0.53393203,-9.473812,0.021973519,-0.011834264,-0.043371473,60.883656,156.9064,0.0047884034,1442850,-301,775,-2163,9344
44423223,4000,0,-0.67834496,-0.9750177,-9.832969,0.03066102,-0.012330989,-0.04105886,60.883656,156.9064,0.0047884034,1442850,-2084,0,-3684,9344
44523256,4033,0,-0.3944392,-1.319066,-9.452746,0.011202406,-0.00710577,-0.07483016,60.903046,156.9064,0.0047884034,1442850,-407,-355,-5957,9351
44627230,4007,0,0.73962104,0.537197,-11.054726,-0.00774609,0.007133118,-0.01616625,60.875347,156.9064,0.0047884034,1442850,1878,-133,708,9341
44727223,4000,0,0.3611566,1.7772396,-9.753118,0.004533356,0.0017844113,0.010554325,60.900276,156.9064,0.0047884034,1442850,1126,-629,253,9350
44827223,4000,0,0.8180923,1.7344685,-9.850182,-0.008204041,-0.00030651502,-0.039144535,60.886425,156.9064,0.0047884034,1442850,1626,-306,-3064,9345
44931223,4000,0,0.82478565,-0.32007906,-10.883848,-0.030756682,-0.0043877857,0.008142615,60.905815,156.9064,0.0047884034,1442850,1934,422,911,9352
45031223,3966,0,2.001613,-1.0325003,-10.487951,-0.008317091,-0.006501671,-0.028280241,60.869804,156.9064,0.0047884034,1442850,2504,145,-1608,9339
45135223,3951,0,-0.05570158,-0.12870938,-10.924627,-0.018073542,0.010298168,-0.003579909,60.905815,156.9064,0.0047884034,1442850,1261,-309,2173,9352
45239223,3989,0,-0.108528525,1.5962772,-9.045754,-0.037076037,0.0044630077,-0.041950233,60.878117,156.9064,0.0047884034,1442850,1698,-175,-4126,9342
45343234,4011,0,-1.2718613,0.6283462,-9.389651,-0.028901841,-0.016918847,-0.012468317,60.889194,156.9064,0.0047884034,1442850,-523,1098,-2141,9346
45443223,4000,0,1.8324267,0.018913984,-10.363046,-0.005814401,-0.010303717,-0.03931047,60.889194,156.9064,0.0047884034,1442850,2497,331,-1322,9346
45547223,4000,0,0.75410396,-1.139034,-10.7221575,-0.004248184,-0.0047543626,-0.019452926,60.900276,156.9064,0.0047884034,1442850,2299,-404,-649,9350
45647222,4000,0,-0.35601005,-0.33554327,-8.958993,0.028228566,0.009571586,-0.052741695,60.869804,156.9064,0.0047884034,1442850,-818,-403,-5415,9339
45751223,4000,0,-0.62513554,2.8424351,-9.709283,0.031279787,0.0070764576,-0.031824417,60.864265,156.9064,0.0047884034,1442850,-1894,992,-1000,9337
45855223,4000,0,-0.031014042,0.8325111,-10.586344,0.032284774,-0.006692766,-0.07174569,60.883656,156.9064,0.0047884034,1442850,-1029,1366,-2243,9344
45955226,3973,0,-0.30994555,-0.8367872,-9.693995,-0.0271061,-0.013410893,-0.012400685,60.872574,156.9064,0.0047884034,1442850,179,177,-3079,9340
46059223,3957,0,-1.1137823,-0.57393986,-9.992227,-0.026210561,0.01725664,-0.048131783,60.875347,156.9064,0.0047884034,1442850,-966,-533,289,9341
46159223,4000,0,0.19231711,0.23144813,-11.071783,0.0147731155,0.019890647,-0.033443682,60.916897,156.9064,0.0047884034,1442850,1443,-683,810,9356
46259223,4000,0,-1.4521129,1.3527114,-9.403278,-0.006339762,-0.003964112,-0.051246084,60.914127,156.9064,0.0047884034,1442850,-1675,-901,-1433,9355
46363229,3999,0,-0.95107394,1.489566,-9.850433,-0.028434614,-0.0013096873,-0.077609725,60.905815,156.9064,0.0047884034,1442850,-443,-122,-3595,9352
46463229,4006,0,1.1454493,0.72798157,-10.464861,-0.008667208,-0.022026747,-0.01568083,60.941826,156.9064,0.0047884034,1442850,2482,1167,-2341,9365
46563222,3989,0,-0.10391339,-0.6094778,-9.806925,0.029541317,-0.011090383,-0.043545775,60.90859,156.9064,0.0047884034,1442850,-1590,98,-3273,9353
46667232,4010,0,-0.5024156,-1.0232092,-10.543801,0.028000286,0.0030323057,-0.020919688,60.872574,156.9064,0.0047884034,1442850,-394,426,-1455,9340
46767223,4001,0,-1.3327197,0.2953573,-9.025959,0.0047232257,0.010520523,-0.018245976,60.900276,156.9064,0.0047884034,1442850,-2709,-613,-1040,9350
46871223,4000,0,-1.3985769,2.3050213,-9.446881,0.01364181,0.01077211,-0.060465552,60.933517,156.9064,0.0047884034,1442850,-2306,-328,-2469,9362
46975223,3995,0,-0.91801125,-0.23071219,-8.7759695,0.007018389,-0.0037911832,-0.042949267,60.897507,156.9064,0.0047884034,1442850,-2127,153,-5113,9349
47075223,4000,0,1.7955345,-0.9313732,-11.061587,-0.008304676,0.0047159726,-0.047625743,60.919666,156.9064,0.0047884034,1442850,2672,263,839,9357
47179222,4000,0,-0.1581236,-1.4677144,-9.559395,0.026554251,0.010175545,-0.034343485,60.916897,156.9064,0.0047884034,1442850,483,-1252,-3529,9356
47279222,3993,0,-2.0971367,0.077212416,-9.937364,0.0052448437,0.012283422,-0.04988016,60.941826,156.9064,0.0047884034,1442850,-2606,-571,-1653,9365
47379253,4031,0,0.78113174,1.304769,-10.008015,-0.030364845,0.0054330956,-0.0065246886,60.92798,156.9064,0.0047884034,1442850,2250,396,-129,9360
47483250,4027,0,0.2643968,1.7065599,-10.207827,-0.033323288,-0.0065764333,-0.057828546,60.922436,156.9064,0.0047884034,1442850,1572,397,-538,9358
47583229,4002,0,1.0951834,0.6964516,-11.235943,0.025820145,-0.009242759,-0.024416035,60.914127,156.9064,0.0047884034,1442850,792,860,-658,9355
47683228,4006,0,-0.097326726,-1.1047801,-10.939091,0.025221484,0.0005847952,-0.07638258,60.925205,156.9064,0.0047884034,1442850,-766,135,-2933,9359
47787223,4001,0,0.20736937,-0.7593922,-10.4435625,-0.007893108,0.007835392,-0.047636054,60.9446,156.9064,0.0047884034,1442850,1618,-956,-1145,9366
47887232,3976,0,0.5587169,0.7153786,-10.980588,0.021195386,0.015417798,-0.06605802,60.933517,156.9064,0.0047884034,1442850,283,-330,-466,9362
47991225,3966,0,1.0301347,1.3825192,-8.9838705,-0.0045477934,-0.002438244,-0.03435801,60.916897,156.9064,0.0047884034,1442850,2433,69,-4167,9356
48095266,4043,0,1.4318887,-0.33868557,-10.693461,-0.022202533,0.00042002974,-0.03230414,60.939056,156.9064,0.0047884034,1442850,2734,998,-1168,9364
48195223,4000,0,0.34603468,-1.4701787,-11.355211,0.025000777,-0.0070276354,-0.018935617,60.933517,156.9064,0.0047884034,1442850,459,567,-280,9362
48299223,4000,0,0.16500267,-0.47838804,-9.951088,-0.011847904,0.0089629665,-0.017076505,60.950138,156.9064,0.0047884034,1442850,1622,-1081,-921,9368
48399222,3999,0,0.46083996,1.3032727,-9.48052,0.030604769,0.00078611245,-0.053425007,60.939056,156.9064,0.0047884034,1442850,191,-314,-4216,9364
48499261,4032,0,-0.24003084,1.9929591,-9.531173,0.02402011,0.011096639,-0.06788166,60.925205,156.9064,0.0047884034,1442850,-1159,-196,-2811,9359
48603242,4020,0,1.5346421,-0.0020967382,-11.02612,-0.014168477,-0.01972202,-0.031235894,60.952908,156.9064,0.0047884034,1442850,2191,33,851,9369
48703222,3999,0,0.8500128,-1.0208375,-10.553459,0.01656075,-0.021030366,-0.011253666,60.958447,156.9064,0.0047884034,1442850,708,828,-1097,9371
48803229,4007,0,0.42338058,-0.84250283,-9.684004,0.023246637,-0.00769212,-0.038228408,60.958447,156.9064,0.0047884034,1442850,604,687,-2947,9371
48907222,3993,0,-0.06261109,0.37127024,-9.482825,0.008834131,0.0066733216,-0.04868778,60.955677,156.9064,0.0047884034,1442850,196,-1109,-1178,9370
49007222,3968,0,0.19311455,1.616259,-9.276121,-0.01589759,0.000981725,-0.048762493,60.922436,156.9064,0.0047884034,1442850,1821,528,-3868,9358
49111269,4047,0,-0.9705912,0.6056514,-9.927958,0.019805286,-0.013351312,-0.046225585,60.96122,156.9064,0.0047884034,1442850,-1648,101,-1874,9372
49215222,4000,0,-0.40756494,-1.1933086,-10.742992,0.011590039,-0.006573497,-0.024386544,60.9446,156.9064,0.0047884034,1442850,-507,227,-304,9366
49315222,3982,0,-0.19190829,-0.0145954555,-10.151924,0.027233467,-0.0011324103,-0.012286568,60.933517,156.9064,0.0047884034,1442850,-517,183,-1695,9362
49419228,3983,0,-0.4156866,1.6000603,-8.792323,-0.024988316,-0.00037124284,-0.030460544,60.936287,156.9064,0.0047884034,1442850,1174,-65,-2598,9363
49519222,3962,0,0.9554367,1.5131862,-8.582805,-0.0042441655,-0.0044648056,-0.015305792,60.950138,156.9064,0.0047884034,1442850,1866,406,-3433,9368
49619222,4000,0,1.8409861,0.5036509,-9.951257,-0.019283686,-0.013224747,-0.026013205,60.955677,156.9064,0.0047884034,1442850,2736,143,-603,9370
49723263,4041,0,0.08710942,-1.5956149,-8.842712,-0.032862335,0.0070483964,-0.04989259,61.00831,156.9064,0.0047884034,1442850,1590,-709,-3811,9389
49823222,4000,0,0.75446016,-0.87105936,-9.162181,-0.025821062,-0.0035011843,-0.04532501,60.98338,156.9064,0.0047884034,1442850,2353,-1008,-2811,9380
49923222,3974,0,0.423628,0.2871822,-9.125115,0.008632822,-0.0034357067,-0.008094521,60.98338,156.9064,0.0047884034,1442850,902,200,-1517,9380
50027222,3993,0,-0.41452315,0.7798059,-9.062032,-0.032021932,-0.0009415555,-0.057980724,60.98615,156.9064,0.0047884034,1442850,683,-872,-4408,9381
50127257,4029,0,0.14691503,0.35202914,-9.000602,-0.0075751897,-0.0065409327,-0.04649262,61.00554,156.9064,0.0047884034,1442850,388,-321,-2900,9388
50231229,4007,0,-1.3972727,-1.1332161,-10.923977,0.0011018291,0.0074162763,-0.045167297,60.97784,156.9064,0.0047884034,1442850,-1918,25,-812,9378
50331229,4007,0,-0.60523945,-1.2396947,-9.963798,-0.02852541,0.012378424,-0.07710582,60.98615,156.9064,0.0047884034,1442850,346,-1588,-2853,9381
50431229,4007,0,-0.24917845,0.2390749,-9.351919,-0.028288573,0.010967539,-0.039473705,60.97784,156.9064,0.0047884034,1442850,1084,-885,-3288,9378
50535222,3961,0,-0.5310163,1.4293305,-9.780338,-0.027060717,0.01011535,-0.045606196,60.98892,156.9064,0.0047884034,1442850,-261,-105,-2787,9382
50639229,4007,0,-1.1498399,0.05259805,-10.788536,0.008003879,-0.011744498,-0.047122613,61.00554,156.9064,0.0047884034,1442850,-2150,551,-855,9388
50743222,3970,0,-1.4404607,-1.3795999,-10.237839,0.007839736,-0.0055499496,-0.03716337,60.98338,156.9064,0.0047884034,1442850,-1367,-456,-1429,9380
50847234,3962,0,0.47470883,0.86653584,-8.888055,0.028124347,0.0070306207,-0.03926178,60.98338,156.9064,0.0047884034,1442850,90,125,-4745,9380
50947229,4007,0,-1.6851578,1.039139,-8.925438,0.008000021,0.012793951,-0.037839152,60.96122,156.9064,0.0047884034,1442850,-2708,-480,-2159,9372
51047222,4000,0,0.17672181,0.9355649,-8.676399,-0.029809956,-0.005308048,-0.028884199,61.01662,156.9064,0.0047884034,1442850,1176,54,-4176,9392
51151222,4000,0,-1.3162495,-0.72333467,-8.933715,0.0007309327,-0.00849201,-0.059200723,60.98338,156.9064,0.0047884034,1442850,-1905,-14,-4562,9380
51255222,3996,0,-1.3177009,-0.7515601,-10.727731,0.025595728,0.007392011,-0.07261461,60.97784,156.9064,0.0047884034,1442850,-1961,-266,-2064,9378
51355222,4000,0,-0.72773594,0.39280513,-8.894061,-0.0010744096,0.014193213,-0.07280491,61.01385,156.9064,0.0047884034,1442850,-826,-912,-5078,9391
51459222,4000,0,-0.557592,1.6959189,-10.413336,0.033295263,0.013246187,-0.038954493,61.00277,156.9064,0.0047884034,1442850,-2607,130,-154,9387
52475228,4006,0,0.44885617,1.7809566,-9.119247,0.017236054,0.008809574,-0.06450795,61.01385,156.9064,0.0047884034,1442850,-355,-351,-2840,9391
52579222,4000,0,1.2046865,1.0106746,-11.1744175,0.027623102,-0.0013899812,-0.04258342,61.02493,156.9064,0.0047884034,1442850,639,818,637,9395
52679222,4000,0,-0.630895,-0.13612601,-10.929501,0.02952042,0.0034573518,-0.03798233,61.03601,156.9064,0.0047884034,1442850,-2567,542,-1101,9399
52779223,3963,0,-0.58773035,-1.2084783,-10.391975,-0.036405265,-0.00028412062,-0.053085018,60.99723,156.9064,0.0047884034,1442850,469,-179,-2465,9385
52883222,4000,0,-1.1911274,0.58022285,-9.359065,-0.021114385,0.0063469624,-0.042763744,61.0,156.9064,0.0047884034,1442850,-706,-444,-1909,9386
52983223,4001,0,0.2704841,1.2203356,-9.522168,-0.02169631,0.006303015,0.006211862,60.98892,156.9064,0.0047884034,1442850,1865,-281,-1439,9382
53087222,4000,0,-0.104014926,1.3838962,-8.54925,-0.026748091,-0.005492555,-0.03650237,61.01662,156.9064,0.0047884034,1442850,652,405,-5086,9392
53191222,4000,0,-0.77414423,-0.95175236,-10.4880085,-0.031330395,-0.012924705,-0.06360808,61.01385,156.9064,0.0047884034,1442850,-81,193,-2514,9391
53291222,3993,0,0.6675364,-1.1800332,-9.949224,-0.024386186,-0.00049336965,-0.032943647,60.975067,156.9064,0.0047884034,1442850,2045,415,-1968,9377
53395222,3999,0,-0.4328901,0.34661266,-9.172439,-0.020476783,0.010605101,-0.014263704,61.01939,156.9064,0.0047884034,1442850,299,-1103,-2729,9393
53495229,4007,0,1.1486274,1.512507,-9.563526,-0.021370025,0.004536711,-0.0020304206,61.00554,156.9064,0.0047884034,1442850,2394,-202,-358,9388
53595259,4037,0,0.117413074,1.5694293,-9.965088,-0.01679963,-0.0036996217,-0.011383396,61.00277,156.9064,0.0047884034,1442850,1412,-197,-817,9387
53699272,4043,0,-0.28581175,-0.668166,-9.3847475,-0.036707316,-0.00452842,-0.060592555,61.00831,156.9064,0.0047884034,1442850,844,-272,-4952,9389
53799222,3960,0,-0.780973,-1.5819796,-9.163303,-0.022899952,0.003966526,-0.02160152,60.991688,156.9064,0.0047884034,1442850,429,-391,-3075,9383
53899222,4000,0,0.36613944,-1.4018139,-8.94615,-0.030821882,0.0022864272,-0.033994738,60.98338,156.9064,0.0047884034,1442850,2370,-526,-3757,9380
54003249,4027,0,-1.1680661,1.0650876,-8.696351,0.011525457,0.015884764,-0.071461,60.98338,156.9064,0.0047884034,1442850,-2021,-1340,-3252,9380
54103222,3965,0,-0.18542552,1.4073715,-8.250844,-0.008733476,0.0034865064,-0.055769004,61.0,156.9064,0.0047884034,1442850,-649,-1,-5243,9386
54207222,3981,0,0.3348156,-0.11222905,-10.911704,0.035288494,-0.009908617,-0.052221783,60.994457,156.9064,0.0047884034,1442850,-719,673,-2004,9384
54311222,4000,0,0.52650446,-1.4422452,-10.482198,-0.03691636,0.003521714,-0.013548956,60.98615,156.9064,0.0047884034,1442850,1790,-1148,-185,9381
54411222,3959,0,0.07187202,-0.2749675,-10.076499,-0.010817328,0.005687917,-0.0067157745,60.98061,156.9064,0.0047884034,1442850,657,-329,-1691,9379
54515261,4039,0,0.21049759,1.3319992,-9.183736,-0.009691535,0.0012332865,-0.05412969,60.994457,156.9064,0.0047884034,1442850,665,-173,-2990,9384
54615222,4000,0,-0.46111256,1.158856,-10.527532,0.00762394,0.004321547,-0.031647075,61.00831,156.9064,0.0047884034,1442850,-1246,98,-265,9389
54715222,4000,0,-0.5792155,0.31093588,-11.572998,0.023779307,-0.0026892673,-0.03241108,60.98338,156.9064,0.0047884034,1442850,-1518,346,-676,9380
54819222,3993,0,0.6908089,-0.9031343,-9.756509,-0.026818218,-0.0049189012,-0.015522221,60.98338,156.9064,0.0047884034,1442850,1964,112,-1706,9380
54919222,3994,0,0.13657041,0.14489754,-10.569132,-0.029839905,0.012084457,0.0008410695,61.0,156.9064,0.0047884034,1442850,1562,-785,138,9386
55019222,4000,0,-1.0022858,0.78684664,-10.280038,-0.015098917,0.01807057,-0.033628188,60.98338,156.9064,0.0047884034,1442850,-53,-628,414,9380
55123228,4006,0,-0.21633334,1.1878332,-10.485988,-0.003009367,-0.0018350319,-0.056984305,60.98061,156.9064,0.0047884034,1442850,-709,581,-1978,9379
55223222,4000,0,-1.1505996,0.030210728,-10.848537,0.0021608267,0.0111422455,-0.06359772,60.99723,156.9064,0.0047884034,1442850,-1848,83,-1130,9385
55327222,4000,0,0.7431821,-0.7740217,-10.818066,-9.4430055e-05,-0.011615416,-0.021846738,60.98892,156.9064,0.0047884034,1442850,1417,858,-845,9382
55427222,3995,0,-0.95221996,-0.13870803,-10.985216,0.025440328,0.006280389,-0.015660413,61.011078,156.9064,0.0047884034,1442850,-1077,279,-991,9390
55527252,4030,0,0.08104128,1.4371196,-9.957851,0.038334552,0.014215857,-0.023935102,61.02216,156.9064,0.0047884034,1442850,-1016,38,-767,9394
55631271,4049,0,0.62935895,1.5464636,-9.462533,0.018176207,-0.0027778002,-0.036069542,61.0277,156.9064,0.0047884034,1442850,318,0,-2604,9396
55731222,3993,0,0.14817193,0.1774691,-10.61796,0.03027514,-0.0040980713,-0.07926343,61.0277,156.9064,0.0047884034,1442850,-812,401,-2883,9396
55831222,3955,0,-1.2510058,-0.78346974,-10.837936,0.0072042653,-0.008219812,-0.066234395,61.0277,156.9064,0.0047884034,1442850,-2167,165,-790,9396
55935270,4048,0,-1.5940899,-0.79614,-9.721359,0.0071824696,0.0005596308,-0.046386853,61.01385,156.9064,0.0047884034,1442850,-1997,-376,-1698,9391
56035229,3977,0,-0.82015216,0.3167779,-8.625941,-0.028808456,0.00477649,-0.046743486,61.049862,156.9064,0.0047884034,1442850,522,-485,-4035,9404
56139222,3945,0,0.19198455,1.7024826,-9.710387,-0.028081752,-0.003867153,-0.0118650915,61.04432,156.9064,0.0047884034,1442850,752,255,-591,9402
56239222,4000,0,1.1970363,1.8234968,-9.353996,0.00994294,-0.0065310043,-0.029369853,61.01939,156.9064,0.0047884034,1442850,1811,478,-3113,9393
56339222,4000,0,-0.3926413,0.08055582,-9.799253,0.02977053,-0.0029726257,-0.07703444,61.03878,156.9064,0.0047884034,1442850,-2606,-132,-2725,9400
56443222,3981,0,-1.3493873,-2.0733886,-9.52591,0.01653378,-0.008668877,-0.04660244,61.0277,156.9064,0.0047884034,1442850,-1272,251,-2782,9396
56543222,4000,0,-0.6613687,-1.0912126,-9.816994,-0.014983284,0.008322693,-0.043479227,61.01939,156.9064,0.0047884034,1442850,-235,-553,-2398,9393
56643222,3950,0,-0.23293167,-0.2440635,-10.292836,0.026150964,0.012091954,-0.010061448,61.049862,156.9064,0.0047884034,1442850,-66,-779,-184,9404
56747222,4000,0,0.13563603,2.2157788,-10.88332,0.026277443,0.0012767293,-0.0202719,61.011078,156.9064,0.0047884034,1442850,-419,228,1559,9390
56847228,3960,0,-1.1828909,1.2141113,-8.830529,0.011401733,0.009541254,-0.045025848,61.03047,156.9064,0.0047884034,1442850,-2692,-460,-3645,9397
56951226,3997,0,-1.1311064,-1.3050386,-9.746111,-0.0030113375,-0.0059657004,-0.028869404,60.972298,156.9064,0.0047884034,1442850,-1503,270,-1898,9376
57055222,4000,0,-0.8273231,-0.9380489,-10.923411,-0.046053287,0.001444188,-0.03403096,61.00831,156.9064,0.0047884034,1442850,1077,-94,262,9389
57155222,3999,0,-0.01839272,-0.6590365,-9.443838,0.03592944,0.0038321838,-0.03880533,60.994457,156.9064,0.0047884034,1442850,-176,-594,-2990,9384
57259222,3978,0,-0.8479396,1.9151586,-8.996216,0.03103007,0.002349039,-0.031868823,61.01939,156.9064,0.0047884034,1442850,-1975,-18,-3552,9393
57359222,3989,0,0.23532125,1.253245,-10.13765,-0.03689713,0.0011864168,-0.032226775,61.0277,156.9064,0.0047884034,1442850,1565,179,-1610,9396
57459252,4030,0,-0.65173185,0.4292922,-9.013254,0.044196304,-0.009935755,-0.051570408,60.98615,156.9064,0.0047884034,1442850,-1848,419,-4402,9381
57563269,4047,0,-2.2001994,-1.8028238,-10.106365,-0.01558559,-0.008689332,-0.029395062,61.011078,156.9064,0.0047884034,1442850,-2227,-160,-625,9390
57663222,4000,0,0.5278644,-1.2399528,-10.941927,-0.031334825,0.008229862,-0.05744207,61.00831,156.9064,0.0047884034,1442850,2914,-926,-232,9389
57763222,4000,0,-3.129208,0.13798536,-9.841127,0.01281635,0.011282919,-0.040499344,61.0554,156.9064,0.0047884034,1442850,-2709,-675,-1866,9406
57867222,4000,0,-0.31345603,1.6664717,-8.376913,-0.016251583,0.007882508,-0.026488364,61.02493,156.9064,0.0047884034,1442850,-1038,-637,-3771,9395
57967226,3973,0,0.16962595,1.7663093,-10.931409,0.03178211,-0.004579364,-0.029709784,61.04432,156.9064,0.0047884034,1442850,-1246,1090,1110,9402
58071222,3950,0,-1.3845271,-0.7086823,-10.403407,-0.009979162,-0.0056221653,-0.05363996,61.05263,156.9064,0.0047884034,1442850,-1480,-7,-1187,9405
58171222,4000,0,0.30254605,-1.4603851,-9.636082,0.047643803,0.0035729893,-0.04000601,61.04155,156.9064,0.0047884034,1442850,-747,-240,-3903,9401
58271222,3994,0,-0.34931374,-1.0578489,-10.3774395,-0.034290925,0.00821118,-0.013204487,61.03324,156.9064,0.0047884034,1442850,490,-241,1165,9398
58375222,3958,0,1.4628106,0.815746,-10.483769,-0.0037296065,0.0026285104,-0.022152811,61.07202,156.9064,0.0047884034,1442850,2100,-69,-227,9412
58475229,4007,0,-0.24054043,1.6885253,-8.848339,-0.031663243,0.011573438,-0.06889915,61.03324,156.9064,0.0047884034,1442850,-21,-506,-3692,9398
58575229,4001,0,0.027680203,1.7682097,-9.770362,0.037103605,-0.010211041,-0.041822974,61.088642,156.9064,0.0047884034,1442850,-1231,479,-1189,9418
58679222,4000,0,-1.4469273,-0.846243,-10.345261,-0.009707263,-0.0062937844,-0.012657262,61.11357,156.9064,0.0047884034,1442850,-1182,391,-1898,9427
58779222,4000,0,-0.76964635,-1.603926,-10.215124,0.046241067,0.00089680916,-0.05989685,61.09695,156.9064,0.0047884034,1442850,-2107,203,-3829,9421
58883229,4007,0,-1.8709697,-0.13043433,-9.144156,0.019834723,0.015966548,-0.060411632,61.085873,156.9064,0.0047884034,1442850,-2357,-717,-2775,9417
58983224,4002,0,1.2132424,1.2745486,-10.251358,-0.020537887,0.008220658,-0.021478876,61.09418,156.9064,0.0047884034,1442850,2707,-636,22,9420
59083222,4000,0,-1.4818277,1.5620519,-8.82257,0.008125894,0.014102666,-0.030577999,61.141273,156.9064,0.0047884034,1442850,-2295,-488,-2565,9437
59187222,4000,0,-0.49981573,0.24935603,-10.2213955,-0.018759172,-0.007940205,-0.012189433,61.099724,156.9064,0.0047884034,1442850,-229,915,-986,9422
59287223,4001,0,0.31139368,-1.0193645,-10.016681,0.03925273,-0.009472936,-0.02420273,61.124653,156.9064,0.0047884034,1442850,-968,621,-2136,9431
59387228,4006,0,0.18074597,-1.6239123,-9.048404,-0.046068907,-0.003667726,-0.036197588,61.066483,156.9064,0.0047884034,1442850,1800,-112,-4438,9410
59491222,3993,0,0.19754197,0.5634933,-9.737278,-0.026553184,0.004847739,-0.010089068,61.108032,156.9064,0.0047884034,1442850,2196,-511,-1208,9425
59591222,3993,0,-0.19719541,1.8886952,-9.383852,0.042827133,0.00738763,-0.042402007,61.083103,156.9064,0.0047884034,1442850,-1599,-70,-3534,9416
59695229,4007,0,0.75755507,1.801729,-9.600116,0.030929036,-0.00750832,-0.034465205,61.099724,156.9064,0.0047884034,1442850,-351,801,-1427,9422
59795229,3967,0,-1.5745674,-0.41531503,-9.110769,0.008061924,0.0006898565,-0.06473662,61.1108,156.9064,0.0047884034,1442850,-1895,-298,-5328,9426
59895256,4034,0,1.3942696,-1.0960087,-11.226728,-0.013527418,0.0041243555,-0.03388834,61.152355,156.9064,0.0047884034,1442850,2014,-401,1391,9441
59999247,4025,0,0.5618107,-1.1422589,-9.47269,-0.0014305925,0.00849426,-0.011787221,61.108032,156.9064,0.0047884034,1442850,1496,-794,-1129,9425
60099222,4000,0,-0.9139354,0.5813026,-9.918583,0.025245508,0.009273296,-0.070877016,61.105263,156.9064,0.0047884034,1442850,-1595,-891,-2310,9424
60199222,4000,0,-0.8120478,1.5297868,-9.056003,0.012865169,0.011495581,-0.06188274,61.099724,156.9064,0.0047884034,1442850,-1482,-309,-3803,9422
60303222,4000,0,-0.295518,0.43021792,-9.52228,0.027433734,-0.0070902715,-0.052341357,61.1108,156.9064,0.0047884034,1442850,-1907,255,-1895,9426
60403260,4014,0,-1.6838741,-0.7757152,-9.152529,0.0024638344,-0.007821854,-0.07110196,61.124653,156.9064,0.0047884034,1442850,-1663,25,-5951,9431
60507222,3998,0,-1.4911946,-1.3782132,-11.740763,0.026068848,0.0008947415,-0.034138102,61.127422,156.9064,0.0047884034,1442850,-2031,-131,616,9432
60611222,3993,0,0.49093786,0.71770084,-9.756189,0.0042910986,0.010226836,-0.032629978,61.102493,156.9064,0.0047884034,1442850,1082,-362,-3116,9423
60711222,3994,0,-0.2915473,1.1496599,-9.37377,0.018244242,0.011760363,-0.0796722,61.102493,156.9064,0.0047884034,1442850,-1289,-664,-3916,9423
60815222,4000,0,0.43042892,-0.09422544,-10.658494,0.035027903,-0.013823009,-0.017702393,61.11357,156.9064,0.0047884034,1442850,-74,1220,-997,9427
60919222,3993,0,1.1363363,-1.1271003,-10.35465,0.01115296,0.00894812,-0.041875448,61.119114,156.9064,0.0047884034,1442850,1529,-384,-2544,9429
61019222,3957,0,-0.8755221,-0.38026363,-11.342066,0.025924277,0.016208718,-0.052430745,61.102493,156.9064,0.0047884034,1442850,-1525,-395,-326,9423
61123267,4045,0,0.6463857,1.6695033,-9.396249,0.025738157,-0.0013205584,-0.039519295,61.141273,156.9064,0.0047884034,1442850,490,468,-2234,9437
61223229,4007,0,-1.3430693,1.100825,-9.224235,0.008553305,-0.00079676637,-0.04377732,61.108032,156.9064,0.0047884034,1442850,-2556,159,-1996,9425
61323259,4037,0,-0.038318485,0.8643566,-8.22075,-0.032524712,-0.015993828,-0.038498424,61.13019,156.9064,0.0047884034,1442850,1446,963,-5349,9433
61427229,4007,0,-0.8380063,-1.39753,-9.510543,-0.0016969712,-0.0027103247,-0.059988078,61.119114,156.9064,0.0047884034,1442850,-1479,-482,-3824,9429
61527225,4003,0,0.14449297,-0.94311184,-10.209939,-0.03165396,0.0060606385,-0.057190023,61.135735,156.9064,0.0047884034,1442850,1543,-371,-1569,9435
61627222,4000,0,0.04971483,-0.6771551,-10.515817,0.015734917,0.014186435,-0.044211943,61.144043,156.9064,0.0047884034,1442850,132,-1175,-1211,9438
61731222,4000,0,0.5528585,1.7127572,-10.856286,-0.017088898,0.005960321,-0.009857368,61.127422,156.9064,0.0047884034,1442850,1987,263,-135,9432
61831222,3970,0,1.290661,1.4818645,-10.626568,0.031726737,0.0021756731,-0.0497683,61.168976,156.9064,0.0047884034,1442850,326,472,-1801,9447
61935222,3962,0,1.5670652,-0.929889,-9.892657,-0.0047420263,-0.0075850333,-0.0086366385,61.138504,156.9064,0.0047884034,1442850,1792,-208,-214,9436
62039228,4006,0,-0.2696173,-1.3009955,-9.263721,-0.04381899,0.0062127654,-0.046535537,61.121883,156.9064,0.0047884034,1442850,1533,-552,-3673,9430
62143222,3984,0,-1.163645,0.77297527,-10.191565,-0.003612962,0.020323751,-0.057676144,61.121883,156.9064,0.0047884034,1442850,-1477,-833,-2133,9430
62243222,4000,0,-0.70911145,1.4754838,-9.602008,-0.014153616,0.0105602555,-0.06377261,61.13019,156.9064,0.0047884034,1442850,-1124,-890,-1378,9433
62347222,3994,0,-1.4497268,-0.21608482,-10.6489935,0.022970436,0.0014795128,-0.034503598,61.157894,156.9064,0.0047884034,1442850,-2751,-43,-676,9443
62447222,3993,0,0.18944028,-1.1350331,-9.980688,-0.04653899,-0.01387532,-0.045736156,61.138504,156.9064,0.0047884034,1442850,1922,-213,-2817,9436
62551222,4000,0,-1.342911,-0.66547567,-8.6081705,-0.019080393,0.006238752,-0.07744689,61.146812,156.9064,0.0047884034,1442850,-599,-1284,-4596,9439
62655223,3994,0,-1.2183981,1.6670606,-9.566932,0.015387552,0.0153191425,-0.035542995,61.11357,156.9064,0.0047884034,1442850,-1924,-598,-3175,9427
62755222,3959,0,-0.363621,1.6275713,-9.816909,-0.033205356,-0.007896781,-0.012119321,61.138504,156.9064,0.0047884034,1442850,868,24,-2095,9436
62859245,3973,0,-1.1930838,-0.19098781,-10.427275,-0.011492556,-0.0026606335,-0.043381013,61.166203,156.9064,0.0047884034,1442850,-1034,503,-3113,9446
62959229,4007,0,1.8983985,-1.5124627,-11.318897,0.0001285458,-0.005656752,-0.031227056,61.141273,156.9064,0.0047884034,1442850,2070,-327,-230,9437
63059222,4000,0,-0.9285909,-1.529944,-9.7854,0.008039739,-0.011903178,-0.046160378,61.141273,156.9064,0.0047884034,1442850,-699,477,-3666,9437
63163222,4000,0,-1.4213481,0.7388625,-9.410871,0.005140828,0.009267518,-0.07169117,61.146812,156.9064,0.0047884034,1442850,-1933,-295,-3667,9439
63264023,4000,0,1.2279919,1.8557043,-9.896907,-0.0067135985,0.008996612,-0.017789671,61.155125,156.9064,0.0047884034,1442850,2773,205,-1437,9442
63364029,4006,0,-0.99612254,2.0517476,-10.158439,0.018865852,0.008043827,-0.027759548,61.13019,156.9064,0.0047884034,1442850,-2065,560,-439,9433
63468023,3994,0,-0.8029276,0.08450179,-11.47205,0.019588921,0.0006374575,-0.058797434,61.135735,156.9064,0.0047884034,1442850,-1437,787,-569,9435
63568023,4000,0,0.07774953,-1.264924,-10.169479,-0.049171463,-0.016700413,-0.036875326,61.127422,156.9064,0.0047884034,1442850,1974,432,-1602,9432
63668027,4004,0,-0.18398242,-1.5079067,-10.111546,0.035706364,-0.004454746,-0.013460691,61.13019,156.9064,0.0047884034,1442850,-1241,285,-796,9433
63772029,3973,0,-0.24744998,1.0357672,-10.941838,0.037461516,0.0035523637,-0.035338834,61.182823,156.9064,0.0047884034,1442850,-1479,549,1504,9452
63872023,4000,0,-0.9630115,1.0446365,-9.339186,-0.022882516,0.014098175,-0.028444327,61.185596,156.9064,0.0047884034,1442850,-840,-1308,-1178,9453
63972023,4000,0,1.5973264,2.0449893,-8.988611,0.0023697019,-0.0030663386,-0.057136744,61.146812,156.9064,0.0047884034,1442850,2285,1,-3488,9439
64076041,4018,0,1.9340723,0.22424042,-10.447416,-0.0020810687,-0.025803298,-0.010297208,61.166203,156.9064,0.0047884034,1442850,2194,1109,-1934,9446
64176023,4000,0,-0.1463495,-1.0619606,-9.014925,-0.048224308,-0.009820381,-0.053400487,61.177284,156.9064,0.0047884034,1442850,998,16,-6316,9450
64280040,4017,0,0.6527114,-1.0508139,-10.562356,-0.022810869,0.008455215,0.013861876,61.180054,156.9064,0.0047884034,1442850,2611,-652,-47,9451
64384058,4014,0,0.6500215,1.5741451,-11.04672,0.031989478,0.010296802,-0.043562558,61.138504,156.9064,0.0047884034,1442850,-265,-327,2458,9436
64484023,4000,0,-0.38568658,1.6667802,-9.152939,-0.026379371,-0.0001625471,0.0038604888,61.160664,156.9064,0.0047884034,1442850,-399,442,-1932,9444
64588023,4000,0,1.5239466,-0.073917404,-10.808832,-0.020927988,-0.002830129,-0.04440374,61.202217,156.9064,0.0047884034,1442850,2759,126,378,9459
64688022,3993,0,-1.9292724,-1.2385777,-9.708753,-0.0020793432,-0.009668665,-0.017917514,61.182823,156.9064,0.0047884034,1442850,-1077,209,-3890,9452
64788023,3928,0,1.1974335,-1.4424721,-9.934494,0.0017339643,0.004483659,-0.055996776,61.160664,156.9064,0.0047884034,1442850,2537,-1232,-3390,9444
64892023,3965,0,-0.9113342,1.0334077,-9.669645,0.04934243,0.0044672647,-0.018031634,61.188366,156.9064,0.0047884034,1442850,-1921,-459,-2769,9454
64992029,4006,0,0.19877405,1.4156957,-8.33522,-0.04162713,0.004831433,-0.017204517,61.168976,156.9064,0.0047884034,1442850,1493,-268,-4176,9447
65092023,4000,0,0.080336876,1.6686302,-8.463962,0.039461352,-0.007439344,-0.047255516,61.174515,156.9064,0.0047884034,1442850,-620,861,-5765,9449
65196058,4035,0,-1.7701913,-0.35150227,-9.468252,-0.0135008525,-0.0013471318,-0.06029428,61.202217,156.9064,0.0047884034,1442850,-2419,146,-1167,9459
65296023,4000,0,-0.47813967,-1.3351483,-9.208094,0.03171688,-0.002138584,-0.050181948,61.210526,156.9064,0.0047884034,1442850,-1794,-471,-1502,9462
65400023,3964,0,-1.5266196,-0.05183255,-8.250555,0.0054983567,0.0048405607,-0.05449162,61.188366,156.9064,0.0047884034,1442850,-1639,-797,-5502,9454
65504063,4040,0,-0.83962595,1.4830034,-8.678101,-0.027371794,0.001462388,-0.08411353,61.196674,156.9064,0.0047884034,1442850,-832,-364,-1982,9457
65604023,4001,0,0.9339688,1.44767,-9.477712,0.025849862,0.0019458624,-0.047613554,61.196674,156.9064,0.0047884034,1442850,786,-103,-1337,9457
65708057,4022,0,0.73149383,-0.4244583,-11.125464,0.03511768,0.0016867518,-0.045768123,61.221607,156.9064,0.0047884034,1442850,-1005,726,1259,9466
65808023,4000,0,-1.197038,-1.4897845,-10.318609,-0.009063561,0.0021473614,-0.01798531,61.166203,156.9064,0.0047884034,1442850,-514,-92,-2915,9446
65908038,4009,0,0.8351925,-0.8915281,-10.619969,-0.018455986,0.0018355593,-0.023380676,61.168976,156.9064,0.0047884034,1442850,2288,-1348,1252,9447
66012023,4001,0,0.614042,1.0250145,-10.466497,-0.021883804,0.0128265,-0.054021277,61.196674,156.9064,0.0047884034,1442850,1611,-934,1188,9457
66316070,4044,0,-1.269183,-1.2560619,-9.053636,-0.033822466,-0.008485613,-0.052516375,61.204987,156.9064,0.0047884034,1442850,320,120,-3964,9460
66824023,3981,0,1.9780036,0.06938507,-10.526091,-0.0035681129,-0.003794901,-0.050660376,61.180054,156.9064,0.0047884034,1442850,2562,1076,-408,9451
66924030,4007,0,0.4928218,-1.1913997,-11.1807375,0.041538805,-0.0018284942,-0.038774982,61.163433,156.9064,0.0047884034,1442850,-397,558,-727,9445
67024023,4000,0,-1.8568405,-0.68471533,-10.500952,0.008609852,0.0056818505,-0.027754994,61.188366,156.9064,0.0047884034,1442850,-2618,-28,-774,9454
67128047,4018,0,-0.8549727,1.1369535,-8.546132,0.025442395,0.0026315718,-0.049170386,61.224377,156.9064,0.0047884034,1442850,-1677,72,-5458,9467
67228023,3993,0,-0.8179776,1.6324584,-8.357533,-0.019035455,-0.0011588236,-0.022297285,61.204987,156.9064,0.0047884034,1442850,-1170,325,-3324,9460
67332023,3982,0,-0.9372879,0.18998155,-10.1366625,-0.010097051,-0.0020012015,-0.05605945,61.210526,156.9064,0.0047884034,1442850,-1626,221,-2204,9462
67432029,4006,0,1.1493068,-1.0553268,-10.916981,-0.02429452,-0.0031782219,-0.056472383,61.25485,156.9064,0.0047884034,1442850,1982,-240,-513,9478
67532023,4000,0,0.48801854,-1.2063855,-11.375459,0.020414647,-0.0010744662,-0.06726724,61.218838,156.9064,0.0047884034,1442850,161,179,300,9465
67636023,4000,0,0.94696325,0.4286732,-10.669431,0.0074482984,0.005161434,-0.02533762,61.224377,156.9064,0.0047884034,1442850,2121,-843,1128,9467
67736023,4000,0,-0.19958282,1.6394694,-9.763629,0.034481194,0.013251078,-0.025289914,61.224377,156.9064,0.0047884034,1442850,-1518,-46,-761,9467
67836023,4000,0,-1.2000977,1.0555056,-9.191272,0.0054275417,-0.0052619968,-0.021335425,61.265926,156.9064,0.0047884034,1442850,-1958,92,-3131,9482
67940071,4048,0,-1.7604378,-0.89247173,-10.137078,0.013538385,-0.0047259,-0.072708346,61.246536,156.9064,0.0047884034,1442850,-2688,-97,-2787,9475
68040023,4000,0,0.20398012,-0.8233899,-9.931932,-0.049422096,-0.0074107004,-0.07211533,61.243767,156.9064,0.0047884034,1442850,1667,-73,-4285,9474
68144053,4030,0,-0.7303523,0.32873246,-9.171491,-0.0072781,0.013154045,-0.020808272,61.229916,156.9064,0.0047884034,1442850,-168,-576,-4412,9469
68244023,4000,0,0.4502002,1.0071634,-9.8334675,-0.035678536,0.011880113,-0.008118078,61.196674,156.9064,0.0047884034,1442850,1261,-897,-19,9457
68344062,4039,0,0.5865676,2.040261,-9.52395,-0.020716384,-0.0019529298,-0.0058478033,61.249306,156.9064,0.0047884034,1442850,2281,20,-1868,9476
68448023,3993,0,-0.9595956,0.2605304,-9.447794,0.008541916,-2.4983136e-05,-0.06807482,61.265926,156.9064,0.0047884034,1442850,-2543,266,-3006,9482
68552023,4000,0,-0.12801519,-1.2311858,-11.244738,-0.011716836,0.004555426,-0.05795224,61.229916,156.9064,0.0047884034,1442850,887,-831,-910,9469
68652029,3976,0,-0.42189327,-0.63972735,-9.948752,-0.0092921285,0.008417377,-0.034144256,61.238228,156.9064,0.0047884034,1442850,222,-973,-853,9472
68756023,3969,0,0.43920183,1.3176327,-8.159317,-0.00969137,0.0042667803,-0.055771653,61.265926,156.9064,0.0047884034,1442850,-121,305,-3849,9482
68856023,4000,0,-0.102091685,1.2542312,-10.317425,-0.009970723,-0.0072215935,-0.062733255,61.221607,156.9064,0.0047884034,1442850,218,429,-988,9466
68960023,3975,0,0.3920547,-0.548207,-10.680028,0.010500729,0.0064502,-0.0042898376,61.249306,156.9064,0.0047884034,1442850,-79,287,66,9476
69064061,4038,0,0.22505558,-0.5812523,-11.208557,0.01528857,-0.0012363276,-0.0713139,61.277008,156.9064,0.0047884034,1442850,145,349,-673,9486
69168029,4006,0,-1.5272377,1.0461311,-9.398315,0.007402458,0.013204011,-0.0503276,61.265926,156.9064,0.0047884034,1442850,-2119,-241,-3861,9482
69268023,4001,0,-0.6299974,1.7528026,-9.200804,0.026205912,-0.0014463679,-0.028852656,61.29086,156.9064,0.0047884034,1442850,-2095,794,-1561,9491
69372023,4000,0,0.8185806,-0.5725903,-9.673126,-0.037252933,-0.0135507425,-0.023506356,61.240997,156.9064,0.0047884034,1442850,1868,-335,-2027,9473
69472023,4000,0,-0.8934895,-1.1296296,-10.058383,-0.038620133,0.009944396,-0.075726375,61.218838,156.9064,0.0047884034,1442850,199,-788,-3984,9465
69572053,4030,0,-1.253613,-0.66813874,-9.633284,-0.01693422,-0.003731011,-0.043060064,61.232685,156.9064,0.0047884034,1442850,-1434,183,-1705,9470
69676058,4035,0,1.2480279,1.0571063,-10.001594,-0.00062581524,-0.006545278,-0.023750992,61.27424,156.9064,0.0047884034,1442850,2518,-464,-1363,9485
69776023,4000,0,0.14715494,1.6730927,-9.93845,-0.013626115,0.017613692,-0.046009004,61.268696,156.9064,0.0047884034,1442850,845,-544,-2250,9483
69880023,4000,0,-0.3611191,-0.17681862,-9.000805,0.006281789,-0.007972216,-0.07170431,61.243767,156.9064,0.0047884034,1442850,-1597,-439,-3817,9474
69984023,4000,0,-0.5608277,-1.554098,-10.180098,0.0036441395,-0.01641827,-0.013213129,61.268696,156.9064,0.0047884034,1442850,138,111,-1747,9483
70084022,3952,0,0.7615636,-0.3895911,-10.885491,0.010161756,0.009772781,-0.0045600166,61.235455,156.9064,0.0047884034,1442850,1153,-530,-201,9471
70188028,4005,0,-0.3983236,1.6218108,-10.45425,-0.0067092488,0.007014315,-0.06522413,61.27424,156.9064,0.0047884034,1442850,-546,528,-561,9485
70292023,4000,0,0.5177147,0.4396007,-9.89207,0.010878532,0.011672763,-0.03497174,61.301937,156.9064,0.0047884034,1442850,292,159,-2522,9495
70392023,3994,0,0.17151834,-0.71138173,-8.960796,-0.012374829,-0.0095976675,-0.014510784,61.299168,156.9064,0.0047884034,1442850,265,351,-2265,9494
70496040,4017,0,-0.24895209,-1.0804044,-11.151286,-0.0032507575,-0.004899458,-0.028057346,61.279778,156.9064,0.0047884034,1442850,891,-586,-274,9487
70600058,4029,0,-1.1363562,1.5430133,-9.414754,0.02616636,-0.00069531496,-0.024337787,61.25485,156.9064,0.0047884034,1442850,-2310,456,-3181,9478
70700023,3995,0,0.73531634,0.97331774,-9.403433,0.026760533,0.0019845637,-0.07414803,61.30748,156.9064,0.0047884034,1442850,130,-394,-3202,9497
70804032,3964,0,-0.42380542,-0.21127705,-8.844159,-0.023743747,0.0014385763,-0.041218728,61.243767,156.9064,0.0047884034,1442850,-332,141,-4401,9474
70904029,4006,0,-1.1596814,-0.8525548,-10.903256,0.019654052,-0.0029225042,-0.0487858,61.277008,156.9064,0.0047884034,1442850,-2448,347,-1465,9486
71004023,3970,0,-0.6601766,-1.3689433,-9.780452,0.035169225,-0.00069630396,-0.02926301,61.279778,156.9064,0.0047884034,1442850,-999,-459,-2509,9487
71108023,3965,0,-0.26700404,0.6211912,-9.407522,-0.024960103,0.010694462,-0.051903717,61.257618,156.9064,0.0047884034,1442850,-117,-573,-2158,9479
71208023,3980,0,-0.40863582,0.52608633,-10.1922035,-0.010153165,0.00213728,-0.05980895,61.28809,156.9064,0.0047884034,1442850,390,-1369,-1711,9490
71312049,4026,0,-0.09902591,0.24073124,-9.64892,0.038066156,-0.022713147,-0.03060386,61.27424,156.9064,0.0047884034,1442850,-884,860,-2399,9485
71416023,4000,0,0.528973,-0.36416608,-10.357187,0.0008297679,0.007634735,-0.09108237,61.304707,156.9064,0.0047884034,1442850,666,489,-2714,9496
71516023,4000,0,0.5930997,-0.3427641,-10.013599,0.011217142,0.016986737,0.0062757344,61.25485,156.9064,0.0047884034,1442850,360,-693,-569,9478
71616023,4000,0,0.14246514,0.76081115,-10.825549,0.031905305,-0.014218744,-0.032310497,61.268696,156.9064,0.0047884034,1442850,-1061,170,467,9483
71720059,4036,0,0.6466981,0.608599,-9.224364,0.02113499,-0.016718814,-0.045544382,61.27147,156.9064,0.0047884034,1442850,629,-121,-2388,9484
71820023,3985,0,-0.4292223,0.6504213,-8.541762,0.029527472,-0.008984839,-0.057120137,61.304707,156.9064,0.0047884034,1442850,-1916,707,-4916,9496
71924102,4079,0,-0.46482998,-0.441272,-10.419279,0.029563207,0.004825254,-0.10108843,61.282547,156.9064,0.0047884034,1442850,-1169,123,-2870,9488
72024023,4000,0,-1.4727205,0.08183221,-9.915953,0.0021753986,0.016857916,-0.08468003,61.31025,156.9064,0.0047884034,1442850,-1617,-346,-3696,9498
72124029,3997,0,0.15236747,-0.09116413,-8.781834,-0.019474456,0.01631348,-0.091010526,61.27424,156.9064,0.0047884034,1442850,731,-857,-5569,9485
72228022,3999,0,1.0793862,1.0161966,-11.373914,-0.012738177,0.00023587514,-0.027871065,61.301937,156.9064,0.0047884034,1442850,1943,851,1813,9495
72328036,4013,0,-0.6486046,0.28766847,-11.715613,0.008901369,0.004233555,-0.033812623,61.260387,156.9064,0.0047884034,1442850,-786,-253,1582,9480
72428040,4017,0,0.059028797,-0.89568174,-10.255006,-0.009815661,0.002903536,-0.03824853,61.27424,156.9064,0.0047884034,1442850,896,-1223,-1924,9485
72532056,4033,0,1.0096909,0.38341412,-9.840103,-0.009809103,0.02379112,-0.08782366,61.29363,156.9064,0.0047884034,1442850,707,338,-3699,9492
72632022,3999,0,0.23637715,0.4107891,-9.152059,0.02614287,0.009719158,-0.08263254,61.29086,156.9064,0.0047884034,1442850,-172,-651,-4459,9491
72736023,4001,0,0.208711,0.34946775,-10.344538,0.0225801,-0.006624822,-0.027873026,61.2964,156.9064,0.0047884034,1442850,36,-206,-284,9493
72836023,3976,0,0.05922957,-0.81634605,-8.995772,-0.022012856,-0.004218436,-0.016568175,61.299168,156.9064,0.0047884034,1442850,983,-367,-3178,9494
72936023,3970,0,0.047182173,-1.0777705,-10.0401535,0.013850757,-0.009064611,0.0191499,61.33241,156.9064,0.0047884034,1442850,-17,-364,52,9506
73040023,3975,0,0.39305896,0.7872866,-8.586367,-0.012442861,0.0010426682,-0.024284717,61.301937,156.9064,0.0047884034,1442850,1382,-73,-4978,9495
73140023,3993,0,-0.7829573,0.44106713,-8.504436,0.020515762,0.01567711,-0.07093031,61.28809,156.9064,0.0047884034,1442850,-1338,-509,-6187,9490
73240023,4001,0,0.8430047,1.423757,-8.028042,-0.01910804,0.011703346,-0.055539723,61.34626,156.9064,0.0047884034,1442850,560,1048,-4709,9511
