timestamp,integral_dt,error_count,x,y,z,x_integral,y_integral,z_integral,temperature,range_m_s2,scaling,device_id,x_raw,y_raw,z_raw,temperature_raw
29487324,4030,0,-0.12347453,0.13329409,-9.650384,-0.0023653659,0.0019337574,-0.040255886,62.160664,156.9064,0.0047884034,1442826,6,168,2102,9805
29591308,4014,0,-0.24653244,0.6985031,-9.259709,0.00040383585,3.860402e-05,-0.037665293,62.168976,156.9064,0.0047884034,1442826,302,60,2156,9808
29691294,4000,0,-0.18108933,-0.065358624,-10.229535,0.001265012,0.0037708175,-0.04113532,62.168976,156.9064,0.0047884034,1442826,-173,-137,2135,9808
29791297,3954,0,-0.12700544,0.10004361,-9.690996,-0.0050980593,-0.0029798886,-0.040007483,62.180054,156.9064,0.0047884034,1442826,322,224,1820,9812
29895294,3952,0,0.24866548,1.9686344,-9.007615,-0.0024695976,-0.003191379,-0.040096723,62.202217,156.9064,0.0047884034,1442826,512,412,2399,9820
29999334,4035,0,0.19986288,2.0427358,-8.899794,-0.0028558308,-0.0015216384,-0.041995037,62.229916,156.9064,0.0047884034,1442826,532,443,2220,9830
30099294,3960,0,0.014702009,1.7711987,-8.993662,-0.00062019017,0.0023174433,-0.03872954,62.238228,156.9064,0.0047884034,1442826,225,132,2124,9833
30199294,4001,0,-0.020549696,1.2661767,-9.405065,-0.0010001606,-0.0021869629,-0.040650785,62.218834,156.9064,0.0047884034,1442826,260,73,2197,9826
30300870,3957,0,-0.086715095,-0.08416606,-9.865363,-0.0010285864,-0.0027690926,-0.03936634,62.210526,156.9064,0.0047884034,1442826,-90,135,1830,9823
30400870,4001,0,-0.27809948,0.17988579,-9.917071,0.006139298,0.005604369,-0.04110316,62.180054,156.9064,0.0047884034,1442826,153,-643,1816,9812
30504888,4018,0,-0.9797313,-0.16661713,-10.169017,0.0080988165,0.0036627178,-0.038616944,62.213295,156.9064,0.0047884034,1442826,-326,-904,1683,9824
30604897,4027,0,-1.0625967,0.009834142,-10.169474,0.006512699,0.0034341032,-0.03780818,62.27147,156.9064,0.0047884034,1442826,-293,-896,1573,9845
30704899,4029,0,0.47716707,0.43660375,-9.610958,0.011498897,0.009443655,-0.03685264,62.27147,156.9064,0.0047884034,1442826,-746,-554,1345,9845
30808877,4007,0,0.30464494,-0.48488656,-10.246459,0.009752797,0.0090269875,-0.041311264,62.265926,156.9064,0.0047884034,1442826,-316,-11,2483,9843
30908870,4000,0,0.8275733,0.16480403,-9.948741,0.0027049342,-0.00034479494,-0.030667637,62.27424,156.9064,0.0047884034,1442826,-525,675,1303,9846
31012887,3991,0,-1.0150304,0.17216955,-9.999268,-1.4922116e-05,0.0008938828,-0.03910846,62.257618,156.9064,0.0047884034,1442826,95,-959,1812,9840
31112870,4000,0,0.43484443,0.3434707,-9.708733,0.005562975,0.00409959,-0.042746857,62.31025,156.9064,0.0047884034,1442826,56,93,2086,9859
31214494,3974,0,-0.38584915,-0.022591462,-9.55428,0.025736267,-0.003164662,-0.03826439,62.279778,156.9064,0.0047884034,1442826,-252,-1087,2454,9848
31314494,3994,0,0.337094,-0.22642061,-8.958146,0.005989317,0.0024816794,-0.037733134,62.29086,156.9064,0.0047884034,1442826,-423,646,3216,9852
31418500,4000,0,-0.6757002,0.39860648,-10.877893,0.01921922,0.008836435,-0.043404326,62.31025,156.9064,0.0047884034,1442826,-91,-1265,588,9859
31518494,4000,0,-0.35519588,0.28059092,-9.180481,0.009414252,-0.0024156282,-0.026202844,62.30748,156.9064,0.0047884034,1442826,522,-636,2767,9858
31622500,4006,0,0.7611592,0.6977044,-9.2254925,-0.001597564,0.0021740734,-0.033486247,62.32687,156.9064,0.0047884034,1442826,-235,901,2360,9865
31722528,4034,0,-0.17612346,0.27390638,-10.223351,-0.0074184164,-0.0044073574,-0.027793668,62.3241,156.9064,0.0047884034,1442826,-142,-160,2796,9864
31822530,4036,0,0.2813264,0.15886639,-9.765892,3.382913e-05,0.0046099112,-0.03313845,62.337948,156.9064,0.0047884034,1442826,491,841,2083,9869
31926526,4032,0,-0.2378109,1.0443988,-9.143851,-0.0015333524,0.0077284425,-0.04510642,62.36565,156.9064,0.0047884034,1442826,-387,49,3138,9879
32026494,4000,0,0.4574977,0.8406099,-10.443988,0.006515035,0.0035277705,-0.045714244,62.35734,156.9064,0.0047884034,1442826,1049,-424,969,9876
32126504,4011,0,0.4568868,0.23882225,-9.920799,0.0014279301,-0.007273475,-0.03808657,62.34903,156.9064,0.0047884034,1442826,-388,732,3309,9873
32231293,3956,0,0.17482547,0.25511885,-10.748864,0.0042790435,-0.0017234011,-0.05127698,62.37119,156.9064,0.0047884034,1442826,-337,59,1932,9881
32332093,4000,0,-0.22452368,1.0163988,-11.473662,0.0012649401,0.010168592,-0.050266728,62.36288,156.9064,0.0047884034,1442826,227,-329,2847,9878
32432094,4001,0,-0.10334361,0.16720995,-11.099413,0.0013655352,0.0066947932,-0.024851337,62.3518,156.9064,0.0047884034,1442826,1,371,3609,9874
32536093,3999,0,-0.083498694,-0.81982553,-11.538225,-0.009331189,-0.0008237517,-0.051981688,62.39889,156.9064,0.0047884034,1442826,-354,-334,683,9891
32636114,4010,0,-0.2401079,-0.5950231,-10.780523,-0.003745654,-0.005285112,-0.028703507,62.393353,156.9064,0.0047884034,1442826,-89,542,3137,9889
32736108,3971,0,-0.07820699,0.58108467,-10.771148,0.009866028,-0.0027453033,-0.041249067,62.38781,156.9064,0.0047884034,1442826,563,277,2064,9887
32840122,4022,0,0.38534907,1.2188151,-10.497939,0.005668521,-0.0082995985,-0.050916933,62.40166,156.9064,0.0047884034,1442826,513,147,2415,9892
32940134,4041,0,0.39726818,0.48954394,-10.26413,-0.00064384716,0.0033661723,-0.033637054,62.393353,156.9064,0.0047884034,1442826,197,-343,2741,9889
33044094,4000,0,-0.20200427,-0.6559329,-11.084722,-0.012760438,0.006542056,-0.056910496,62.434902,156.9064,0.0047884034,1442826,-427,30,2375,9904
33144130,4031,0,0.016833302,-0.8287489,-10.506431,3.7311343e-05,-0.0015108394,-0.04826487,62.44044,156.9064,0.0047884034,1442826,-218,220,2745,9906
33245693,3963,0,-0.40829116,0.5557827,-10.548644,-0.0020784964,0.006815559,-0.03732712,62.434902,156.9064,0.0047884034,1442826,-632,-258,2540,9904
33345693,3967,0,0.28203154,1.7404022,-9.984756,0.013541866,0.0013211215,-0.04381842,62.43767,156.9064,0.0047884034,1442826,474,-500,3324,9905
33445693,3961,0,0.22791278,0.6777872,-10.723693,0.0016809813,-0.005887119,-0.03535911,62.448753,156.9064,0.0047884034,1442826,-350,-70,1983,9909
33549693,3961,0,0.55115974,-0.9244142,-10.526098,0.0055361623,-0.004276785,-0.037305593,62.443214,156.9064,0.0047884034,1442826,1101,260,2187,9907
33653710,4017,0,-0.31982747,-0.4941835,-10.338333,-0.0049128365,0.00014652533,-0.043615073,62.47645,156.9064,0.0047884034,1442826,-420,262,1198,9919
33753693,3990,0,0.18551722,0.80640495,-9.001772,0.004659967,-0.0015769735,-0.026540704,62.473682,156.9064,0.0047884034,1442826,-220,593,3744,9918
33857693,3995,0,-0.14279805,0.6041839,-9.340731,-0.011140705,-0.004242966,-0.037885282,62.487534,156.9064,0.0047884034,1442826,-373,-478,2248,9923
33957699,4000,0,0.54157466,-0.44680637,-9.842604,-0.0037645393,-0.0057513444,-0.04036463,62.473682,156.9064,0.0047884034,1442826,558,721,3378,9918
34057695,3995,0,0.39457676,-1.0958102,-10.528654,-0.0006441896,-0.0063347137,-0.031657085,62.448753,156.9064,0.0047884034,1442826,416,203,746,9909
34161727,4000,0,-0.5549959,-0.3182662,-10.183249,-0.0035166938,0.008194044,-0.034328394,62.490303,156.9064,0.0047884034,1442826,-292,-180,710,9924
34263300,4002,0,0.012711056,0.93073833,-8.986497,-0.0022083386,0.010279721,-0.03246041,62.509693,156.9064,0.0047884034,1442826,27,522,2805,9931
34363293,3982,0,0.079212196,1.1012913,-9.388904,0.0005036424,0.0006704528,-0.037466835,62.537395,156.9064,0.0047884034,1442826,-138,198,1525,9941
34467294,3950,0,0.618527,-0.66972536,-10.1884575,-0.00022621115,-0.0052245297,-0.046083696,62.534626,156.9064,0.0047884034,1442826,-3,682,2177,9940
34567294,4000,0,-0.061453085,-1.3448726,-10.392488,0.00017809507,-0.0067084203,-0.032316092,62.529083,156.9064,0.0047884034,1442826,304,37,1068,9938
34671294,3988,0,-0.43647143,0.84789,-9.060215,-0.0001484364,0.010063636,-0.051497456,62.518005,156.9064,0.0047884034,1442826,495,-476,12,9934
34771293,3999,0,0.19559982,0.82750404,-7.7891703,0.005711048,-0.0005836709,-0.037567057,62.540165,156.9064,0.0047884034,1442826,-378,600,2851,9942
34871320,4027,0,-0.12138407,0.09360154,-8.555286,-0.01108803,-0.003565452,-0.0404159,62.559555,156.9064,0.0047884034,1442826,-316,-253,866,9949
34975300,4006,0,0.332978,-0.572361,-8.235249,-0.0011144936,0.0039879293,-0.0116343405,62.534626,156.9064,0.0047884034,1442826,-121,377,2492,9940
35075293,3976,0,-0.5220556,-0.063793175,-8.774231,-0.0018653019,0.0049225753,-0.03024747,62.567867,156.9064,0.0047884034,1442826,180,-300,2813,9952
35176869,4768,0,-0.30764353,0.9411779,-8.422222,0.0076919612,0.0037755026,-0.03228039,62.58172,156.9064,0.0047884034,1442826,309,-774,-157,9957
35276876,4006,0,0.27593687,0.729525,-8.234391,0.0005678721,-0.005007077,-0.021032121,62.58172,156.9064,0.0047884034,1442826,679,757,3412,9957
35380932,4012,0,-0.43237045,-0.4805924,-9.277646,0.0111611,0.003704135,-0.0131740235,62.578945,156.9064,0.0047884034,1442826,422,-761,1532,9956
35480870,3974,0,0.20827985,-0.5629848,-8.358086,0.005429185,3.0970026e-05,-0.03955877,62.626038,156.9064,0.0047884034,1442826,181,1155,4221,9973
35580870,3960,0,-0.17171095,0.055286806,-8.775543,-0.011608135,0.010938021,-0.039059512,62.609417,156.9064,0.0047884034,1442826,-865,552,1622,9967
35684870,3994,0,0.29645732,0.8342115,-8.36983,-0.004416367,0.0010457379,-0.03816358,62.609417,156.9064,0.0047884034,1442826,-46,1271,3777,9967
35784899,4029,0,-0.3225094,0.20909466,-9.558057,0.008714818,-0.0104420595,-0.036989532,62.603878,156.9064,0.0047884034,1442826,-471,-1141,1543,9965
35884910,3975,0,0.13845116,-0.7375771,-9.491128,-0.011215642,-0.006597937,-0.037823576,62.63435,156.9064,0.0047884034,1442826,-144,85,1614,9976
35988961,4068,0,-0.20203753,-0.89129037,-9.588159,0.0010293613,-0.006457012,-0.04786955,62.628807,156.9064,0.0047884034,1442826,-1151,-209,1956,9974
36088899,4006,0,-0.5260915,0.6164046,-9.673622,0.00073790795,0.012882118,-0.035686847,62.63989,156.9064,0.0047884034,1442826,110,-653,10,9978
36190582,4062,0,0.27649906,1.0995506,-8.642592,-0.0022926047,0.008264269,-0.04099376,62.67036,156.9064,0.0047884034,1442826,-1165,938,3803,9989
36290514,4000,0,0.042724166,0.78039277,-9.515972,-0.0005197972,0.0014093013,-0.03873593,62.664818,156.9064,0.0047884034,1442826,1251,-487,1192,9987
36394522,4001,0,0.53299135,-1.0054295,-9.328311,-0.004798012,-0.00275396,-0.01494443,62.65374,156.9064,0.0047884034,1442826,662,777,2464,9983
36494514,4000,0,-0.4569899,-0.54248875,-9.564892,-0.0030816924,0.0127225425,-0.045136888,62.69252,156.9064,0.0047884034,1442826,321,434,2849,9997
36598514,3994,0,0.53266126,0.96043575,-8.695999,0.0039431797,0.009249916,-0.026769077,62.7036,156.9064,0.0047884034,1442826,-726,1331,3348,10001
36698514,3970,0,-0.47125283,1.3133678,-9.4792185,-0.006436112,0.008451872,-0.04127413,62.7313,156.9064,0.0047884034,1442826,702,-253,429,10011
36798549,4035,0,-0.20581076,0.39826077,-9.610996,0.006218044,0.0039668498,-0.019560764,62.71468,156.9064,0.0047884034,1442826,593,-1011,456,10005
36902514,3999,0,0.39323276,-1.2398143,-10.4098215,-0.0019363721,-0.0034222624,-0.056488648,62.74515,156.9064,0.0047884034,1442826,-401,194,121,10016
37002514,3961,0,-0.6680938,-0.50030154,-10.15973,-0.0032844206,0.012432692,-0.03668036,62.736843,156.9064,0.0047884034,1442826,523,-377,3616,10013
37106520,4006,0,-0.21064654,1.62801,-9.493934,-0.00031750812,0.006847716,-0.029970586,62.75069,156.9064,0.0047884034,1442826,-65,-264,2995,10018
37208100,4006,0,0.3445466,1.439161,-9.2971525,-0.0038606944,-0.0035034402,-0.039449077,62.781162,156.9064,0.0047884034,1442826,327,366,2586,10029
37308124,4030,0,-0.15036567,0.41505376,-10.198219,-0.0008269893,0.0003765677,-0.059831172,62.756233,156.9064,0.0047884034,1442826,-130,-949,1166,10020
37412094,4000,0,0.13929994,-0.9537961,-10.3689375,-0.013242737,0.009420375,-0.03585787,62.7313,156.9064,0.0047884034,1442826,885,423,2018,10011
37512100,4006,0,-0.07445904,-1.0595304,-10.475222,0.0072241835,0.008235322,-0.026895031,62.781162,156.9064,0.0047884034,1442826,1143,362,1036,10029
37612094,3996,0,-0.3436556,-0.11687166,-9.98086,-0.0050880117,0.008711431,-0.044169456,62.76454,156.9064,0.0047884034,1442826,-1307,153,2197,10023
37712108,4014,0,0.2183908,1.2007227,-10.051413,0.00030298514,0.00056203373,-0.04432621,62.789474,156.9064,0.0047884034,1442826,-689,53,2467,10032
37816140,3997,0,0.10811913,1.1323583,-10.3815155,0.009133805,0.0021232397,-0.04590498,62.76731,156.9064,0.0047884034,1442826,977,-503,506,10024
37920111,3967,0,-0.35900244,-1.4088562,-10.916914,-0.0076284637,-0.0060875807,-0.054143827,62.806095,156.9064,0.0047884034,1442826,144,-927,-489,10038
38024094,3992,0,-0.351218,-0.722907,-10.190624,-0.0023219052,0.0019979249,-0.03403105,62.822716,156.9064,0.0047884034,1442826,-1617,-696,2488,10044
38121737,4067,0,-0.28501058,-0.28300723,-10.654127,0.014497044,0.0057355305,-0.03917405,62.781162,156.9064,0.0047884034,1442826,-421,-63,2984,10029
38225670,3965,0,-0.22458123,1.5858659,-9.319141,0.009426349,0.00032432703,-0.019808147,62.855953,156.9064,0.0047884034,1442826,261,-226,3259,10056
38325670,3972,0,0.8309587,1.1702908,-9.764307,-0.007281952,-0.0013338249,-0.049675092,62.858727,156.9064,0.0047884034,1442826,605,958,2139,10057
38425670,3959,0,-0.33089638,0.105198786,-10.23547,0.008604324,-0.007184619,-0.043967776,62.825485,156.9064,0.0047884034,1442826,77,-938,1952,10045
38529670,3942,0,-0.050312597,-1.0592643,-10.706845,-0.00536574,0.0023515997,-0.047584362,62.855953,156.9064,0.0047884034,1442826,183,152,2494,10056
39235300,3973,0,0.83445853,0.28544068,-7.250249,0.0050955974,0.0005928071,-0.038296483,62.889194,156.9064,0.0047884034,1442826,1199,1289,3481,10068
39339294,3995,0,0.617525,0.021791747,-7.927539,-0.0071376697,-0.0008764118,-0.046932887,62.911358,156.9064,0.0047884034,1442826,-817,1684,3482,10076
39439300,3998,0,0.6670754,-0.21964313,-8.351631,-0.0065659117,-0.008284313,-0.045965552,62.897507,156.9064,0.0047884034,1442826,-825,2323,4940,10071
39543300,4006,0,-0.27760106,-0.34127975,-9.4810915,-0.007209508,0.005296962,-0.04374482,62.952908,156.9064,0.0047884034,1442826,138,653,2327,10091
39643306,4005,0,-0.75161606,0.50440466,-9.209028,0.0057660025,0.002861812,-0.031233892,62.930748,156.9064,0.0047884034,1442826,-1462,-594,3025,10083
39743294,4001,0,-0.283023,1.1261983,-9.494776,0.007707784,-0.003955546,-0.030343039,62.919666,156.9064,0.0047884034,1442826,-1464,-465,3164,10079
39847293,3999,0,1.1206851,0.23040305,-9.429373,0.0058877263,-0.015287178,-0.019938815,62.950138,156.9064,0.0047884034,1442826,-833,1037,3198,10090
39951294,4000,0,-0.26326647,-0.91387296,-10.5874195,0.0046076206,-0.004611201,-0.02984431,62.94737,156.9064,0.0047884034,1442826,-70,-1170,2281,10089
40052939,4046,0,-0.14175421,-0.63753045,-10.613753,-0.0024650006,0.0064193592,-0.047559656,62.933517,156.9064,0.0047884034,1442826,322,642,1262,10084
40152894,4001,0,-0.47349578,0.14804125,-10.10297,-0.005017456,0.006870521,-0.017430905,62.98061,156.9064,0.0047884034,1442826,-103,-313,2203,10101
40252911,3991,0,-0.5493933,1.4384922,-9.651174,0.0063340385,0.0011153596,-0.039445207,62.94737,156.9064,0.0047884034,1442826,-1379,-622,3121,10089
40356936,4042,0,0.308399,0.8006687,-9.628747,-0.009668708,-0.011947138,-0.030312425,63.00277,156.9064,0.0047884034,1442826,41,618,3938,10109
40456917,4023,0,0.14717996,-0.34961325,-10.67719,0.004748369,-0.011829989,-0.053723224,63.011078,156.9064,0.0047884034,1442826,-144,113,3795,10112
40560917,4024,0,-0.44749388,-1.5864275,-11.162319,-0.008780047,0.01069999,-0.05101349,63.0277,156.9064,0.0047884034,1442826,606,665,-214,10118
40660894,4001,0,-0.5429631,-0.7638091,-10.592131,-0.0013089413,0.0012447764,-0.03444858,63.02216,156.9064,0.0047884034,1442826,-1370,49,2724,10116
40760900,3990,0,-0.47963125,0.40425944,-10.105934,0.0036901077,0.0050364113,-0.039218944,63.02493,156.9064,0.0047884034,1442826,415,-773,1056,10117
40864893,3923,0,-0.52361953,1.6234227,-9.422627,-0.011514328,0.0031782184,-0.047775816,63.03047,156.9064,0.0047884034,1442826,727,-408,1764,10119
40964943,4049,0,0.24965933,1.3851379,-9.318611,0.015075876,-0.0034877611,-0.035621017,63.01385,156.9064,0.0047884034,1442826,-165,-327,4293,10113
41070514,3994,0,0.076319866,-0.88218313,-9.908597,-0.008623676,-0.009472085,-0.023297109,63.07756,156.9064,0.0047884034,1442826,451,129,4025,10136
41170520,3968,0,-0.20084152,-1.1127058,-10.485187,0.0028499132,-0.0056467876,-0.02658642,63.011078,156.9064,0.0047884034,1442826,589,-158,1617,10112
41274520,4006,0,-0.3636961,0.7652561,-9.398522,-0.004300897,0.0063176216,-0.04066746,63.06371,156.9064,0.0047884034,1442826,-298,-290,3394,10131
41374537,4023,0,0.24710917,1.4436991,-9.623178,0.012818744,0.0076197246,-0.023523139,63.05817,156.9064,0.0047884034,1442826,340,-557,35,10129
41474517,3997,0,0.28456455,1.914885,-9.675627,-0.014252528,0.010402589,-0.058355045,63.05263,156.9064,0.0047884034,1442826,1256,502,554,10127
41578520,3970,0,0.7212683,-0.7574222,-10.058058,0.0144372275,-0.008606597,-0.038654283,63.07479,156.9064,0.0047884034,1442826,-492,548,4023,10135
41678514,4001,0,-0.0031423804,-1.1013687,-10.550357,-0.0100751,-0.007829274,-0.049050543,63.085873,156.9064,0.0047884034,1442826,-499,211,2130,10139
41778514,4000,0,-0.103901535,-1.3083816,-10.201605,0.004099371,-0.0039569614,-0.02776298,63.09418,156.9064,0.0047884034,1442826,-95,639,2961,10142
41882512,3996,0,-0.120216876,1.1497496,-9.713277,0.0138427,0.008024357,-0.027154062,63.1108,156.9064,0.0047884034,1442826,-226,-297,2745,10148
41984151,4057,0,0.12542202,1.4906434,-8.780206,-0.0068454063,0.009701655,-0.04769478,63.127422,156.9064,0.0047884034,1442826,-545,576,3827,10154
42088094,3999,0,0.5925223,0.44680518,-9.584411,-0.0040596817,0.00012680632,-0.03555742,63.09695,156.9064,0.0047884034,1442826,-151,662,2513,10143
42188129,4007,0,-0.20781112,-0.55229396,-9.551432,0.008851794,-0.0041255606,-0.030640839,63.144043,156.9064,0.0047884034,1442826,-352,-581,3573,10160
42288148,4044,0,0.2685794,-1.0440292,-9.992666,-0.0014956312,-0.00537718,-0.04774421,63.132965,156.9064,0.0047884034,1442826,-521,64,2064,10156
42392093,3973,0,-0.38149285,0.48015937,-9.510125,0.00861975,0.013535276,-0.038358517,63.168976,156.9064,0.0047884034,1442826,559,-389,1263,10169
42496114,4021,0,-0.2433648,1.4659511,-9.066561,-0.008200123,-0.003410852,-0.02834861,63.11357,156.9064,0.0047884034,1442826,188,-345,2286,10149
42596094,3985,0,-0.17874144,1.1506935,-9.760302,0.007676221,0.002372257,-0.042857,63.138504,156.9064,0.0047884034,1442826,1240,-596,-428,10158
42700094,3988,0,-0.06800435,-0.9218721,-10.297286,-0.013047847,-0.012112075,-0.047055714,63.146812,156.9064,0.0047884034,1442826,-262,-490,2177,10161
42800095,3963,0,0.046663772,-1.7747298,-10.06492,-0.005650398,-0.006135366,-0.037759863,63.160664,156.9064,0.0047884034,1442826,-716,-182,1126,10166
42901698,4020,0,-0.53615475,-0.19106165,-9.917069,0.0024902516,-0.0043973494,-0.03518667,63.193905,156.9064,0.0047884034,1442826,-438,-915,1316,10178
43001699,3998,0,-0.24247871,0.04075885,-9.52784,-0.010952655,0.0092526525,-0.030761283,63.218834,156.9064,0.0047884034,1442826,-203,58,811,10187
43101777,4107,0,0.18871333,1.6108831,-8.754726,0.0032549761,-0.00028093418,-0.029722963,63.202217,156.9064,0.0047884034,1442826,-303,191,4052,10181
43205682,3981,0,0.23883761,0.8754595,-9.876656,0.0042519514,-0.0032560886,-0.03951861,63.193905,156.9064,0.0047884034,1442826,969,-449,359,10178
43305670,3965,0,-0.058214724,0.22219113,-9.6175585,-0.0025297264,-0.0012362226,-0.052651376,63.218834,156.9064,0.0047884034,1442826,1208,-115,2161,10187
43409670,4000,0,-0.11812702,-0.7528226,-10.131308,-0.0069297,0.0073181856,-0.03657155,63.210526,156.9064,0.0047884034,1442826,684,308,1780,10184
43509670,3965,0,-0.22380978,-0.7675858,-9.673225,-0.0022201755,-0.002297289,-0.022980532,63.227146,156.9064,0.0047884034,1442826,-1313,17,2418,10190
43613670,4000,0,-0.18098146,1.3920834,-9.483646,-0.0070536155,0.0044884332,-0.033665456,63.216064,156.9064,0.0047884034,1442826,-299,531,2656,10186
43717670,3961,0,0.09509093,0.42648682,-9.327968,0.0012327495,0.0009707765,-0.038360182,63.249306,156.9064,0.0047884034,1442826,322,267,4425,10198
43819314,3959,0,0.3917563,-0.6207278,-10.077071,-0.008303762,-0.010207027,-0.05437408,63.238228,156.9064,0.0047884034,1442826,30,-383,2291,10194
43919314,4000,0,-0.117159866,-0.91637915,-10.304884,-0.0045656967,-0.0015471,-0.051006585,63.260387,156.9064,0.0047884034,1442826,-997,-116,1847,10202
44019332,4018,0,-0.47479606,-0.47834092,-10.044069,-0.008131291,0.0024687368,-0.046410605,63.277008,156.9064,0.0047884034,1442826,-924,9,251,10208
44123316,3996,0,-0.48854917,1.4365861,-9.026688,-0.004456036,0.0055444986,-0.044519007,63.257618,156.9064,0.0047884034,1442826,-166,-951,1234,10201
44223314,3962,0,-0.021617409,1.4451766,-9.189716,-0.007149814,-0.001163428,-0.03218691,63.279778,156.9064,0.0047884034,1442826,-266,-24,3432,10209
44323314,3994,0,0.48018816,0.10805463,-9.391897,-0.0018380645,-0.008428067,-0.050957344,63.257618,156.9064,0.0047884034,1442826,-915,560,3661,10201
44427333,4019,0,0.013011312,-0.71054703,-10.365849,-0.0034326764,-0.013129245,-0.044137225,63.30748,156.9064,0.0047884034,1442826,-1213,-284,3015,10219
44527320,3966,0,-0.3294545,-0.25431773,-10.246399,-0.0005844076,0.0018884663,-0.038534705,63.277008,156.9064,0.0047884034,1442826,-1671,-105,1213,10208
44631314,3993,0,0.20506507,1.4095073,-9.181324,0.008414326,0.0004975751,-0.028793016,63.29363,156.9064,0.0047884034,1442826,-160,435,3122,10214
44735324,4010,0,0.49029735,0.5364929,-10.459291,-0.00052846683,-0.005023578,-0.04753637,63.304707,156.9064,0.0047884034,1442826,-278,-373,-649,10218
44836896,4003,0,0.49924883,-0.82293624,-10.116201,0.0018943151,-0.0018791013,-0.032806285,63.33241,156.9064,0.0047884034,1442826,-287,631,4283,10228
44936900,3997,0,0.15793274,-1.6905538,-10.518088,-0.005891702,-0.01666521,-0.050174117,63.35457,156.9064,0.0047884034,1442826,-495,566,2979,10236
45040915,4021,0,-0.77396095,-0.33365864,-9.711819,-0.003904421,0.0009170617,-0.030407123,63.337948,156.9064,0.0047884034,1442826,-1569,-226,2338,10230
45140934,4040,0,0.40995514,1.4230089,-9.06965,0.00030996744,0.00029779098,-0.028911028,63.337948,156.9064,0.0047884034,1442826,96,1022,4179,10230
45244897,4003,0,0.38350955,1.059766,-9.464298,-0.0069196993,-0.004687042,-0.05073317,63.31302,156.9064,0.0047884034,1442826,-23,104,439,10221
45344943,4043,0,0.28254342,0.08084456,-10.078617,0.011477144,-0.0013645869,-0.0451723,63.33518,156.9064,0.0047884034,1442826,1402,555,2734,10229
45444894,4000,0,-0.01034894,-0.5322224,-10.630871,-0.009044767,-0.0070877713,-0.06412335,63.33241,156.9064,0.0047884034,1442826,4,-191,609,10228
45544894,3999,0,-0.18037441,-1.3300691,-10.442765,-0.0014328123,0.0052160253,-0.03855679,63.38227,156.9064,0.0047884034,1442826,168,533,1993,10246
45648925,4013,0,-0.2144071,0.3969178,-9.510655,-0.008982322,0.012993889,-0.038606733,63.37119,156.9064,0.0047884034,1442826,-58,281,2802,10242
45750493,3955,0,0.076964654,1.7630749,-9.046822,0.004774662,-0.0036855931,-0.024808269,63.39058,156.9064,0.0047884034,1442826,-704,-245,2224,10249
45854516,4006,0,0.42989168,0.4338106,-10.09446,-0.003486315,-0.017018937,-0.051704735,63.38781,156.9064,0.0047884034,1442826,332,-23,897,10248
45954529,4029,0,0.2771546,-0.4792964,-10.282879,0.004880026,0.0022364329,-0.04129207,63.38781,156.9064,0.0047884034,1442826,676,-85,-155,10248
46058493,4000,0,-0.16186616,-0.5423755,-9.815241,0.009451314,0.0010624808,-0.012289316,63.39058,156.9064,0.0047884034,1442826,275,-374,2706,10249
46158493,3994,0,-0.59205353,0.02064478,-10.008659,-0.008789147,0.005501212,-0.03345044,63.39889,156.9064,0.0047884034,1442826,-730,-204,931,10252
46262470,3977,0,0.33709884,1.6087903,-9.197926,-0.0050008465,0.007727381,-0.062798776,63.434902,156.9064,0.0047884034,1442826,-967,431,759,10265
46362470,3950,0,-0.21281539,1.4902177,-10.0334015,0.0075958157,0.0029530807,-0.05498516,63.412743,156.9064,0.0047884034,1442826,648,54,1745,10257
46462470,3942,0,-0.1289945,0.42054376,-10.048826,-0.009242986,-0.0040491177,-0.05129036,63.432133,156.9064,0.0047884034,1442826,491,-416,889,10264
46566470,3993,0,-0.05090246,-0.9555098,-10.468719,-0.011345918,-0.0022071605,-0.05069207,63.445984,156.9064,0.0047884034,1442826,-59,214,2179,10269
46668120,4026,0,-0.3469122,-1.0146399,-10.172899,-0.008951631,0.012888136,-0.056423496,63.409973,156.9064,0.0047884034,1442826,-868,-2,202,10256
46768100,4006,0,0.57640445,0.58062035,-8.843096,0.007006743,0.0087094465,-0.028529942,63.448753,156.9064,0.0047884034,1442826,145,1408,4780,10270
46872094,4000,0,0.07094606,1.5725546,-9.187072,-0.0027339668,-0.01267503,-0.028880313,63.481995,156.9064,0.0047884034,1442826,806,258,2424,10282
46976124,4030,0,0.75275385,-0.2880638,-10.399839,0.0025913334,-0.009538468,-0.06906373,63.451523,156.9064,0.0047884034,1442826,896,183,1072,10271
47076094,3984,0,0.09790293,-1.0920688,-9.953339,-0.0039407606,-0.0076849484,-0.028178588,63.45706,156.9064,0.0047884034,1442826,115,456,3808,10273
47180127,4027,0,-0.51756746,-0.49154755,-9.548538,-0.0077144546,0.012999545,-0.032668967,63.484764,156.9064,0.0047884034,1442826,979,-129,1429,10283
47280100,4006,0,-0.07624276,0.32930818,-9.919513,0.0055250917,0.0027443245,-0.0400831,63.481995,156.9064,0.0047884034,1442826,-717,67,-424,10282
47380094,4000,0,-0.014198975,1.2728146,-9.617689,0.008978914,0.012348643,-0.04288894,63.504154,156.9064,0.0047884034,1442826,-319,-717,1931,10290
47484094,3983,0,-0.03248092,0.9039351,-9.860019,0.0123339705,-0.010033036,-0.032336608,63.498615,156.9064,0.0047884034,1442826,-139,-520,3508,10288
47585676,4746,0,0.25341842,-0.3320088,-9.943386,-0.0016712041,-0.0047275787,-0.05684811,63.470913,156.9064,0.0047884034,1442826,513,587,5498,10278
47685683,3900,0,0.177577,-1.0555261,-11.172635,-0.003543581,0.0060954886,-0.036122844,63.506924,156.9064,0.0047884034,1442826,663,43,1230,10291
47785678,3947,0,-0.24856125,-0.8807486,-10.479658,-0.0078432765,0.012686067,-0.035666816,63.495846,156.9064,0.0047884034,1442826,-136,36,942,10287
47889677,3970,0,-0.4324252,1.2194297,-9.451835,-0.0065827603,0.018698169,-0.033190593,63.523544,156.9064,0.0047884034,1442826,168,252,2505,10297
47989670,4000,0,0.050571878,1.1987356,-8.991985,-0.010005867,0.003778272,-0.051268846,63.515236,156.9064,0.0047884034,1442826,-406,745,2750,10294
48093721,4051,0,0.35756615,-0.35535234,-9.821615,-0.008539153,-0.01256467,-0.044637613,63.556786,156.9064,0.0047884034,1442826,-24,558,3287,10309
48197714,4044,0,-0.26585445,-0.95684725,-9.777973,0.0006811301,0.006880004,-0.027085882,63.537395,156.9064,0.0047884034,1442826,524,-441,2252,10302
48297670,4000,0,-0.39705256,-0.3156073,-9.617837,-0.001626974,0.011445702,-0.020120852,63.562325,156.9064,0.0047884034,1442826,-392,613,4987,10311
48397724,4047,0,0.30048537,0.9293801,-9.273269,-0.0006577163,0.006627107,-0.040003806,63.520775,156.9064,0.0047884034,1442826,-296,1122,3075,10296
48499352,4032,0,0.2865151,1.5776381,-9.300289,-0.0034409296,-0.0017140654,-0.048751757,63.565098,156.9064,0.0047884034,1442826,-707,-420,1929,10312
48603335,3973,0,0.03784915,-0.024008423,-9.854147,-0.0019628708,0.0016211338,-0.019968456,63.590027,156.9064,0.0047884034,1442826,697,-181,2955,10321
48703313,3999,0,0.25147006,-0.9780359,-10.100997,-0.00523195,0.0055618174,-0.031935576,63.576176,156.9064,0.0047884034,1442826,-197,421,1920,10316
48803320,4006,0,-0.00070446945,-1.0649478,-9.775938,-0.00930721,-0.0030639865,-0.04628662,63.606647,156.9064,0.0047884034,1442826,-1350,-119,2106,10327
48907313,3993,0,-0.1398074,0.7693359,-9.197717,0.0073502716,0.008619094,-0.022805974,63.58172,156.9064,0.0047884034,1442826,-21,-322,3188,10318
49007314,3962,0,-0.5489802,1.2659218,-9.641063,-0.0017300562,0.0068247886,-0.061645534,63.62327,156.9064,0.0047884034,1442826,-201,-812,1239,10333
49111366,4052,0,0.35876328,0.36369517,-9.712406,0.004125796,-0.006547014,-0.025639603,63.595566,156.9064,0.0047884034,1442826,1734,176,2281,10323
49215314,4000,0,-0.06335896,-1.1304728,-9.981871,-0.0033867455,-0.0014955611,-0.03027967,63.603878,156.9064,0.0047884034,1442826,-1526,218,2436,10326
49315313,3982,0,-0.09202807,-0.27190965,-9.63149,-0.007945284,0.005093533,-0.03897088,63.61773,156.9064,0.0047884034,1442826,-244,296,1166,10331
49419320,3983,0,-0.44062456,1.6046818,-9.110742,0.0045411997,0.005053354,-0.040065713,63.595566,156.9064,0.0047884034,1442826,-525,-934,2308,10323
49520938,4022,0,0.099448636,1.1775419,-9.664495,0.0048479186,0.0018135877,-0.06225059,63.626038,156.9064,0.0047884034,1442826,234,-738,1204,10334
49620894,3954,0,0.1924245,0.023886302,-9.76118,0.0025543636,-0.006026808,-0.05598744,63.66759,156.9064,0.0047884034,1442826,9,-186,3906,10349
49720894,3948,0,-0.001736857,-0.88445705,-9.664211,-0.0039253617,0.006070874,-0.0349858,63.65097,156.9064,0.0047884034,1442826,563,-174,2399,10343
49824929,4018,0,-0.1853906,0.11617853,-9.923872,0.0065215486,0.0030376636,-0.04846555,63.63989,156.9064,0.0047884034,1442826,21,-436,2867,10339
49924894,3998,0,0.01754506,0.89042515,-9.066234,0.00508467,0.014883135,-0.04452396,63.69806,156.9064,0.0047884034,1442826,798,-202,2805,10360
50024905,4011,0,-0.50863564,1.3166623,-9.092298,0.0019708355,0.004792405,-0.04255186,63.65097,156.9064,0.0047884034,1442826,-598,-392,4163,10343
50128936,4037,0,0.35018834,0.025967497,-10.197918,0.004722209,-0.010879751,-0.057412118,63.68698,156.9064,0.0047884034,1442826,491,47,1618,10356
50232894,4000,0,0.09468366,-0.82905686,-10.306771,-0.0028076663,0.002987308,-0.02916825,63.69252,156.9064,0.0047884034,1442826,733,87,185,10358
50332910,3990,0,0.17193285,-0.13676196,-10.235373,0.0039046188,0.0029346256,-0.027628273,63.67313,156.9064,0.0047884034,1442826,-645,487,2150,10351
50434471,3991,0,0.11434497,1.3202564,-9.279481,0.0071163652,-0.002062473,-0.016903292,63.69806,156.9064,0.0047884034,1442826,505,522,2666,10360
50534516,4046,0,0.108651705,1.3546118,-9.955344,0.008384455,0.0032579629,-0.0502941,63.7036,156.9064,0.0047884034,1442826,420,-389,710,10362
50642470,3944,0,0.5206716,-0.9623378,-10.125047,-0.0046953023,0.0050475053,-0.025689881,63.70914,156.9064,0.0047884034,1442826,9,642,1981,10364
50742491,4021,0,-0.19512774,-1.1879325,-10.142336,-0.0020043962,-7.504178e-05,-0.029924538,63.71468,156.9064,0.0047884034,1442826,-316,205,2361,10366
50846470,3998,0,0.2756404,0.43105528,-9.127096,-0.009299081,0.0026260563,-0.049804118,63.722992,156.9064,0.0047884034,1442826,-1117,875,2308,10369
50946470,3994,0,0.1491495,1.0490235,-9.211936,0.0081174085,-0.0031533313,-0.02701045,63.73407,156.9064,0.0047884034,1442826,-645,341,3361,10373
51050470,4000,0,0.64939404,0.23239698,-9.780788,0.006383702,-0.005036471,-0.041367467,63.74792,156.9064,0.0047884034,1442826,527,204,2990,10378
51150500,4030,0,0.39797533,-0.47806385,-9.933313,0.0080659855,-0.0024928832,-0.041389316,63.74792,156.9064,0.0047884034,1442826,1505,189,2388,10378
51256094,4000,0,0.10291168,-0.70895123,-10.253373,0.0029864986,0.0029824395,-0.019030519,63.795013,156.9064,0.0047884034,1442826,-1112,231,1253,10395
51356100,3962,0,0.1898206,0.73432744,-9.8467455,-0.0008037136,0.005502746,-0.047717918,63.781162,156.9064,0.0047884034,1442826,-175,246,791,10390
51460116,4022,0,0.5649095,1.2104392,-9.371944,-0.0035648523,0.005298555,-0.04073232,63.76454,156.9064,0.0047884034,1442826,138,756,1830,10384
52485693,3971,0,0.39074266,-0.25327685,-9.684224,0.0017350595,-0.013509695,-0.041264113,63.811634,156.9064,0.0047884034,1442826,91,189,3170,10401
52589693,4000,0,0.08048742,-1.2789295,-10.407612,-0.0052827396,-0.008944139,-0.030400159,63.839333,156.9064,0.0047884034,1442826,-510,401,1420,10411
52689693,3993,0,-0.30234832,-0.6906167,-10.365627,0.0058203186,-0.0069362097,-0.027110174,63.836563,156.9064,0.0047884034,1442826,-1147,125,1713,10410
52789693,3966,0,-0.24891151,0.9337412,-10.018264,0.0039088177,0.010925034,-0.043336328,63.855953,156.9064,0.0047884034,1442826,-191,50,516,10417
52893708,3997,0,0.27332795,1.2010927,-9.419131,0.005772995,-0.0008169862,-0.03737581,63.855953,156.9064,0.0047884034,1442826,564,-559,1609,10417
52993761,4067,0,0.1788489,0.52079433,-9.648886,-0.0012925175,-0.0013380356,-0.039973382,63.900276,156.9064,0.0047884034,1442826,396,-476,836,10433
53094532,4838,0,0.54506516,-0.5843943,-10.0927515,-0.010349819,-0.0058441563,-0.045019284,63.894737,156.9064,0.0047884034,1442826,391,-26,-160,10431
53199320,4004,0,-0.47569978,-0.65504694,-9.839373,-0.0056283833,0.004504569,-0.05171463,63.858727,156.9064,0.0047884034,1442826,-741,-391,2602,10418
53303352,4038,0,0.20532794,1.1441544,-9.467165,0.007928889,0.008399766,-0.051003337,63.903046,156.9064,0.0047884034,1442826,-73,-288,1318,10434
53403314,4000,0,-0.3223113,1.2595606,-9.334525,-0.0026900326,0.002433239,-0.03028378,63.908585,156.9064,0.0047884034,1442826,143,-402,3062,10436
53507314,3994,0,0.17584054,-0.5101135,-9.850843,-0.0007612238,-0.006823845,-0.048982337,63.914127,156.9064,0.0047884034,1442826,-267,-279,2165,10438
53607314,4001,0,0.06354527,-1.1362475,-10.0569315,-0.0011344391,-0.0052103866,-0.03874247,63.903046,156.9064,0.0047884034,1442826,-742,-550,2368,10434
53707317,4003,0,-0.35373312,-1.0083674,-9.705337,-0.0052602952,-0.0025992123,-0.037813127,63.908585,156.9064,0.0047884034,1442826,-1129,59,4047,10436
53811314,4000,0,0.30117133,1.3172623,-9.382067,0.0087054465,0.011722978,-0.04144799,63.916897,156.9064,0.0047884034,1442826,1276,84,830,10439
53911314,4000,0,-0.07288007,1.5871172,-9.511357,0.0024158484,0.0046594795,-0.053128317,63.908585,156.9064,0.0047884034,1442826,309,-476,993,10436
54011320,4006,0,-0.11131594,0.8298437,-9.709999,0.009096993,-0.0045284075,-0.04824698,63.94737,156.9064,0.0047884034,1442826,-371,-610,1909,10450
54112908,4015,0,0.28691566,-0.5514334,-9.686931,0.0057852636,-0.009044413,-0.037288994,63.936287,156.9064,0.0047884034,1442826,152,-4,2956,10446
54216924,4030,0,-0.12948538,-1.1743313,-10.415052,-0.004769298,-0.00534038,-0.05174584,63.941826,156.9064,0.0047884034,1442826,-1179,165,1900,10448
54320930,4036,0,-0.7104632,0.89687365,-9.75714,-0.004432393,0.015775416,-0.040236823,63.941826,156.9064,0.0047884034,1442826,-1,-608,1295,10448
54424895,3996,0,0.24591789,0.9977963,-9.263058,0.011844667,-0.004042797,-0.019546615,63.950138,156.9064,0.0047884034,1442826,860,-626,2358,10451
54524894,4000,0,0.6974977,-0.058023803,-9.853344,-0.0014029514,-0.0121237505,-0.045654483,64.00554,156.9064,0.0047884034,1442826,546,235,1451,10471
54628920,4026,0,-0.40465847,-0.6640662,-9.970006,-0.0015492933,0.006625718,-0.0383937,63.9446,156.9064,0.0047884034,1442826,-228,-127,2009,10449
54728909,4009,0,-0.12537503,-0.24548435,-9.394387,0.0059270943,0.009116694,-0.012826363,63.96122,156.9064,0.0047884034,1442826,-208,-340,2799,10455
54828894,3944,0,-0.36608407,0.99235445,-9.500413,-0.0085773645,0.010747936,-0.044282902,64.00277,156.9064,0.0047884034,1442826,-88,-430,107,10470
54930470,4000,0,-0.4906304,1.1815258,-9.689516,0.007464565,0.004595809,-0.04540942,63.98061,156.9064,0.0047884034,1442826,164,-175,2330,10462
55030494,4018,0,-0.03267856,0.20989926,-10.170294,0.008498698,-0.011609017,-0.040904984,64.00831,156.9064,0.0047884034,1442826,-486,-605,2153,10472
55134478,4008,0,0.1566262,-1.000691,-10.393339,-0.0045999405,0.0027162707,-0.03520287,64.01108,156.9064,0.0047884034,1442826,276,465,1124,10473
55234497,4027,0,-0.13360478,-0.7084522,-10.425108,0.0031603253,-0.011723704,-0.030372899,63.975067,156.9064,0.0047884034,1442826,-1277,209,1874,10460
55334476,4002,0,0.08451436,0.77240956,-9.605497,0.0029154322,0.009477207,-0.033928916,64.01108,156.9064,0.0047884034,1442826,1198,570,1251,10473
55438470,4000,0,-0.07013847,1.3267496,-9.577476,-0.006197775,0.0036016293,-0.03805913,64.02493,156.9064,0.0047884034,1442826,46,-356,212,10478
55542503,4033,0,0.028733235,-0.38719457,-9.941358,-0.004191897,0.0012146274,-0.049779225,64.04432,156.9064,0.0047884034,1442826,978,-332,2839,10485
55642471,3982,0,0.560034,-0.5793778,-9.973778,-0.002882839,0.007080404,-0.03481876,64.03878,156.9064,0.0047884034,1442826,1200,686,2722,10483
55746470,4000,0,-0.2617862,0.38762197,-9.64635,-0.001404295,0.008170012,-0.03673061,64.06648,156.9064,0.0047884034,1442826,-246,-573,1717,10493
55848094,4000,0,-0.40050587,1.2026799,-8.923556,-0.0066536125,0.0045149866,-0.033863723,64.03047,156.9064,0.0047884034,1442826,-681,-668,2078,10480
55948108,4014,0,0.5325842,1.295042,-9.118642,0.0029342927,0.008637057,-0.038721547,64.04986,156.9064,0.0047884034,1442826,17,672,3377,10487
56052094,3983,0,0.71961075,-0.237664,-9.850527,0.0008184805,0.0005370544,-0.022867542,64.06648,156.9064,0.0047884034,1442826,125,903,2632,10493
56152135,4041,0,-0.1852827,-1.1575956,-10.303411,0.0007664678,-0.011833692,-0.049874283,64.08033,156.9064,0.0047884034,1442826,466,-221,2007,10498
56252094,4001,0,-0.454066,-1.1641265,-10.114395,-0.0073773423,0.0010242504,-0.042884715,64.06371,156.9064,0.0047884034,1442826,-40,-767,1698,10492
56356094,3993,0,-0.47059345,0.4348129,-9.029674,0.005802804,0.013446802,-0.017529353,64.10526,156.9064,0.0047884034,1442826,-932,-191,4388,10507
56456094,4000,0,0.07498356,1.7275147,-9.4729185,-0.012139345,0.013977023,-0.05788893,64.132965,156.9064,0.0047884034,1442826,-22,501,1163,10517
56560094,4000,0,0.18796618,1.0007589,-9.52522,0.002562769,-0.00015791284,-0.04435039,64.07479,156.9064,0.0047884034,1442826,829,311,2784,10496
56660100,3987,0,0.08446803,-0.16360623,-10.586155,0.005333873,-0.008437635,-0.0506745,64.07202,156.9064,0.0047884034,1442826,616,-736,1091,10495
56761722,4029,0,0.19762957,-0.8778783,-9.989797,-0.011349071,-0.0002764503,-0.06459709,64.096954,156.9064,0.0047884034,1442826,-364,-66,2393,10504
56861722,3983,0,-0.50411445,-1.4080957,-10.569389,-0.004829915,-0.0048009995,-0.03710264,64.10249,156.9064,0.0047884034,1442826,-645,-52,177,10506
56965694,3960,0,-0.2213189,0.77931464,-9.468998,-0.0010060279,0.0018978261,-0.038566835,64.11357,156.9064,0.0047884034,1442826,724,255,1805,10510
57065740,4018,0,0.0025986484,1.1633587,-9.4964285,0.01022616,0.007011537,-0.031423748,64.12466,156.9064,0.0047884034,1442826,-625,-924,2077,10514
57165693,3971,0,0.33627012,1.6695486,-9.091398,-0.003738068,0.0006335045,-0.045772336,64.138504,156.9064,0.0047884034,1442826,-582,650,3234,10519
57269709,4016,0,0.75294495,-0.27220467,-10.037309,0.00406447,-0.010509422,-0.04271944,64.12188,156.9064,0.0047884034,1442826,-241,346,2353,10513
57369694,4001,0,-0.077637605,-0.881419,-10.307946,-0.007949935,-0.004217823,-0.043411043,64.15789,156.9064,0.0047884034,1442826,326,-37,1624,10526
57469693,4000,0,0.12045253,-1.178992,-9.791834,-0.00034303078,0.0018655482,-0.03625643,64.15789,156.9064,0.0047884034,1442826,359,821,3204,10526
57573693,3925,0,-0.3822525,0.9567384,-9.358761,0.0142665,0.011271095,-0.021409994,64.14958,156.9064,0.0047884034,1442826,-18,-553,3340,10523
57675314,4001,0,-0.25606453,1.3357013,-9.6940565,0.004304007,0.0007286341,-0.034768697,64.18282,156.9064,0.0047884034,1442826,-234,-1249,2163,10535
57775313,3993,0,0.77823454,1.3238583,-9.700438,0.009538708,-0.004658903,-0.033105426,64.174515,156.9064,0.0047884034,1442826,118,-184,1147,10532
57875320,4000,0,0.019272849,0.106527455,-9.985014,-0.009913825,-0.010672629,-0.044244166,64.18559,156.9064,0.0047884034,1442826,280,-774,741,10536
57979320,4006,0,0.27049565,-1.3074558,-9.767609,0.0016734041,0.0025200504,-0.007404888,64.174515,156.9064,0.0047884034,1442826,207,1199,3493,10532
58079320,3968,0,-0.4336099,-0.722098,-10.015098,-0.0111172125,0.0009183891,-0.04898164,64.19391,156.9064,0.0047884034,1442826,-141,85,2361,10539
58183325,4011,0,-0.048116866,0.86067176,-9.560228,-0.01442066,0.007416971,-0.05903514,64.15235,156.9064,0.0047884034,1442826,-505,101,-282,10524
58287320,3990,0,0.46263608,1.0630896,-9.428258,0.0055540614,-0.007347225,-0.039904464,64.174515,156.9064,0.0047884034,1442826,409,-181,2588,10532
58387326,3995,0,-0.046685398,0.20402496,-9.936444,-0.0069945673,0.0019042804,-0.04002974,64.19113,156.9064,0.0047884034,1442826,1308,120,2838,10538
58491314,3999,0,0.3775409,-1.4425349,-10.0167055,-0.0018383525,-0.0028522532,-0.029446522,64.174515,156.9064,0.0047884034,1442826,-171,207,506,10532
58592946,4040,0,-0.7305422,-0.37361655,-10.038976,-0.0033052468,0.00364036,-0.03073131,64.19945,156.9064,0.0047884034,1442826,-19,-514,2091,10541
58692924,3998,0,-0.07960277,0.42415723,-9.382569,0.004746863,0.0047999625,-0.03527441,64.22437,156.9064,0.0047884034,1442826,52,-19,1476,10550
58792894,3964,0,0.25253507,1.2950487,-9.266072,-0.00795112,0.0059183645,-0.033396542,64.2216,156.9064,0.0047884034,1442826,206,381,1750,10549
58896936,4042,0,0.8493829,0.67280084,-9.67771,-0.0043173614,-0.009549912,-0.0461479,64.254845,156.9064,0.0047884034,1442826,-59,630,1958,10561
58996923,4029,0,-0.07905514,-0.63133305,-9.836483,0.0019806782,-0.006542052,-0.041976385,64.19391,156.9064,0.0047884034,1442826,-120,-216,3792,10539
59100894,3983,0,-0.08517682,-1.2288779,-10.358652,-0.00919691,0.0048754755,-0.04687661,64.257614,156.9064,0.0047884034,1442826,-808,-46,1227,10562
59200894,4001,0,-0.13059357,-0.021572368,-9.548039,-7.1299626e-05,0.006744554,-0.039797246,64.27147,156.9064,0.0047884034,1442826,163,26,1669,10567
59304893,3999,0,-0.120456345,1.4220059,-9.401727,0.0056939134,0.008898367,-0.040962376,64.257614,156.9064,0.0047884034,1442826,204,-589,883,10562
59404911,4016,0,0.327328,1.4608198,-9.272169,-0.0045730835,0.0010877637,-0.03825288,64.254845,156.9064,0.0047884034,1442826,150,276,1732,10561
59506470,4000,0,0.528799,-0.07711681,-10.381529,0.0126252,-0.0022869706,-0.04901648,64.24377,156.9064,0.0047884034,1442826,1335,-140,1653,10557
59606470,3970,0,-0.1851821,-1.2476853,-10.310207,-0.010094261,-0.01266143,-0.05507098,64.26593,156.9064,0.0047884034,1442826,-927,-469,2026,10565
59706470,4000,0,-0.010226559,-1.4326841,-9.772796,-0.006402563,-0.008053848,-0.03649286,64.2687,156.9064,0.0047884034,1442826,-872,817,4411,10566
59810509,4039,0,0.028448008,0.11301499,-9.613659,-0.0053069554,0.004731863,-0.033612795,64.290855,156.9064,0.0047884034,1442826,-1217,639,2740,10574
59910470,4000,0,-0.05908325,1.1122249,-8.912603,0.0049666557,0.0071335216,-0.02924644,64.26038,156.9064,0.0047884034,1442826,351,-443,2109,10563
60010470,3995,0,0.020861067,1.7534236,-9.014707,-0.0038880284,0.0051986845,-0.045011,64.31302,156.9064,0.0047884034,1442826,73,-51,3208,10582
60114470,4000,0,0.17710617,-0.27190962,-10.214435,-0.006173428,-0.003498014,-0.03709587,64.30194,156.9064,0.0047884034,1442826,491,-458,816,10578
60214529,4059,0,0.18861602,-1.205046,-10.187421,-0.0073763393,-0.001861972,-0.039628252,64.3241,156.9064,0.0047884034,1442826,-196,461,2711,10586
60316111,4017,0,-0.23136325,-0.8657321,-10.145596,-0.0113517465,0.00908652,-0.063289985,64.36011,156.9064,0.0047884034,1442826,-962,570,2073,10599
60420095,3932,0,-0.3518286,0.8599434,-9.829879,-0.009170192,0.014961527,-0.033270873,64.329636,156.9064,0.0047884034,1442826,32,-893,-305,10588
60520113,4019,0,0.20999399,1.5271391,-9.147368,-0.0046175863,0.011033712,-0.023086514,64.31302,156.9064,0.0047884034,1442826,-371,288,2161,10582
60620093,4000,0,0.48009273,0.42943043,-9.419718,0.0014348347,-0.006373434,-0.02684651,64.3518,156.9064,0.0047884034,1442826,-188,522,3913,10596
60724094,4000,0,0.1787745,-1.2067204,-10.610186,-0.00644733,-0.006598941,-0.04848726,64.39058,156.9064,0.0047884034,1442826,-737,300,1770,10610
60824094,3970,0,0.5503795,-1.2376431,-10.41164,0.00058339,-0.0005390546,-0.023734506,64.36288,156.9064,0.0047884034,1442826,176,540,2432,10600
60928141,4047,0,-0.16267665,0.6909003,-9.528238,-0.0041117184,0.01046659,-0.032662403,64.34349,156.9064,0.0047884034,1442826,-331,673,2175,10593
61032094,4000,0,0.10629294,0.9670337,-9.495051,-0.0035063215,0.00018878281,-0.03104819,64.34626,156.9064,0.0047884034,1442826,-69,253,1702,10594
61132094,4000,0,0.7843152,0.11623957,-9.578953,0.008923154,-0.007872397,-0.028265797,64.326866,156.9064,0.0047884034,1442826,868,671,2879,10587
61232907,4014,0,-0.06678493,-0.6706308,-10.216691,0.00361982,-0.013062075,-0.038840424,64.38504,156.9064,0.0047884034,1442826,778,-609,1345,10608
61336906,4002,0,0.064849034,-0.7570034,-10.036517,0.0034278042,0.0021643147,-0.04028374,64.39058,156.9064,0.0047884034,1442826,257,-22,2507,10610
61436894,3954,0,-0.4981649,0.3996138,-9.633861,0.0068673072,0.010785124,-0.047244005,64.36011,156.9064,0.0047884034,1442826,-780,-426,1743,10599
61540903,4009,0,0.24309245,1.0972334,-9.32736,0.0068285624,-0.0008284061,-0.032969072,64.42382,156.9064,0.0047884034,1442826,444,609,4277,10622
61640923,4030,0,-0.13886109,1.1037196,-9.801677,0.001444745,-0.007035368,-0.034746643,64.39889,156.9064,0.0047884034,1442826,410,-496,1150,10613
61744908,4014,0,0.1254215,-1.0200812,-10.030174,0.0035882425,-0.0069567277,-0.02159,64.40997,156.9064,0.0047884034,1442826,227,-631,1449,10617
61848894,3993,0,-0.1413454,-0.37549657,-10.056759,0.0044687684,0.002297619,-0.049623173,64.36842,156.9064,0.0047884034,1442826,24,-577,462,10602
61952921,4028,0,0.5060601,1.2468908,-9.586254,0.0002530265,-0.0022332498,-0.022651967,64.42382,156.9064,0.0047884034,1442826,-1002,509,3137,10622
62052894,3969,0,0.45309424,1.3099148,-9.836414,0.011452617,-0.0012083394,-0.033894937,64.40997,156.9064,0.0047884034,1442826,746,73,2293,10617
62152916,4006,0,0.27177975,1.0828608,-10.096155,0.009459996,-0.005691472,-0.047057204,64.4072,156.9064,0.0047884034,1442826,777,4,3552,10616
62256895,4001,0,0.533896,-1.0302013,-10.287124,0.0006063727,-0.006933154,-0.03857809,64.41551,156.9064,0.0047884034,1442826,-227,170,383,10619
62356899,3999,0,0.031292424,-0.74355847,-10.450239,0.0004092644,-0.00075328053,-0.030610714,64.42936,156.9064,0.0047884034,1442826,-136,206,2794,10624
62458470,4000,0,-0.10398099,0.7394483,-9.776104,0.008236502,0.01565106,-0.029380241,64.46537,156.9064,0.0047884034,1442826,915,-481,121,10637
62558470,4000,0,0.12894592,1.0987676,-8.6161,0.0027377352,0.002671313,-0.022107359,64.42105,156.9064,0.0047884034,1442826,-389,-160,3832,10621
62662470,3986,0,-0.12724023,0.87165344,-9.983556,0.0024802138,-0.0059297313,-0.042859048,64.443214,156.9064,0.0047884034,1442826,337,-1150,1132,10629
62762470,3995,0,0.6519999,-0.4821386,-10.084387,-0.008328941,-0.012509018,-0.027790494,64.42936,156.9064,0.0047884034,1442826,-98,352,3302,10624
62866476,4006,0,-0.47740528,-1.2839564,-10.295539,-0.008114204,0.009639035,-0.05112006,64.45983,156.9064,0.0047884034,1442826,828,-727,1221,10635
62966476,4006,0,0.096223176,-0.7259723,-9.957134,-0.005381332,-0.008064013,-0.03820841,64.479225,156.9064,0.0047884034,1442826,-1449,301,2552,10642
63066470,4000,0,-0.28897676,0.51608413,-9.506833,0.008647084,0.005637058,-0.013055716,64.445984,156.9064,0.0047884034,1442826,-943,17,4026,10630
63170470,4000,0,-0.053540792,1.5477645,-9.150396,-0.00060644204,0.009289609,-0.042486615,64.49584,156.9064,0.0047884034,1442826,1086,93,2704,10648
63272144,4030,0,0.51023275,0.8098673,-9.914428,0.00056002405,-0.0039694617,-0.032837328,64.4903,156.9064,0.0047884034,1442826,-624,21,1461,10646
63376146,4032,0,0.52258533,-1.190495,-10.357599,0.0033264712,-0.0009809998,-0.025415003,64.515236,156.9064,0.0047884034,1442826,-1657,549,2186,10655
63476114,3989,0,-0.23619424,-0.90902907,-10.204593,0.007305552,0.004349857,-0.040113814,64.48753,156.9064,0.0047884034,1442826,605,80,3561,10645
63580114,4000,0,-0.25271592,0.71972716,-9.306578,0.011973545,0.010593807,-0.025142413,64.49584,156.9064,0.0047884034,1442826,-743,-472,2733,10648
63680151,4031,0,0.16690852,1.3992181,-8.703125,-0.002095242,0.0101825185,-0.0400671,64.518005,156.9064,0.0047884034,1442826,-419,911,3808,10656
63780114,3970,0,0.5730665,1.533473,-9.95842,0.008769069,-0.0011036403,-0.050952695,64.49584,156.9064,0.0047884034,1442826,477,303,1963,10648
63884114,3969,0,0.5022046,0.0063098245,-10.170617,0.0106317345,-0.011452087,-0.039998166,64.49861,156.9064,0.0047884034,1442826,-178,-115,2830,10649
63984114,3994,0,-0.096454136,-1.0248001,-10.274937,-0.005681498,-0.004526705,-0.043495778,64.49861,156.9064,0.0047884034,1442826,892,-680,2371,10649
64084126,4012,0,-0.21866366,-1.4847097,-10.3197365,6.6482695e-05,-0.0074002487,-0.0318145,64.518005,156.9064,0.0047884034,1442826,-779,42,2153,10656
64188125,4009,0,-0.3922332,0.90979046,-9.695566,0.0070581175,0.015871918,-0.042251498,64.50693,156.9064,0.0047884034,1442826,1414,-770,781,10652
64289694,3916,0,0.047476247,1.4397029,-9.114659,-0.0022772173,0.010312759,-0.015287302,64.518005,156.9064,0.0047884034,1442826,290,383,2939,10656
64393735,4041,0,0.8589496,0.52596635,-10.218568,0.0020595815,-0.010363608,-0.03180453,64.54294,156.9064,0.0047884034,1442826,191,-65,-496,10665
64493701,4007,0,-0.027730694,-0.6367813,-10.173725,-0.0064668944,-0.007292137,-0.02799103,64.554016,156.9064,0.0047884034,1442826,68,-423,1829,10669
64593694,4000,0,-0.1052183,-0.9065288,-10.137096,0.0064607654,2.7694972e-05,-0.031699553,64.54571,156.9064,0.0047884034,1442826,590,-97,2547,10666
64697693,3991,0,-0.2821225,0.36454767,-9.535331,0.014047853,0.011466755,-0.026384996,64.54294,156.9064,0.0047884034,1442826,-144,-118,3263,10665
64797715,4021,0,0.14107312,1.0799667,-9.164735,-0.004251059,0.008979421,-0.043829937,64.54571,156.9064,0.0047884034,1442826,-453,1164,2848,10666
64897705,4011,0,-0.025065716,1.530136,-9.60992,-0.0021714722,0.0032332146,-0.061249,64.54571,156.9064,0.0047884034,1442826,197,-721,-43,10666
65001728,4034,0,-0.11094629,-0.12677513,-9.573101,-0.00431546,-0.009515444,-0.04174957,64.57341,156.9064,0.0047884034,1442826,-534,-161,3967,10676
65099293,3994,0,-0.19662692,-0.21098898,-10.107622,0.008075731,0.0025440329,-0.023952186,64.55125,156.9064,0.0047884034,1442826,1378,-745,-1053,10668
65203300,4007,0,-0.1251182,-0.72133154,-9.102019,-0.011800574,0.0076880557,-0.04699272,64.559555,156.9064,0.0047884034,1442826,-408,800,3914,10671
65303293,3994,0,-0.17702885,0.12098376,-9.060767,0.008105066,0.009125372,-0.038514614,64.556786,156.9064,0.0047884034,1442826,276,-18,2729,10670
65407293,3963,0,-0.19549535,1.2854372,-8.781684,-0.0011946603,0.0032857768,-0.023882315,64.57895,156.9064,0.0047884034,1442826,-69,-905,1503,10678
65507293,4000,0,0.4303281,0.8009432,-9.429987,-0.0035096544,-0.0026116937,-0.044397373,64.61496,156.9064,0.0047884034,1442826,81,-6,-359,10691
65607329,4036,0,-0.36666122,0.04433831,-10.037198,-0.0066312556,-0.013311673,-0.059685063,64.601105,156.9064,0.0047884034,1442826,-241,-533,282,10686
65711293,3994,0,-0.31231555,-0.9575704,-9.796934,-0.012117323,0.0027223136,-0.038519382,64.58172,156.9064,0.0047884034,1442826,50,-848,443,10679
65811294,3964,0,0.04680971,-1.0000201,-9.213788,-0.0012157666,0.00034391508,-0.01751905,64.60664,156.9064,0.0047884034,1442826,-1100,1356,6144,10688
65911293,3961,0,-0.116040654,0.9625416,-10.0224495,0.004225223,0.012728938,-0.05292169,64.603874,156.9064,0.0047884034,1442826,508,-297,-1089,10687
66016893,3983,0,0.80432934,1.5032183,-9.002999,0.007868312,-0.005153452,-0.00806817,64.58726,156.9064,0.0047884034,1442826,888,31,3610,10681
66830470,3988,0,0.011045275,-1.568734,-10.231099,0.00086469034,-0.006409204,-0.03766867,64.675896,156.9064,0.0047884034,1442826,-1383,69,3095,10713
66930483,4007,0,-0.20913497,-0.25115827,-10.3552685,0.005973377,0.0056654834,-0.052117087,64.67313,156.9064,0.0047884034,1442826,-54,-512,1054,10712
67034476,4006,0,0.2974102,1.2098929,-9.344078,0.014091818,0.0041508847,-0.014579795,64.67867,156.9064,0.0047884034,1442826,66,224,3014,10714
67134470,4000,0,-0.442518,1.4119239,-9.833476,0.0069033154,0.0025146941,-0.033860017,64.66759,156.9064,0.0047884034,1442826,508,-871,51,10710
67234470,4000,0,-0.014628716,0.25281927,-10.131692,-0.007333535,0.00084553455,-0.043865167,64.69252,156.9064,0.0047884034,1442826,326,337,1803,10719
67338470,3960,0,0.31512895,-1.1362683,-10.036074,-0.0074945535,0.0058497656,-0.05062846,64.72853,156.9064,0.0047884034,1442826,-133,450,2738,10732
67438511,4041,0,-0.0011855965,-0.88543004,-9.716956,-0.0042882594,-0.0024912592,-0.028685864,64.68975,156.9064,0.0047884034,1442826,-1115,657,4511,10718
67542540,4070,0,-0.030971987,0.86776984,-9.437724,-0.005810279,0.00022552512,-0.039377574,64.70914,156.9064,0.0047884034,1442826,-1091,228,3224,10725
67642484,4014,0,0.25267866,1.2136774,-9.320443,0.0060200174,-0.0082735075,-0.034511745,64.69806,156.9064,0.0047884034,1442826,-456,241,3757,10721
67744122,4008,0,0.25964662,0.82642996,-10.29179,0.0066684876,-0.0025988026,-0.047715593,64.7036,156.9064,0.0047884034,1442826,969,-333,-534,10723
67844114,3997,0,0.29738402,-0.4262409,-10.085943,-0.0025137758,-0.010804916,-0.03687363,64.72022,156.9064,0.0047884034,1442826,791,-65,2795,10729
67948121,4007,0,-0.14133663,-0.7667681,-10.140669,0.00091818033,0.010973102,-0.048717134,64.711914,156.9064,0.0047884034,1442826,190,-494,699,10726
68048137,4023,0,-0.45327246,-0.35853744,-9.4046,-0.0026180006,0.0011303228,-0.03629076,64.72299,156.9064,0.0047884034,1442826,-218,-486,3411,10730
68148114,3970,0,0.11687136,0.94278145,-9.185751,-0.004596931,0.0068051787,-0.053140186,64.72299,156.9064,0.0047884034,1442826,-524,532,3203,10730
68252114,3969,0,-0.34964553,0.6798369,-9.923014,-0.010621009,0.0052721063,-0.048868187,64.73407,156.9064,0.0047884034,1442826,639,-558,779,10734
68352114,4000,0,0.36261347,-0.35745963,-10.306515,0.0023172284,-0.0033174003,-0.028770398,64.783936,156.9064,0.0047884034,1442826,333,212,2392,10752
68452116,4002,0,0.5490938,-0.84874225,-10.433743,-0.005493955,-0.0021894728,-0.03296432,64.781166,156.9064,0.0047884034,1442826,-120,386,2244,10751
68556117,3970,0,0.11804389,0.121526904,-9.55803,0.0139410375,0.008074846,-0.012968868,64.77008,156.9064,0.0047884034,1442826,209,-24,2232,10747
68657728,4001,0,0.45297924,0.8047345,-9.222726,-0.0009337226,-0.007075262,-0.024859237,64.747925,156.9064,0.0047884034,1442826,-411,714,2470,10739
68761734,4034,0,0.04863193,1.0221046,-9.868434,0.00071523566,0.003001345,-0.03699853,64.76731,156.9064,0.0047884034,1442826,-294,-46,2693,10746
68861772,4057,0,0.029742666,-0.05623723,-9.469394,0.004155321,-0.00203927,-0.036138885,64.76177,156.9064,0.0047884034,1442826,490,-494,3047,10744
68961723,4028,0,0.48966882,-0.6663946,-9.989689,0.00015226647,-0.005097541,-0.037612416,64.80609,156.9064,0.0047884034,1442826,1781,136,676,10760
69065694,3971,0,-0.110703,-0.40064225,-9.974482,-0.0026321202,0.013804513,-0.025091156,64.75623,156.9064,0.0047884034,1442826,-416,411,3295,10742
69169694,4000,0,0.43793043,0.84736043,-9.146759,0.0020081436,-0.001612681,-0.017169861,64.77562,156.9064,0.0047884034,1442826,411,693,2855,10749
69269735,4025,0,0.25053644,0.850492,-8.983624,-0.0068987375,-0.00027070436,-0.046628267,64.792244,156.9064,0.0047884034,1442826,240,456,2898,10755
69373700,3989,0,0.06969907,-0.6170227,-9.951032,0.007459765,-0.009663686,-0.036080927,64.79501,156.9064,0.0047884034,1442826,-137,65,3832,10756
69471323,3981,0,0.0011919247,-0.44709033,-10.647592,0.0015175028,-0.0032981567,-0.062199198,64.80609,156.9064,0.0047884034,1442826,1332,-334,198,10760
69575345,4052,0,-0.060056105,-0.49905768,-10.004911,-0.007682839,0.011308193,-0.06339154,64.786705,156.9064,0.0047884034,1442826,-44,238,841,10753
69675294,3998,0,-0.19279231,0.81124747,-9.346612,-0.011990449,0.01625654,-0.036262028,64.83379,156.9064,0.0047884034,1442826,-202,531,1678,10770
69775293,4000,0,0.030213164,1.481507,-9.394223,-0.005655935,0.011762266,-0.056061216,64.825485,156.9064,0.0047884034,1442826,220,-391,896,10767
69879281,3988,0,0.6835423,0.34595212,-9.543561,0.013839405,-0.004423924,-0.038274735,64.81995,156.9064,0.0047884034,1442826,1193,380,2993,10765
69983293,3956,0,-0.29514837,-1.3113235,-10.161651,-0.0064168703,0.0040441966,-0.04024128,64.84764,156.9064,0.0047884034,1442826,-805,-185,1666,10775
70083270,3928,0,-0.05876189,-0.2911468,-10.153697,0.001327245,0.011343745,-0.02765726,64.8421,156.9064,0.0047884034,1442826,-231,-71,2002,10773
70187332,4039,0,0.10961454,0.8978641,-9.595361,-0.0001590749,-0.00298619,-0.03445284,64.83379,156.9064,0.0047884034,1442826,-826,409,2141,10770
70292114,4821,0,0.29085153,0.44212887,-9.906839,0.006274621,4.712376e-06,-0.053620785,64.8421,156.9064,0.0047884034,1442826,393,-506,1353,10773
70392900,4006,0,0.39593256,-0.76697934,-9.369938,0.0023737,-0.0108476225,-0.03951005,64.828255,156.9064,0.0047884034,1442826,595,452,3780,10768
70496943,4038,0,-0.3975572,-0.8120645,-9.936776,0.002061953,0.0057778214,-0.019112416,64.85319,156.9064,0.0047884034,1442826,-147,-794,882,10777
70600894,3971,0,0.33112952,1.1002297,-9.323546,-0.00034712232,0.0050998144,-0.03430567,64.8421,156.9064,0.0047884034,1442826,550,335,171,10773
70700913,4019,0,0.06314301,0.8812248,-9.341288,-0.015013285,0.002350598,-0.04973086,64.872574,156.9064,0.0047884034,1442826,-27,646,2366,10784
70804900,3974,0,0.45782754,-0.20375784,-10.253269,0.008051245,-0.007865636,-0.061329972,64.85319,156.9064,0.0047884034,1442826,497,-38,934,10777
70904901,3998,0,0.47430143,-0.92700636,-10.504928,0.0011035887,-0.00029890906,-0.032838702,64.867035,156.9064,0.0047884034,1442826,187,362,199,10782
71004894,4000,0,-0.30828378,-0.7372096,-9.596573,-0.004737189,0.0121012805,-0.034503937,64.872574,156.9064,0.0047884034,1442826,402,465,3263,10784
71108905,4011,0,0.33323044,0.6509081,-9.339503,0.001685354,0.0018688072,-0.030873306,64.869804,156.9064,0.0047884034,1442826,-1026,413,3639,10783
71210480,4011,0,-0.07443317,1.070247,-9.935406,0.011524741,-0.001360809,-0.03529555,64.869804,156.9064,0.0047884034,1442826,-228,-629,1398,10783
71310471,4000,0,0.28082553,0.17948058,-9.673026,0.0009472311,-0.010131288,-0.03417477,64.867035,156.9064,0.0047884034,1442826,-232,447,2102,10782
71414470,4000,0,0.4989521,-0.55625594,-9.89018,-0.0018192015,-0.010067189,-0.047872312,64.89474,156.9064,0.0047884034,1442826,992,905,2889,10792
71518470,4000,0,0.4046044,0.1954635,-9.26497,-0.0044738683,-0.0048775794,-0.034881882,64.89197,156.9064,0.0047884034,1442826,420,435,2114,10791
71618470,3984,0,0.21923752,0.958949,-8.949084,-0.0037301327,0.0071676606,-0.03517671,64.900276,156.9064,0.0047884034,1442826,-544,-91,2115,10794
71718470,4000,0,0.3366871,0.713964,-8.957421,-0.0041626124,-0.0040554153,-0.038042925,64.87811,156.9064,0.0047884034,1442826,-969,86,2144,10786
71822496,4026,0,0.58072996,-0.30233154,-9.938662,-0.009125695,-0.006624017,-0.051385824,64.905815,156.9064,0.0047884034,1442826,383,636,2895,10796
71922470,4000,0,0.2429061,-0.62443185,-10.079047,0.0015541952,-0.00516345,-0.05262136,64.900276,156.9064,0.0047884034,1442826,114,224,2908,10794
72023293,4000,0,-0.020095434,0.05586153,-10.247671,0.0004687464,-0.004998102,-0.042170253,64.93075,156.9064,0.0047884034,1442826,1301,0,1281,10805
72124120,3994,0,0.24559526,0.13656123,-9.795722,-0.0050865347,-0.0032317599,-0.050465584,64.905815,156.9064,0.0047884034,1442826,-198,899,2625,10796
72228114,4000,0,0.03567794,0.2953289,-9.650505,-0.0027003165,-0.0034323563,-0.033856153,64.944595,156.9064,0.0047884034,1442826,-832,-210,2301,10810
72328127,4006,0,-0.050623767,0.23584498,-10.36963,0.0138256475,-0.00456222,-0.031031555,64.9723,156.9064,0.0047884034,1442826,-232,-1391,1135,10820
72428158,4044,0,0.10336762,-0.10132825,-10.282301,0.0058790324,0.008560966,-0.052446663,64.93906,156.9064,0.0047884034,1442826,169,-371,1978,10808
72532147,4033,0,0.40996796,-0.09269499,-9.960501,-0.007831376,-0.013562201,-0.041450728,64.93629,156.9064,0.0047884034,1442826,-746,1506,3164,10807
72632114,4000,0,0.08138967,0.4380202,-9.464672,-0.010044241,0.0024878602,-0.041026495,64.95568,156.9064,0.0047884034,1442826,868,404,1656,10814
72736114,4000,0,0.1581994,0.420906,-9.624288,0.00882726,0.0005495135,-0.03408974,64.93906,156.9064,0.0047884034,1442826,194,-613,2429,10808
72836116,3978,0,0.15997413,-0.14612031,-9.709385,0.004559204,0.009642964,-0.05559347,64.947365,156.9064,0.0047884034,1442826,609,-178,2878,10811
72937696,3975,0,0.5055907,-0.5143103,-9.283111,0.012453941,0.0023272713,-0.034062847,64.99169,156.9064,0.0047884034,1442826,31,230,2511,10827
73041722,4029,0,0.21308203,0.36493376,-9.144726,0.00016785227,-0.011680902,-0.028423699,64.980606,156.9064,0.0047884034,1442826,-201,196,2086,10823
73141751,4055,0,0.42189637,0.44610292,-9.7701645,-0.0028275696,-0.0074688187,-0.034139395,64.96122,156.9064,0.0047884034,1442826,42,589,1180,10816
73241723,3999,0,-0.14289616,0.28382623,-9.31978,-0.018718878,-0.005061387,-0.06121599,64.96953,156.9064,0.0047884034,1442826,-460,-402,2471,10819
