timestamp,integral_dt,error_count,x,y,z,x_integral,y_integral,z_integral,temperature,range_m_s2,scaling,device_id,x_raw,y_raw,z_raw,temperature_raw
49602210,4006,0,-0.18860164,0.20959046,-9.828614,-0.00042823423,0.005313915,-0.040264077,54.808865,156.9064,0.0047884034,1442826,-293,-2,2047,7151
49702203,3979,0,0.50124437,-0.5122688,-9.581732,0.001193222,0.0005503481,-0.03846053,54.855957,156.9064,0.0047884034,1442826,-132,20,2107,7168
49806206,3986,0,-0.14390506,0.74663955,-9.930907,0.00037304714,0.00829537,-0.03975267,54.844875,156.9064,0.0047884034,1442826,-56,15,2060,7164
49906203,4000,0,-0.0017253743,-0.34448206,-9.900847,0.0015585708,-0.008668544,-0.044049695,54.861496,156.9064,0.0047884034,1442826,269,-83,2191,7170
50006203,4000,0,-0.107382186,2.4434981,-9.450486,0.0024278997,0.008785178,-0.041142724,54.872574,156.9064,0.0047884034,1442826,-107,50,2296,7174
50110241,4038,0,-0.13036405,1.2798837,-9.546356,0.0027818764,0.021023404,-0.043110877,54.880886,156.9064,0.0047884034,1442826,-776,-163,1970,7177
50210203,3978,0,-0.507397,-1.3547201,-9.676547,0.002392395,0.011887978,-0.038572416,54.880886,156.9064,0.0047884034,1442826,-1267,-333,1957,7177
50314227,4017,0,-0.011941695,0.017773964,-9.865902,0.005665227,0.015757555,-0.042097826,54.897507,156.9064,0.0047884034,1442826,-674,-218,2041,7183
50414222,4019,0,0.09274393,0.32930577,-10.02153,0.0036655804,0.012219047,-0.04105795,54.889194,156.9064,0.0047884034,1442826,-776,-53,2250,7180
50514203,3996,0,0.43691242,1.1566991,-10.052271,0.0017137686,0.010641118,-0.042534605,54.886425,156.9064,0.0047884034,1442826,-131,73,2108,7179
50618237,4034,0,0.33628815,0.7946387,-9.678315,-0.00094105455,-0.005090886,-0.03856749,54.933517,156.9064,0.0047884034,1442826,649,255,2276,7196
50719839,4026,0,-0.5077581,-0.49045548,-9.96692,-0.006475859,-0.0048027923,-0.04366181,54.90859,156.9064,0.0047884034,1442826,248,212,2129,7187
50819803,4000,0,0.6807927,1.0514337,-9.576286,0.005808083,0.006292262,-0.038743835,54.9446,156.9064,0.0047884034,1442826,-146,-286,2457,7200
50919849,4046,0,-1.1240457,-0.3511957,-10.140491,0.0040626423,0.010648066,-0.037026018,54.916897,156.9064,0.0047884034,1442826,-480,-559,1937,7190
51023852,4009,0,-1.1457818,-0.21373074,-10.216737,0.007677944,0.005447914,-0.04100799,54.933517,156.9064,0.0047884034,1442826,-163,-712,1723,7196
51123803,4000,0,-0.110973686,0.28590077,-9.724371,0.014753998,0.019245595,-0.030676425,54.9446,156.9064,0.0047884034,1442826,-1058,-195,1993,7200
51227820,3993,0,0.73078346,-0.010192955,-10.136834,-0.018572405,0.010886179,-0.031027038,54.955677,156.9064,0.0047884034,1442826,16,1457,2369,7204
51327841,4038,0,0.59408337,0.77222157,-9.341037,-0.018037496,-0.0036667336,-0.03772659,54.98892,156.9064,0.0047884034,1442826,430,1354,2602,7216
51427803,3948,0,-0.83450943,-0.31723946,-9.639766,-0.009297543,-0.009493962,-0.037431728,55.011078,156.9064,0.0047884034,1442826,-1260,-642,1396,7224
51531817,4014,0,0.7124055,0.16162011,-10.585866,-0.013334325,-0.0047413176,-0.06240302,55.02216,156.9064,0.0047884034,1442826,-761,1423,1419,7228
51631803,3994,0,0.61413443,0.6347967,-9.055471,0.0059448727,-0.014068678,-0.019756451,55.00554,156.9064,0.0047884034,1442826,135,68,2405,7222
51731826,3987,0,0.44630358,-0.33031946,-9.413667,-0.001337732,-0.0067006154,-0.037519917,55.03047,156.9064,0.0047884034,1442826,-438,692,2847,7231
51835803,3963,0,-0.5052084,0.9546745,-10.340593,0.004393832,0.004197815,-0.0414792,55.0277,156.9064,0.0047884034,1442826,689,-554,1548,7230
51935820,4017,0,0.3818522,0.60151523,-9.642152,-0.0015309341,0.0007356317,-0.03792614,55.03878,156.9064,0.0047884034,1442826,223,770,2842,7234
52039820,4017,0,0.2947591,-0.25056544,-9.589784,-0.00746038,-0.002555152,-0.03623913,55.085873,156.9064,0.0047884034,1442826,-435,891,2088,7251
52139803,4000,0,0.020407885,0.15196384,-10.391497,-0.00020305603,-0.0054805027,-0.037772555,55.04432,156.9064,0.0047884034,1442826,-694,21,2124,7236
52247803,4000,0,0.29568285,-0.3744339,-11.686062,0.0020939135,-0.0018809536,-0.051065363,55.085873,156.9064,0.0047884034,1442826,-461,-392,1598,7251
52351804,3987,0,-0.056795668,-0.44493037,-11.273737,-0.004064025,-0.0036010481,-0.04447563,55.080334,156.9064,0.0047884034,1442826,-398,220,1672,7249
52449404,4001,0,0.25088248,-0.08497058,-10.102808,-0.0048155915,0.0028582595,-0.02337755,55.102493,156.9064,0.0047884034,1442826,197,82,1284,7257
52553403,4000,0,-0.035525464,1.5566983,-10.282861,0.010085131,-0.0029027266,-0.047057517,55.124653,156.9064,0.0047884034,1442826,484,-264,2007,7265
52653403,4000,0,0.5160372,0.2573673,-10.117111,0.009417582,-0.0070174127,-0.040837787,55.127422,156.9064,0.0047884034,1442826,126,-305,2100,7266
52757404,4001,0,0.10249141,-0.86910164,-9.680399,-0.008830192,0.0031752575,-0.031396765,55.141273,156.9064,0.0047884034,1442826,-342,1210,3529,7271
52857448,4021,0,0.016146448,0.057493996,-9.880262,-0.006763207,0.0075039025,-0.048484344,55.119114,156.9064,0.0047884034,1442826,-672,629,3770,7263
52957444,4040,0,-0.5072639,1.0804313,-9.144127,-0.0055155437,0.0124583645,-0.061702795,55.105263,156.9064,0.0047884034,1442826,-722,-654,1382,7258
53061436,4033,0,0.043093838,0.6820141,-8.639157,0.011269307,-0.00061483344,-0.03339911,55.168976,156.9064,0.0047884034,1442826,867,-38,2782,7281
53161416,4013,0,0.12661037,-0.37345675,-9.623372,-0.006598931,0.0005997801,-0.06110452,55.171745,156.9064,0.0047884034,1442826,663,-496,1265,7282
53261404,4001,0,-0.08632156,-0.5957407,-10.812452,-0.004735039,0.0019338652,-0.055675447,55.157894,156.9064,0.0047884034,1442826,177,-84,889,7277
53365406,4003,0,-0.5570568,0.6971255,-9.993703,0.008852292,0.001943814,-0.033909306,55.188366,156.9064,0.0047884034,1442826,-587,-179,1819,7288
53465404,3959,0,0.014238573,1.655258,-9.241061,0.0035590078,0.006183019,-0.05967164,55.182823,156.9064,0.0047884034,1442826,779,-351,1653,7286
53569404,3996,0,0.22376846,-0.10340412,-9.924418,-0.00057412003,-0.010026319,-0.036870297,55.221607,156.9064,0.0047884034,1442826,-438,444,2001,7300
53669403,3999,0,0.40831235,-0.8741403,-10.131624,-0.0027555304,4.127086e-05,-0.04075403,55.177284,156.9064,0.0047884034,1442826,-528,425,2128,7284
53769404,3956,0,-0.13243613,-0.34174716,-9.815656,-0.00095067883,0.0027412707,-0.04393288,55.204987,156.9064,0.0047884034,1442826,-872,674,2530,7294
53873448,4045,0,-0.05849193,1.751394,-9.915681,-0.0019878312,0.010920961,-0.042002182,55.240997,156.9064,0.0047884034,1442826,79,-501,1355,7307
53973404,4000,0,0.35117957,1.0134808,-9.956523,0.007904477,-0.008321108,-0.04362178,55.265926,156.9064,0.0047884034,1442826,524,-324,2289,7316
54075040,4037,0,0.18808676,-0.10961435,-10.73557,-0.0050178543,-0.00097503664,-0.049734317,55.246536,156.9064,0.0047884034,1442826,-343,-380,2053,7309
54175004,4001,0,0.3221511,-0.20999223,-11.095855,0.0031580173,-0.005922824,-0.029283864,55.227146,156.9064,0.0047884034,1442826,107,37,2095,7302
54279015,4012,0,-0.6787803,1.179985,-10.252698,-0.0018972924,0.013796018,-0.04746596,55.28809,156.9064,0.0047884034,1442826,685,-591,1969,7324
54379003,3989,0,0.14269981,1.5403965,-10.321468,0.009264223,-0.0021666354,-0.03960406,55.285316,156.9064,0.0047884034,1442826,713,-189,2747,7323
54483040,3992,0,0.34816912,-0.04420179,-10.032087,-0.0012476211,0.0059625646,-0.048952863,55.277008,156.9064,0.0047884034,1442826,143,398,3769,7320
54583003,3993,0,0.07908327,-0.44735143,-11.041869,5.928974e-05,-0.0017431433,-0.050171986,55.301937,156.9064,0.0047884034,1442826,936,-327,919,7329
54683003,4000,0,-0.079501085,-0.30436763,-10.734497,0.00031685934,-0.0044774236,-0.023252456,55.31025,156.9064,0.0047884034,1442826,-515,296,2006,7332
54787042,4039,0,0.026176814,1.6216903,-9.617039,0.007123856,0.0046271607,-0.04321815,55.34072,156.9064,0.0047884034,1442826,647,-294,1481,7343
54887003,3961,0,0.4902936,0.8114622,-9.506406,0.0034557856,-0.0079397205,-0.036342602,55.3241,156.9064,0.0047884034,1442826,858,310,2551,7337
54987044,4041,0,0.38077414,-0.03842449,-9.876668,-0.0021368521,0.003862246,-0.05059464,55.32687,156.9064,0.0047884034,1442826,563,348,1808,7338
55091037,4034,0,0.042222776,-0.032921195,-10.13057,0.0020790766,0.00026973535,-0.026840221,55.35457,156.9064,0.0047884034,1442826,388,-280,1718,7348
55191010,4006,0,-0.6752784,0.96942145,-9.7462015,0.006838078,0.0036098885,-0.0399595,55.34349,156.9064,0.0047884034,1442826,-245,-621,2312,7344
55295004,4000,0,0.5470205,1.1825645,-9.6528425,0.012155186,-0.0090759,-0.03536559,55.36842,156.9064,0.0047884034,1442826,214,139,1120,7353
55395004,4000,0,0.30039212,0.0085350415,-10.295563,0.0030192458,-0.012658371,-0.040481992,55.35734,156.9064,0.0047884034,1442826,242,-577,1186,7349
55495024,3985,0,0.16286652,-0.8041684,-10.425903,0.0026587285,-0.0071982695,-0.036434036,55.390583,156.9064,0.0047884034,1442826,-833,181,2100,7361
55599014,3985,0,-0.14162697,0.73374575,-9.042526,0.01160057,0.0046665594,-0.020048954,55.40166,156.9064,0.0047884034,1442826,-373,-21,4034,7365
55700603,4000,0,-0.27891114,1.4833567,-9.422867,-0.00022473387,0.006751356,-0.059618942,55.415512,156.9064,0.0047884034,1442826,-6,-270,1679,7370
55800604,3959,0,0.4634161,0.8768479,-9.240311,-0.008485778,-0.0033768534,-0.06080994,55.4072,156.9064,0.0047884034,1442826,-25,986,2958,7367
55900604,3994,0,0.22668847,-0.30162734,-10.420367,0.009749118,-0.0053423364,-0.03841522,55.415512,156.9064,0.0047884034,1442826,505,28,513,7370
56004652,4037,0,-0.46313673,-0.37185,-10.064963,0.01041466,0.0039816615,-0.038695257,55.445984,156.9064,0.0047884034,1442826,-152,86,2804,7381
56104603,3974,0,-0.28134465,0.6943841,-9.777194,-0.008722794,0.011127286,-0.05494979,55.451523,156.9064,0.0047884034,1442826,-1004,525,2278,7383
56208644,4041,0,0.13117373,1.2157131,-9.001206,-0.003543664,-0.0013124456,-0.050421357,55.484764,156.9064,0.0047884034,1442826,303,203,4409,7395
56308603,4000,0,0.82934666,-0.28671733,-9.624169,0.0014694919,-0.017942484,-0.042400464,55.451523,156.9064,0.0047884034,1442826,2,120,2952,7383
56408603,3999,0,0.09536046,-0.84723943,-10.74616,-0.00019217201,-0.0076802056,-0.036326304,55.484764,156.9064,0.0047884034,1442826,699,-435,732,7395
56512604,4001,0,-0.30961767,0.5045972,-9.978883,0.005734491,0.012834655,-0.050927255,55.501385,156.9064,0.0047884034,1442826,491,-673,331,7401
56612609,4005,0,-0.025598973,1.4556744,-9.270348,-0.009404344,0.013136488,-0.045001667,55.484764,156.9064,0.0047884034,1442826,226,224,2031,7395
56716604,3994,0,0.2870357,0.6122638,-8.922136,-0.00713646,0.00031783758,-0.054180123,55.520775,156.9064,0.0047884034,1442826,-326,823,2955,7408
56816607,4004,0,0.86751354,-0.38779783,-9.852703,0.005506079,-0.0060391435,-0.040704444,55.479225,156.9064,0.0047884034,1442826,642,200,847,7393
56916603,4000,0,-0.43423167,-0.36669907,-8.2646885,-0.009544283,0.001408291,-0.04375253,55.509693,156.9064,0.0047884034,1442826,-1514,588,2680,7404
57016603,4000,0,-0.8064815,0.9265299,-7.976506,-0.0075264587,0.0045192055,-0.042753898,55.540165,156.9064,0.0047884034,1442826,307,-1566,654,7415
57120664,4060,0,-0.25237033,0.4963477,-7.872323,0.020663863,0.00015793438,-0.018222434,55.534626,156.9064,0.0047884034,1442826,90,-690,93,7413
57220603,4000,0,0.35271484,-0.19995846,-8.984373,0.009898845,-0.0083991885,-0.024911813,55.565098,156.9064,0.0047884034,1442826,825,-436,957,7424
57322263,4060,0,-0.5159279,-0.57494766,-9.774021,6.670435e-05,-0.0010480771,-0.03911087,55.58172,156.9064,0.0047884034,1442826,-992,-665,1377,7430
57426247,4044,0,-0.11285754,1.0711769,-9.516638,-0.00090502424,0.010415967,-0.056612503,55.578945,156.9064,0.0047884034,1442826,-1111,115,550,7429
57526204,4001,0,-0.4638504,1.786972,-9.752977,-0.005171337,0.0023663095,-0.04258199,55.58172,156.9064,0.0047884034,1442826,-557,-938,553,7430
57630203,3999,0,0.42474335,0.1727804,-10.099078,0.0097042825,-0.00881559,-0.020402871,55.62327,156.9064,0.0047884034,1442826,535,-1046,731,7445
57734203,3994,0,0.14590816,-1.2693132,-10.597708,-0.001962719,-0.008272111,-0.033539847,55.578945,156.9064,0.0047884034,1442826,43,395,3179,7429
57834204,3978,0,0.0149014965,-0.11211275,-10.72259,-0.002957711,0.0070821764,-0.044571057,55.59834,156.9064,0.0047884034,1442826,-600,739,1411,7436
57934203,3983,0,-0.16961305,1.1242847,-9.306967,0.0016432004,0.001051056,-0.019638844,55.631577,156.9064,0.0047884034,1442826,-694,1047,4713,7448
58038203,4000,0,0.38062137,1.1657375,-9.952918,-0.00034844864,0.0049963836,-0.06259825,55.631577,156.9064,0.0047884034,1442826,315,191,2707,7448
58142203,3994,0,0.18998174,-0.77039,-11.426453,-0.006705084,-0.00042748824,-0.051000316,55.68144,156.9064,0.0047884034,1442826,706,-266,-399,7466
58242203,4000,0,-0.47033083,-0.5770427,-10.501361,-0.007729956,0.0025617122,-0.03863254,55.664818,156.9064,0.0047884034,1442826,-384,-657,2386,7460
58346203,4000,0,-0.41343877,1.0710003,-10.406966,0.00048265315,0.010587286,-0.039474927,55.664818,156.9064,0.0047884034,1442826,243,-617,244,7460
58446203,4000,0,-0.15932736,1.286732,-9.692952,-0.0036834935,0.0020849635,-0.034732535,55.68144,156.9064,0.0047884034,1442826,-319,-704,2850,7466
58546203,4000,0,0.1695307,0.7830945,-9.894853,-0.0013717734,-0.0011727968,-0.05033452,55.69806,156.9064,0.0047884034,1442826,-40,424,2153,7472
58646203,4000,0,0.5409431,-0.41762516,-10.420502,-0.005396806,-0.0048184255,-0.047242165,55.70914,156.9064,0.0047884034,1442826,316,247,2349,7476
58750263,4060,0,-0.4989972,-0.37122333,-10.438178,-0.008048862,0.015986139,-0.05642241,55.68144,156.9064,0.0047884034,1442826,536,-357,2185,7466
58854237,4034,0,0.06786596,1.5704632,-9.395628,0.01101589,0.008443596,-0.01942739,55.7313,156.9064,0.0047884034,1442826,325,18,3508,7484
58955811,3971,0,0.27534038,1.2791225,-9.7229185,0.00630444,-0.010672697,-0.026532402,55.73407,156.9064,0.0047884034,1442826,728,-428,1377,7485
59055854,4050,0,0.60771835,-0.39671126,-9.891321,0.009473809,-0.012469455,-0.023013461,55.73407,156.9064,0.0047884034,1442826,-107,208,2393,7485
59155812,3994,0,0.64732784,-0.92696035,-10.658786,-0.0019102602,-0.0039105993,-0.038945645,55.770084,156.9064,0.0047884034,1442826,326,34,-427,7498
59259810,4007,0,-0.40873802,0.13060653,-8.998593,-0.0069886562,0.0033262945,-0.047327783,55.76454,156.9064,0.0047884034,1442826,-1397,195,4167,7496
59359803,4000,0,-0.04866915,1.305482,-9.182642,-0.00834089,-0.0014596176,-0.052350495,55.756233,156.9064,0.0047884034,1442826,-492,340,3217,7493
59459818,3975,0,0.4881075,0.5013139,-9.53323,-0.0025019338,-0.0045648823,-0.039022185,55.74792,156.9064,0.0047884034,1442826,-182,314,2235,7490
59563803,3988,0,-0.033263322,-0.91251296,-10.275591,-0.0022311583,0.0008899497,-0.046167664,55.789474,156.9064,0.0047884034,1442826,335,81,3609,7505
59663803,4000,0,-0.5682818,-0.26844993,-10.525825,0.0012956138,0.011984824,-0.028545633,55.817173,156.9064,0.0047884034,1442826,11,-547,2045,7515
59767817,4014,0,0.055987254,1.2842366,-9.306371,0.004901021,-0.0038482356,-0.039612506,55.825485,156.9064,0.0047884034,1442826,359,27,2314,7518
59867803,4000,0,-0.062856466,1.2825212,-10.073167,0.011482129,0.0011983744,-0.030350335,55.808865,156.9064,0.0047884034,1442826,1196,62,1248,7512
59967810,3962,0,-0.13106991,0.26557663,-10.649974,0.0069683804,-0.0074608014,-0.039685756,55.825485,156.9064,0.0047884034,1442826,803,-219,1025,7518
60071803,4000,0,-0.11669605,-1.2230814,-10.544573,0.002895488,-0.0065911403,-0.050197806,55.869804,156.9064,0.0047884034,1442826,-102,-196,1022,7534
60171827,4024,0,-0.32659453,0.35816675,-10.128026,0.0054238923,0.00773657,-0.033029232,55.828255,156.9064,0.0047884034,1442826,374,-569,1714,7519
60271808,4005,0,-0.6806279,1.2601181,-9.712614,-0.00047583698,0.018514007,-0.03559159,55.850414,156.9064,0.0047884034,1442826,44,-252,1417,7527
60375818,4014,0,0.07590633,0.9679653,-10.263678,0.003564408,-0.006301068,-0.050088774,55.883656,156.9064,0.0047884034,1442826,600,-814,394,7539
60476603,4000,0,0.14617594,-0.47861055,-10.252433,-0.003425319,-0.0046874695,-0.024827458,55.886425,156.9064,0.0047884034,1442826,710,-500,723,7540
60577410,4007,0,0.047630675,-1.130573,-10.149929,-0.0047795144,0.0029099828,-0.040037747,55.889194,156.9064,0.0047884034,1442826,-614,528,2951,7541
60677403,4000,0,-0.008487277,-0.8120651,-10.223403,0.007596012,-0.005341946,-0.022493808,55.92798,156.9064,0.0047884034,1442826,-734,521,3718,7555
60781442,4039,0,0.31228605,1.6450951,-8.935537,-0.0021895173,0.0036456473,-0.027364349,55.936287,156.9064,0.0047884034,1442826,-837,102,2097,7558
61393418,4015,0,0.44037345,0.10315737,-9.7016,-0.002363811,0.002951512,-0.037910335,55.98061,156.9064,0.0047884034,1442826,782,101,1634,7574
61497403,3999,0,0.2692972,-0.7491193,-10.516645,0.0015650555,-0.0061667166,-0.03207992,55.98061,156.9064,0.0047884034,1442826,-2,-98,932,7574
61601440,4037,0,-0.5396971,1.0631915,-9.782125,0.0011313222,0.010505428,-0.039729424,56.00831,156.9064,0.0047884034,1442826,30,-625,1667,7584
61701416,4013,0,0.44896966,1.3441973,-8.928849,0.008538984,-0.0025204215,-0.033041395,55.99723,156.9064,0.0047884034,1442826,286,239,2622,7580
61801410,4007,0,0.00433263,0.24814697,-9.994461,-0.004430386,-0.015400494,-0.04755997,56.03047,156.9064,0.0047884034,1442826,-688,-31,1702,7592
61905403,3967,0,0.48748153,-0.9151358,-10.499354,0.002631873,-0.006817792,-0.038632307,56.00277,156.9064,0.0047884034,1442826,-526,439,931,7582
62005405,4002,0,-0.028327439,-0.45609498,-9.601019,-0.0034831052,0.008031921,-0.04234559,56.03601,156.9064,0.0047884034,1442826,-816,-259,3238,7594
62107003,4000,0,-0.22602397,0.43304875,-9.850296,0.0014016578,0.005623009,-0.025066294,56.03878,156.9064,0.0047884034,1442826,-184,38,1659,7595
62207003,4000,0,-0.017999275,1.3058525,-9.107603,0.005248372,-0.006601142,-0.02748667,56.07756,156.9064,0.0047884034,1442826,1094,497,3679,7609
62311046,4043,0,0.2758909,-0.0719254,-10.344179,0.0067281034,-0.005218994,-0.028612364,56.05817,156.9064,0.0047884034,1442826,1550,232,1058,7602
62411003,3985,0,0.11328655,-0.87608254,-9.499306,-0.0026024373,0.0006521547,-0.034669116,56.099724,156.9064,0.0047884034,1442826,474,174,3035,7617
62515010,4007,0,-0.15645786,0.7447139,-9.753622,-0.0013131076,0.01610018,-0.032995075,56.132965,156.9064,0.0047884034,1442826,-186,-145,1253,7629
62615009,4006,0,0.450317,1.3824741,-9.376566,0.0003328697,-4.7184527e-05,-0.02303955,56.102493,156.9064,0.0047884034,1442826,382,272,1005,7618
62715040,4037,0,0.30244797,0.97775483,-9.736937,0.0020716388,0.00012538722,-0.05845902,56.105263,156.9064,0.0047884034,1442826,550,-223,2346,7619
62819006,4002,0,0.3805034,-0.2753386,-10.128732,0.00012446486,0.0023851977,-0.033450056,56.141273,156.9064,0.0047884034,1442826,201,355,3027,7632
62919008,4005,0,0.29916957,0.058344968,-9.256495,-0.0028210697,-0.006911845,-0.032695577,56.160664,156.9064,0.0047884034,1442826,-1279,97,1937,7639
63019007,4004,0,-0.16379306,1.2620908,-8.778572,-0.0018532742,0.011394488,-0.030514987,56.157894,156.9064,0.0047884034,1442826,-832,88,4219,7638
63123034,4031,0,0.574646,0.21620868,-9.488831,0.0025198855,-0.00021004624,-0.031501815,56.152355,156.9064,0.0047884034,1442826,559,262,3280,7636
63223010,3969,0,0.6803476,-0.50384945,-10.118997,0.002494183,-0.0061663184,-0.04236573,56.196674,156.9064,0.0047884034,1442826,337,215,3096,7652
63327020,3979,0,0.0767894,0.13588172,-10.553003,0.005825669,0.010004935,-0.031050155,56.196674,156.9064,0.0047884034,1442826,277,-625,306,7652
63427003,3996,0,0.35335696,0.718354,-8.920471,0.0022002726,0.0052803517,-0.03250385,56.216064,156.9064,0.0047884034,1442826,-1481,452,3743,7659
63527003,4000,0,-0.111384235,1.6013881,-9.883664,0.005408881,0.0047395043,-0.046947204,56.177284,156.9064,0.0047884034,1442826,1003,-498,1206,7645
63628603,3991,0,0.44466394,0.1955723,-9.675521,0.0015876564,-0.004800436,-0.03567815,56.216064,156.9064,0.0047884034,1442826,-515,448,1504,7659
63732632,4029,0,0.33270687,-1.0016114,-9.851508,-0.0021400526,-0.00904601,-0.04589925,56.218838,156.9064,0.0047884034,1442826,-818,553,2865,7660
63832633,4030,0,-0.14686124,-0.30041954,-9.834637,-0.0055233985,0.017049827,-0.056476504,56.216064,156.9064,0.0047884034,1442826,-662,-598,2149,7659
63932603,3999,0,0.069691814,0.7907839,-9.658024,-0.005126102,-0.00074490195,-0.0445483,56.246536,156.9064,0.0047884034,1442826,-234,390,1757,7670
64036637,4028,0,-0.027488444,0.17220335,-9.576992,0.00077971595,-0.010582057,-0.029146984,56.263157,156.9064,0.0047884034,1442826,536,-547,1871,7676
64140622,4019,0,0.39662063,-0.86110324,-9.744615,-0.0029727162,-0.009114804,-0.039256483,56.27147,156.9064,0.0047884034,1442826,-588,148,3294,7679
64240604,3978,0,0.115142755,-0.008076216,-10.339997,0.003279753,0.0046472168,-0.048220262,56.265926,156.9064,0.0047884034,1442826,555,217,827,7677
64344649,4046,0,0.25554135,0.4140349,-9.687921,0.0038725282,-0.012844289,-0.021770988,56.28809,156.9064,0.0047884034,1442826,-708,414,2307,7685
64448629,4025,0,-0.027591439,-0.058902595,-9.832676,-0.0009467602,0.0041492223,-0.04328072,56.265926,156.9064,0.0047884034,1442826,9,-1262,1007,7677
64552610,4006,0,0.31903687,-0.21814921,-9.99003,-0.00029760215,-0.008916707,-0.031554945,56.29086,156.9064,0.0047884034,1442826,655,784,2469,7686
64652603,3989,0,0.24886988,0.53737783,-9.569656,-0.003466966,-0.0063829026,-0.027031222,56.30748,156.9064,0.0047884034,1442826,-451,724,2817,7692
64756610,4006,0,-0.002259901,0.5325313,-9.533929,0.0072803795,-0.0021693865,-0.021553934,56.30471,156.9064,0.0047884034,1442826,-669,-259,2621,7691
64856603,4000,0,1.1125395,0.3340637,-10.015345,0.012168125,0.0011440315,-0.043957483,56.35457,156.9064,0.0047884034,1442826,2244,891,1720,7709
64956624,3983,0,-0.1127706,-0.24317092,-9.949853,0.005018754,0.004463258,-0.034284316,56.3241,156.9064,0.0047884034,1442826,1284,387,2094,7698
65060604,4000,0,-0.34082925,0.7546658,-9.950598,-0.008951158,0.018322824,-0.05794131,56.34626,156.9064,0.0047884034,1442826,-781,-1064,1770,7706
65158204,3990,0,0.44289905,0.1274103,-9.279757,-0.000486037,-0.009175615,-0.028026175,56.36011,156.9064,0.0047884034,1442826,-1101,238,2189,7711
65262204,4001,0,0.65295994,0.48493588,-9.758424,0.0061494485,0.001847473,-0.050035927,56.337948,156.9064,0.0047884034,1442826,1429,446,3186,7703
65362225,3998,0,0.37249634,-0.67716396,-10.296576,-0.0011759452,0.0068612862,-0.07301844,56.36288,156.9064,0.0047884034,1442826,-1207,67,2052,7712
65462227,4023,0,0.13184316,-0.30907995,-9.455978,-0.0019888247,0.0105350325,-0.052023403,56.36011,156.9064,0.0047884034,1442826,-31,-205,4286,7711
65566216,3988,0,0.22320585,1.0090014,-10.011784,0.0062688245,-0.0052837594,-0.054546468,56.39058,156.9064,0.0047884034,1442826,-303,326,1064,7722
65666204,3994,0,0.13861138,1.4077518,-9.232567,-0.0016645547,0.01273011,-0.016165141,56.40166,156.9064,0.0047884034,1442826,888,62,3063,7726
66282217,4013,0,0.5106654,-0.08594418,-10.34526,0.006459811,0.003627685,-0.03253255,56.47645,156.9064,0.0047884034,1442826,879,281,1270,7753
66386203,3999,0,0.26981685,0.53465396,-9.277481,-0.0048104012,-0.006476739,-0.04852185,56.47645,156.9064,0.0047884034,1442826,-1486,380,3034,7753
66486204,4001,0,0.62000585,0.7313117,-9.3038845,-0.0059004184,-0.011257857,-0.059867352,56.487534,156.9064,0.0047884034,1442826,-1285,447,2574,7757
66587803,4000,0,0.43380666,-0.13482416,-10.293768,-0.0056291264,-0.009476644,-0.05527829,56.495846,156.9064,0.0047884034,1442826,725,42,2274,7760
66687803,3986,0,0.5508941,-0.54342765,-10.58516,0.0016080036,-0.013482056,-0.040197413,56.493073,156.9064,0.0047884034,1442826,828,-65,831,7759
66791804,4001,0,0.23093057,0.10330046,-9.783906,-0.0039018928,0.0021007503,-0.034978885,56.540165,156.9064,0.0047884034,1442826,-248,-146,1169,7776
66891811,3990,0,0.29084885,0.57658446,-9.186691,-0.0043415935,-0.004289712,-0.03231475,56.504154,156.9064,0.0047884034,1442826,-284,797,3198,7763
66995851,4031,0,0.32707343,0.2275861,-10.5480385,-0.0012862723,-0.00584876,-0.0519345,56.554016,156.9064,0.0047884034,1442826,-146,-615,1096,7781
67095803,3985,0,0.55377007,-1.4647057,-10.695436,-0.004054341,-0.024679905,-0.039703026,56.523544,156.9064,0.0047884034,1442826,-1130,77,1346,7770
67199804,4000,0,0.022095595,-0.008440754,-10.236368,0.0041796276,0.005305436,-0.037469752,56.540165,156.9064,0.0047884034,1442826,-392,-351,1557,7776
67299811,4007,0,0.21168226,1.0334418,-9.525358,-0.001623895,-0.003090031,-0.03782254,56.554016,156.9064,0.0047884034,1442826,1135,-728,441,7781
67399826,4023,0,0.31200254,1.0566809,-9.28366,-0.0031390274,0.0022513855,-0.052174494,56.576176,156.9064,0.0047884034,1442826,-487,369,3115,7789
67503803,4000,0,0.8864013,-0.30632192,-9.825054,0.009533325,0.00091732736,-0.02762253,56.576176,156.9064,0.0047884034,1442826,1462,656,4030,7789
67603844,4034,0,0.3655038,-1.0910342,-10.3055315,0.00015953695,-0.0037371963,-0.026057307,56.559555,156.9064,0.0047884034,1442826,60,735,2721,7783
67703804,4001,0,-0.29274622,-0.03784628,-10.149049,0.00020052888,0.0025560535,-0.033059187,56.576176,156.9064,0.0047884034,1442826,525,-509,-259,7789
67807804,3956,0,0.3970766,1.1779971,-9.369196,0.0054670903,-0.00032087625,-0.046929616,56.606647,156.9064,0.0047884034,1442826,-122,66,1102,7800
67907803,4000,0,0.3228252,1.1544168,-10.024508,0.007504913,-0.004030763,-0.057124097,56.664818,156.9064,0.0047884034,1442826,858,-763,1290,7821
68007803,4000,0,0.259171,-0.038682535,-10.866543,-0.0036390913,-0.011431707,-0.059628814,56.62327,156.9064,0.0047884034,1442826,-70,-610,1286,7806
68109403,4000,0,0.529249,-0.9176857,-10.542249,-0.008923696,-0.004137618,-0.039753385,56.65097,156.9064,0.0047884034,1442826,-191,-368,2345,7816
68213404,3990,0,-0.43801537,0.64554775,-10.2748995,-0.0020390549,0.012554038,-0.05074229,56.645428,156.9064,0.0047884034,1442826,-1200,-178,2052,7814
68313403,3928,0,0.3888845,1.571674,-9.165647,-0.0022361488,0.014724376,-0.044793542,56.65097,156.9064,0.0047884034,1442826,-675,700,2719,7816
68413443,4016,0,0.6941524,1.7722495,-9.186953,0.0075917365,-0.008516905,-0.01997542,56.67036,156.9064,0.0047884034,1442826,684,93,3330,7823
68517407,4003,0,0.5393223,-0.45204616,-10.241227,0.00696441,-0.0046768263,-0.045913488,56.69806,156.9064,0.0047884034,1442826,902,-206,1905,7833
68617406,3996,0,-0.22141783,-0.69500333,-10.368326,-0.008275068,0.0025316663,-0.058443032,56.68698,156.9064,0.0047884034,1442826,8,-281,1822,7829
68721410,4007,0,-0.26548392,0.81101614,-9.775712,0.00058788643,0.0022936882,-0.04491633,56.68421,156.9064,0.0047884034,1442826,-969,-789,2872,7828
68821403,4000,0,0.2962914,1.4888735,-9.098098,-0.007091867,0.012848341,-0.05279506,56.720222,156.9064,0.0047884034,1442826,479,-305,2440,7841
68921403,3974,0,0.89511615,1.1093309,-10.006779,0.0058793696,-0.0050767614,-0.0403713,56.72853,156.9064,0.0047884034,1442826,1139,-226,1901,7844
69021420,4017,0,0.77346945,0.092847325,-10.88274,0.0092682205,-0.011128746,-0.038858186,56.69529,156.9064,0.0047884034,1442826,-331,-209,1089,7832
69125415,4012,0,0.07956195,-0.5309042,-11.555964,-0.0028603226,0.0067471415,-0.050132006,56.778393,156.9064,0.0047884034,1442826,-424,-83,2014,7862
69225403,3999,0,-0.21237227,0.64341354,-10.47416,0.00028148666,0.0125569,-0.03664649,56.73407,156.9064,0.0047884034,1442826,-204,-850,678,7846
69329403,4000,0,0.1049947,1.4049942,-9.767276,0.0057580415,-0.0014010752,-0.04992238,56.75069,156.9064,0.0047884034,1442826,673,-651,2014,7852
69429416,3996,0,0.04293156,0.27701506,-10.650959,-0.0027709487,-0.009945075,-0.057439886,56.75069,156.9064,0.0047884034,1442826,-324,-911,1773,7852
69531003,3999,0,0.48640177,-0.7204758,-9.569283,-0.013848948,-0.0075134067,-0.05564899,56.800552,156.9064,0.0047884034,1442826,42,391,3165,7870
69635004,4000,0,0.22066204,0.14529544,-8.85972,-0.005841604,0.010714796,-0.04690808,56.78393,156.9064,0.0047884034,1442826,64,601,3411,7864
69735022,4018,0,0.0640141,1.3311807,-8.412611,0.0074100327,-0.005726524,-0.010911716,56.759003,156.9064,0.0047884034,1442826,148,-624,1961,7855
69835003,4000,0,0.24939975,1.2843491,-9.997671,0.0038188086,-0.0020802275,-0.043376744,56.7867,156.9064,0.0047884034,1442826,-59,-989,-605,7865
69939052,4049,0,0.29960877,-0.7690586,-10.63193,-0.0045868307,-0.0011648415,-0.057267714,56.814404,156.9064,0.0047884034,1442826,-432,-346,15,7875
70039003,4000,0,0.109376326,-0.67907923,-10.4684725,-0.008174642,0.014779378,-0.059851747,56.78393,156.9064,0.0047884034,1442826,875,-103,1044,7864
70139003,3999,0,-0.4985239,-0.21464494,-10.964982,-0.0036984608,0.016669413,-0.050710466,56.839336,156.9064,0.0047884034,1442826,125,-342,2156,7884
70243003,3964,0,0.669454,0.9923193,-10.05339,0.003686913,-0.0017852839,-0.023715813,56.842106,156.9064,0.0047884034,1442826,-180,491,1977,7885
70343019,4011,0,0.28677663,0.8839253,-9.861648,-0.0034792337,0.0011259045,-0.043294527,56.844875,156.9064,0.0047884034,1442826,-249,-576,1825,7886
70443046,4043,0,0.40268135,-0.30772078,-10.643143,0.00071383483,-0.0020636532,-0.050844118,56.855953,156.9064,0.0047884034,1442826,-60,-166,2421,7890
70547044,4041,0,0.5093728,-0.09433369,-9.903296,0.005013624,-0.00041180756,-0.034725834,56.861496,156.9064,0.0047884034,1442826,387,-147,906,7892
70647003,3989,0,-0.10450744,0.94053745,-9.304658,0.005895133,0.0076139644,-0.027445985,56.855953,156.9064,0.0047884034,1442826,271,-619,306,7890
70747003,4000,0,0.36145157,1.1558882,-9.001711,0.00046051876,0.0031848794,-0.047657665,56.853184,156.9064,0.0047884034,1442826,-427,-821,267,7889
70851026,4016,0,0.60675436,0.11910035,-10.029566,0.009420712,-0.010548886,-0.034683004,56.916897,156.9064,0.0047884034,1442826,432,343,1025,7912
70951803,4770,0,0.6784111,-1.1792613,-9.549647,-5.9296377e-05,-0.009100753,-0.04870379,56.858727,156.9064,0.0047884034,1442826,-52,313,3828,7891
71052610,4006,0,-0.16035222,-0.73212683,-9.77848,0.00072658353,0.005062065,-0.030519336,56.889194,156.9064,0.0047884034,1442826,-717,159,2489,7902
71156604,4000,0,-0.118890055,1.2892033,-9.254549,0.004113283,0.0033108068,-0.04027222,56.919666,156.9064,0.0047884034,1442826,-432,-253,2901,7913
71256603,3962,0,0.39710644,1.5729682,-10.500947,0.006434622,-0.007235694,-0.03633854,56.916897,156.9064,0.0047884034,1442826,508,-252,2767,7912
71360604,3986,0,0.6481957,-0.2749369,-11.695913,0.005726106,-0.0040079416,-0.045610424,56.952908,156.9064,0.0047884034,1442826,545,-21,1404,7925
71460603,4000,0,0.5316906,-1.3129654,-10.650902,-0.0003128375,-0.013752157,-0.029198136,56.916897,156.9064,0.0047884034,1442826,-353,337,3271,7912
71560603,4000,0,0.06309955,-0.1984729,-9.552095,0.011360218,0.0020960136,-0.012130629,56.92521,156.9064,0.0047884034,1442826,-211,343,3785,7915
71660613,4010,0,-0.15787838,0.950013,-9.869818,-0.00010100426,0.013609914,-0.03320967,56.952908,156.9064,0.0047884034,1442826,-105,-693,546,7925
71764603,3970,0,-0.11279518,0.77609396,-9.539588,-0.0033248733,-0.002311321,-0.030087814,56.991688,156.9064,0.0047884034,1442826,212,-245,2958,7939
71864603,3971,0,0.7905846,-0.35308158,-10.225315,0.0040816115,-0.006993189,-0.04828378,56.96676,156.9064,0.0047884034,1442826,-353,553,1334,7930
71968612,4001,0,0.14386444,-0.6313121,-9.65429,-0.0016019123,0.0035889496,-0.03428005,57.0,156.9064,0.0047884034,1442826,-465,431,1201,7942
72068603,4000,0,-0.35596845,0.7416335,-9.557796,0.0048004175,0.005486007,-0.018197207,56.98338,156.9064,0.0047884034,1442826,296,-709,1745,7936
72168603,4000,0,-0.011450166,1.5541183,-9.26652,-0.008576851,0.012197568,-0.042695165,57.01385,156.9064,0.0047884034,1442826,-21,-344,1449,7947
72272603,4000,0,0.40739366,0.6299931,-9.79413,-0.0070024477,0.0005670269,-0.05562705,57.02493,156.9064,0.0047884034,1442826,1608,48,2476,7951
72372650,4047,0,0.3458821,-0.727298,-10.34483,0.010990142,-0.011885877,-0.026924714,57.02216,156.9064,0.0047884034,1442826,116,150,2974,7950
72474224,4021,0,0.090379156,-0.9046213,-11.076852,-0.0017249093,-4.9117953e-05,-0.034959126,57.06094,156.9064,0.0047884034,1442826,110,-527,471,7964
72578204,3972,0,-0.23016779,1.3299594,-9.573407,0.0024934523,0.013577657,-0.039425693,57.02216,156.9064,0.0047884034,1442826,-640,-716,1459,7950
72678203,4000,0,0.29600728,1.518891,-8.7540865,-0.0057401983,0.0095124375,-0.052999415,57.05817,156.9064,0.0047884034,1442826,-918,1206,4382,7963
73903839,4008,0,0.007995237,0.3980012,-9.905497,-0.0011581166,0.01693746,-0.052969318,57.163433,156.9064,0.0047884034,1442826,-635,117,2064,8001
74003803,4000,0,0.0072734165,1.2907767,-9.252171,0.008261064,0.006494648,-0.022465145,57.160664,156.9064,0.0047884034,1442826,51,-241,1839,8000
74103817,4014,0,0.0934981,1.3907737,-9.394016,0.005531093,-0.0075869784,-0.02368676,57.177284,156.9064,0.0047884034,1442826,891,-419,2345,8006
74207803,4000,0,0.80182284,-0.67332506,-9.674586,-0.0046112263,-0.0052605392,-0.033349905,57.182823,156.9064,0.0047884034,1442826,-152,146,2556,8008
74307809,4006,0,0.27078667,-1.0983688,-10.026073,-0.005466697,0.003904475,-0.028569262,57.210526,156.9064,0.0047884034,1442826,-152,529,2389,8018
74411842,4003,0,-0.26289555,0.78854966,-9.61588,0.0018723193,0.012588682,-0.03861584,57.207756,156.9064,0.0047884034,1442826,-1173,-26,2947,8017
74511845,4042,0,0.25377944,1.5971005,-9.157309,0.0039464226,0.009628925,-0.04825907,57.177284,156.9064,0.0047884034,1442826,-400,-10,3385,8006
74611803,3986,0,0.13556105,1.51509,-9.481932,-0.0005948035,0.0028227228,-0.061326675,57.196674,156.9064,0.0047884034,1442826,394,-325,3109,8013
74715803,4000,0,0.5893396,-0.8964342,-10.760119,0.009201,-0.005301099,-0.033720627,57.246536,156.9064,0.0047884034,1442826,787,466,1532,8031
74819810,4007,0,0.2950704,-0.36740917,-9.372368,0.0008184345,-0.0033788043,-0.02595501,57.246536,156.9064,0.0047884034,1442826,-1655,152,2770,8031
74919803,3986,0,0.03119961,1.4298131,-9.033661,0.01038932,0.006069029,-0.023484575,57.282547,156.9064,0.0047884034,1442826,-122,-124,2347,8044
75023819,4014,0,0.61196536,0.8499951,-9.966626,0.011768272,0.00043303357,-0.04025522,57.268696,156.9064,0.0047884034,1442826,1097,-488,1875,8039
75127804,4001,0,0.23456654,-1.3397725,-10.498705,0.001376135,-0.009065651,-0.026709298,57.25485,156.9064,0.0047884034,1442826,277,-367,1501,8034
75229403,4000,0,-0.3104257,-0.120049015,-10.780753,-0.00034180842,0.015211579,-0.052615833,57.277008,156.9064,0.0047884034,1442826,407,-618,-167,8042
75329403,4000,0,0.042604182,0.20750178,-9.59568,-0.007180364,0.008221612,-0.025104918,57.301937,156.9064,0.0047884034,1442826,-395,578,2941,8051
75433403,3993,0,0.5945672,1.2908577,-8.78387,-0.0023190838,0.0027707159,-0.037633915,57.299168,156.9064,0.0047884034,1442826,-575,509,3657,8050
75533439,4036,0,0.56887275,0.79854405,-9.884294,0.01700846,-0.0023212377,-0.037138443,57.29363,156.9064,0.0047884034,1442826,792,-149,3282,8048
75633405,3981,0,0.53578985,-0.5988407,-10.099003,-0.013811729,0.0015507971,-0.06556788,57.3518,156.9064,0.0047884034,1442826,1110,588,1795,8069
75737447,4044,0,0.2590922,-0.8555411,-10.092742,0.0024487793,0.008711785,-0.03285187,57.3241,156.9064,0.0047884034,1442826,-181,461,1116,8059
75837403,4000,0,-0.52381146,0.61380446,-9.653564,-0.0031883006,0.009181392,-0.04393274,57.30748,156.9064,0.0047884034,1442826,-812,-637,1632,8053
75941403,4000,0,-0.0050899056,1.2615795,-9.854369,-0.011753895,0.0029800567,-0.058915384,57.34903,156.9064,0.0047884034,1442826,136,-198,927,8068
76041406,3963,0,0.22443405,0.4751783,-10.009789,0.012715118,-0.0054147723,-0.024091447,57.38227,156.9064,0.0047884034,1442826,641,-968,626,8080
76141405,3995,0,0.5245341,-0.9126084,-9.70489,-0.009333263,-0.0011317919,-0.035326675,57.35734,156.9064,0.0047884034,1442826,432,871,3846,8071
76245410,4007,0,0.031207751,-0.14394268,-9.936975,0.0007893371,0.008103658,-0.034679897,57.373962,156.9064,0.0047884034,1442826,-1136,838,2737,8077
76345410,4007,0,-0.30821833,1.010711,-9.891135,0.003888478,0.013240024,-0.036334164,57.39058,156.9064,0.0047884034,1442826,399,-729,-662,8083
76449404,4001,0,0.44846722,0.5609898,-8.57728,-0.008952871,-0.002546769,-0.047103673,57.39058,156.9064,0.0047884034,1442826,-663,795,4368,8083
76549403,4000,0,-0.06663095,-0.3304012,-10.013094,-0.0009400407,-0.0059115384,-0.025474261,57.38227,156.9064,0.0047884034,1442826,-55,-876,1373,8080
76651003,4000,0,0.71639305,-0.7659516,-9.669594,0.0052684024,-0.0060425852,-0.032507177,57.40166,156.9064,0.0047884034,1442826,-1570,607,1435,8087
76751003,3983,0,-0.1778305,0.414552,-9.838131,0.0002800792,0.0045397133,-0.052113786,57.434902,156.9064,0.0047884034,1442826,-1331,-123,1252,8099
76851003,3959,0,0.12772495,1.4230485,-9.225278,-0.009599344,0.0072554694,-0.042672172,57.462605,156.9064,0.0047884034,1442826,419,88,1823,8109
76955029,4026,0,0.56706905,0.7230167,-9.472674,-0.0024035536,0.003291943,-0.047628067,57.426594,156.9064,0.0047884034,1442826,-57,839,2487,8096
77055003,3999,0,0.39042184,-0.50626963,-10.413922,0.0104050115,-0.011289698,-0.031596005,57.42105,156.9064,0.0047884034,1442826,-39,233,1747,8094
77159003,4000,0,0.036378004,-1.2987245,-9.798218,-0.003320638,0.00063293683,-0.029903779,57.459835,156.9064,0.0047884034,1442826,-1631,528,3967,8108
77259010,4007,0,-0.09644158,0.053053286,-9.334633,0.0004369773,-0.008890048,-0.032864533,57.490303,156.9064,0.0047884034,1442826,-1527,-319,2726,8119
77359009,3993,0,0.07073194,1.5772678,-9.424398,0.010212575,0.011839129,-0.018472636,57.479225,156.9064,0.0047884034,1442826,808,588,2708,8115
77463003,3999,0,0.58955055,0.5924141,-9.068161,-0.0007121181,-0.003680652,-0.0320407,57.498615,156.9064,0.0047884034,1442826,190,618,3543,8122
77563003,4000,0,0.7358676,-0.5160614,-10.351092,-0.0023213823,-0.00323239,-0.044370797,57.47645,156.9064,0.0047884034,1442826,210,349,1891,8114
77663053,4050,0,-0.08665228,-0.40573788,-10.100364,-0.0023591577,0.008748171,-0.04541477,57.487534,156.9064,0.0047884034,1442826,117,-72,2754,8118
77767048,4022,0,0.4801459,0.97125256,-9.00674,0.0028700023,0.0031094141,-0.02492104,57.520775,156.9064,0.0047884034,1442826,-463,478,2251,8130
77867003,3999,0,0.337826,0.9889388,-9.343484,-0.0039335806,-0.006856768,-0.037145182,57.542934,156.9064,0.0047884034,1442826,-368,213,3111,8138
77968603,3989,0,0.36166844,0.5537495,-9.31773,-0.00039696763,-0.005538131,-0.030802373,57.495846,156.9064,0.0047884034,1442826,314,-551,2006,8121
78072635,4032,0,0.35423768,-0.74042064,-11.181609,0.007426803,-0.0032791528,-0.034024514,57.501385,156.9064,0.0047884034,1442826,244,-45,1204,8123
78172603,3992,0,0.5684897,-0.63525605,-9.42516,0.002087721,-0.0073755775,-0.026812442,57.542934,156.9064,0.0047884034,1442826,-1624,111,2951,8138
78272610,4007,0,0.27777424,1.0020305,-9.438465,-0.0073168864,0.0060602752,-0.039540064,57.562325,156.9064,0.0047884034,1442826,-44,258,2446,8145
78376603,3976,0,0.25423384,0.9586903,-9.022809,-0.0030287448,-0.0046472214,-0.05895897,57.562325,156.9064,0.0047884034,1442826,-1159,-321,3813,8145
78476646,4043,0,0.504253,0.16990238,-10.309251,0.0022753505,-0.0028308586,-0.04781346,57.537395,156.9064,0.0047884034,1442826,564,85,1925,8136
78576603,4000,0,0.10609661,-0.6784188,-10.277761,0.0011144831,-0.00030879222,-0.043696016,57.584488,156.9064,0.0047884034,1442826,48,-370,1938,8153
78680644,4041,0,0.16511163,0.35175076,-9.526088,0.002789802,-0.00075506757,-0.018760387,57.592796,156.9064,0.0047884034,1442826,-504,339,3601,8156
78780603,4000,0,0.4370769,1.3556789,-9.356754,0.0031545595,-0.0033529508,-0.02125803,57.59834,156.9064,0.0047884034,1442826,-441,-474,1158,8158
78884603,3977,0,0.71770054,0.14086385,-9.176765,0.0030687593,-0.008479094,-0.04329408,57.609417,156.9064,0.0047884034,1442826,-615,-22,2531,8162
78984603,3936,0,0.19607416,-0.9466193,-10.057163,0.003318212,-0.011646583,-0.03741838,57.6205,156.9064,0.0047884034,1442826,114,-831,1370,8166
79092604,3946,0,0.364283,0.33326918,-9.358481,-0.00112346,0.011951231,-0.02378368,57.631577,156.9064,0.0047884034,1442826,-335,1037,3165,8170
79192603,3954,0,0.32840326,1.7635298,-8.813289,0.0059600146,0.0028833728,-0.0122006405,57.64266,156.9064,0.0047884034,1442826,173,56,3185,8174
79296643,4039,0,0.60770756,0.38704574,-10.049872,0.0046856063,-0.008554627,-0.051821675,57.664818,156.9064,0.0047884034,1442826,718,-370,737,8182
79398226,4017,0,0.47598824,-0.6617717,-10.659926,0.009934968,-0.0029465144,-0.03167947,57.66205,156.9064,0.0047884034,1442826,863,-248,1332,8181
79498243,4039,0,0.058535602,-0.8066314,-10.728818,-0.00294829,0.0016205974,-0.04228381,57.65097,156.9064,0.0047884034,1442826,-797,224,2682,8177
79602220,4017,0,-0.41447854,1.0181644,-9.635871,-0.0040729092,0.015583089,-0.034978684,57.645428,156.9064,0.0047884034,1442826,-443,-819,362,8175
79702203,4000,0,0.10466148,1.5974005,-8.859165,-0.008673685,0.009801538,-0.038011216,57.65928,156.9064,0.0047884034,1442826,260,423,1558,8180
79802206,4003,0,0.73867095,0.9696969,-9.693972,0.011381951,-0.008395405,-0.033853367,57.67867,156.9064,0.0047884034,1442826,-160,-377,1137,8187
79906236,4033,0,0.679831,-0.80231017,-9.725782,-0.0011475652,-0.003434997,-0.03807882,57.70914,156.9064,0.0047884034,1442826,-414,1174,4376,8198
80006204,3977,0,0.068555824,-0.9559459,-9.951601,0.004585521,-0.009852639,-0.02374551,57.71468,156.9064,0.0047884034,1442826,-273,179,4232,8200
80106202,3992,0,-0.28652492,0.4212957,-9.518405,0.005179993,0.007684662,-0.025306398,57.722992,156.9064,0.0047884034,1442826,-149,-543,2298,8203
80210232,4028,0,0.2817536,1.7285486,-9.631789,0.004408289,0.011865787,-0.045925137,57.72576,156.9064,0.0047884034,1442826,1350,-334,647,8204
80310205,3966,0,0.10843374,0.6924052,-9.815033,-0.0039548203,-0.0030323374,-0.058707133,57.7313,156.9064,0.0047884034,1442826,212,-572,2186,8206
80414218,3981,0,0.5252783,-1.002067,-10.872824,0.0007069478,-0.0042521316,-0.0407336,57.75069,156.9064,0.0047884034,1442826,315,-139,1145,8213
80514203,3995,0,-0.17932643,-0.65625817,-10.322866,-0.0075690774,0.010762664,-0.041388102,57.76454,156.9064,0.0047884034,1442826,-335,-3,1820,8218
80614204,3998,0,0.13353372,0.15173386,-9.78343,0.0040644393,0.005739495,-0.03227744,57.74792,156.9064,0.0047884034,1442826,-711,208,1761,8212
80715804,3986,0,0.5684079,1.6083652,-9.293311,0.006174223,-0.0028952113,-0.025773592,57.739613,156.9064,0.0047884034,1442826,-245,-133,1242,8209
80819803,4000,0,0.5927744,0.25268325,-9.419531,0.0047412845,-0.0056605837,-0.03591297,57.781162,156.9064,0.0047884034,1442826,189,444,2405,8224
80919803,4000,0,0.48362663,-0.9166895,-10.265533,0.003879086,-0.008729775,-0.03935951,57.789474,156.9064,0.0047884034,1442826,440,-207,1320,8227
81019844,4041,0,0.23131123,-0.97354144,-10.952712,0.0057397895,0.004375252,-0.05373734,57.78393,156.9064,0.0047884034,1442826,408,-808,-655,8225
81123803,4000,0,0.19000804,1.0129898,-9.441725,0.014207904,0.00167277,-0.016066734,57.814404,156.9064,0.0047884034,1442826,6,129,2767,8236
81223810,4007,0,0.016051555,1.6254175,-9.696227,0.00638933,0.008482849,-0.021212867,57.795013,156.9064,0.0047884034,1442826,697,-354,712,8229
81327827,4024,0,0.4590071,0.109777406,-9.2204895,0.009022213,-0.01695864,-0.028261773,57.825485,156.9064,0.0047884034,1442826,25,194,4821,8240
81427803,3968,0,0.55701566,-0.80325043,-10.019097,0.0074822,-0.0025359513,-0.028805355,57.853184,156.9064,0.0047884034,1442826,498,10,2758,8250
81527803,3986,0,-0.26030448,-0.9067811,-10.218266,-0.012990421,0.0037959716,-0.058563765,57.817173,156.9064,0.0047884034,1442826,-643,290,2306,8237
81631840,4036,0,-0.32144523,0.651367,-9.779758,-0.0031636984,0.009389298,-0.0361528,57.814404,156.9064,0.0047884034,1442826,-570,-609,1711,8236
81731803,4000,0,0.24190219,1.1060586,-9.103093,-0.0011905091,-0.0053397184,-0.040380646,57.850414,156.9064,0.0047884034,1442826,-1097,249,715,8249
81835803,3990,0,1.0743138,-0.31661886,-9.318694,0.0054492764,-0.008107702,-0.04230861,57.883656,156.9064,0.0047884034,1442826,-209,814,2390,8261
81935803,4000,0,-0.115748785,-0.9630895,-10.206686,-0.008777427,-0.001693578,-0.059165623,57.889194,156.9064,0.0047884034,1442826,-677,-840,676,8263
82037403,4000,0,0.067794286,-0.59922373,-9.282804,-0.0029471123,0.016709477,-0.037572507,57.869804,156.9064,0.0047884034,1442826,-611,767,2956,8256
82137405,4002,0,-0.039137404,1.1312801,-9.528111,0.008453785,0.007265044,-0.035027325,57.914127,156.9064,0.0047884034,1442826,790,-416,794,8272
82241403,3993,0,0.1263078,1.240644,-9.293538,0.016873691,0.005541028,-0.021794714,57.900276,156.9064,0.0047884034,1442826,543,-1065,1680,8267
82341403,3963,0,0.4124086,0.18540663,-9.7493,-0.0045099817,0.001517914,-0.05028474,57.869804,156.9064,0.0047884034,1442826,1285,-50,2721,8256
82441403,3999,0,0.9217564,-0.83240795,-10.2699375,0.0013990013,-0.0018976647,-0.029045647,57.930748,156.9064,0.0047884034,1442826,-30,1115,3148,8278
82545418,4008,0,-0.19108362,-0.49937204,-10.084976,0.0010882497,0.009320964,-0.043567836,57.900276,156.9064,0.0047884034,1442826,-839,509,1814,8267
82649404,4001,0,0.2036123,1.178948,-8.973285,-0.0040514027,-0.0025109677,-0.05525399,57.950138,156.9064,0.0047884034,1442826,-1456,188,2477,8285
82749433,4029,0,-0.014923345,1.0298204,-10.06767,0.011678224,-0.00051022717,-0.041677214,57.9446,156.9064,0.0047884034,1442826,-444,-1167,-80,8283
82853403,4000,0,0.4666251,-1.0240036,-10.663633,-0.011509699,-0.0131696,-0.046367433,57.933517,156.9064,0.0047884034,1442826,39,77,2520,8279
82953404,4001,0,0.24673751,-1.5657877,-9.936483,0.0028783747,-0.0017277475,-0.017846748,57.958447,156.9064,0.0047884034,1442826,-65,127,3953,8288
83057404,4000,0,-0.86734295,0.9320628,-10.066102,-0.0018856709,0.010125714,-0.03394477,57.96676,156.9064,0.0047884034,1442826,-219,-960,201,8291
83157403,3977,0,0.20369422,1.6498044,-9.104562,0.010616252,0.0048790793,-0.034226,57.9446,156.9064,0.0047884034,1442826,499,-342,1727,8283
83257406,3989,0,0.96989703,0.8716123,-9.299673,0.0050749974,-0.010890009,-0.04465706,58.0,156.9064,0.0047884034,1442826,-451,930,2541,8303
83359010,3973,0,0.26510826,-0.83323336,-10.20314,-0.007342459,-0.008386023,-0.053439125,57.98338,156.9064,0.0047884034,1442826,137,-94,2594,8297
83463057,4054,0,0.26094356,-0.73863226,-9.862773,1.1462485e-05,0.0035160503,-0.03292017,58.0277,156.9064,0.0047884034,1442826,-1255,608,3426,8313
83563003,4000,0,-0.32438362,0.5477418,-9.32023,0.0008884949,0.0074641895,-0.030493934,58.03878,156.9064,0.0047884034,1442826,-1202,-230,3596,8317
83663010,3998,0,-0.0401034,1.8290418,-9.314316,0.0068888636,0.007694706,-0.04413609,58.01385,156.9064,0.0047884034,1442826,1133,-136,542,8308
83767003,4000,0,-0.10293055,0.6700674,-9.871896,0.00295293,-0.005775516,-0.034052312,58.03878,156.9064,0.0047884034,1442826,754,-1331,1321,8317
83867012,4009,0,0.99202526,-0.5273586,-9.541872,0.012869361,-0.014972597,-0.02789811,58.05817,156.9064,0.0047884034,1442826,-437,357,3766,8324
83967064,4061,0,-0.02775271,-0.95869994,-10.855806,-0.006361827,0.0020313272,-0.0717951,58.01939,156.9064,0.0047884034,1442826,467,-789,209,8310
84071028,4018,0,-0.34834543,0.33643466,-9.496195,-0.007119971,0.011040614,-0.033007357,58.07202,156.9064,0.0047884034,1442826,-680,-240,2981,8329
84171003,4000,0,0.2491574,1.5147188,-8.959375,0.005618007,0.0010969918,-0.037866723,58.083103,156.9064,0.0047884034,1442826,167,269,2069,8333
84275003,4000,0,-0.38151014,0.8511175,-10.419233,0.007961532,-0.004288988,-0.035832494,58.07479,156.9064,0.0047884034,1442826,122,-1246,1597,8330
84375003,3943,0,1.0911458,-0.40058497,-10.131453,0.00087601185,-0.00840578,-0.04561117,58.07479,156.9064,0.0047884034,1442826,-42,184,1033,8330
84475004,3959,0,-0.1420064,-0.9558262,-10.49278,-0.004564156,-0.0044302735,-0.032245338,58.07479,156.9064,0.0047884034,1442826,-591,-595,2597,8330
84579046,4005,0,0.005580022,0.19885907,-9.239475,-0.0031352066,0.0006116587,-0.0335968,58.09418,156.9064,0.0047884034,1442826,-1261,1027,4509,8337
84680608,3998,0,-0.12916479,1.4831537,-9.836609,0.0039417525,0.011882271,-0.028150676,58.102493,156.9064,0.0047884034,1442826,-154,-966,-57,8340
84780603,3963,0,0.73368275,1.2497312,-8.743656,0.002184425,0.0038134833,-0.048840936,58.135735,156.9064,0.0047884034,1442826,-329,978,2620,8352
84880616,4006,0,0.37296578,0.13501184,-10.097759,-0.008945223,-0.008694468,-0.072625,58.11357,156.9064,0.0047884034,1442826,308,-111,2146,8344
84984626,4023,0,0.34264433,-0.74789715,-9.543644,-0.008258473,-0.00021795009,-0.04067544,58.166203,156.9064,0.0047884034,1442826,-539,1080,5606,8363
85084622,4000,0,-0.6349654,0.13475697,-10.154228,0.010642068,0.004101599,-0.030496165,58.132965,156.9064,0.0047884034,1442826,-135,-972,2172,8351
85184603,4000,0,0.33013585,0.8241515,-8.99175,0.00305017,-0.005627927,-0.03189629,58.171745,156.9064,0.0047884034,1442826,-1719,679,3058,8365
85288616,4013,0,-0.25876808,0.90155745,-9.860978,0.008495626,0.005702162,-0.049598612,58.152355,156.9064,0.0047884034,1442826,1293,-1698,444,8358
85388630,4007,0,1.2561344,-0.1513177,-9.899048,0.0033207745,-0.0056263776,-0.04108668,58.191135,156.9064,0.0047884034,1442826,408,1440,1981,8372
85492618,3995,0,-0.14456862,-0.5524044,-10.234802,0.007865365,0.0054909172,-0.032605134,58.182823,156.9064,0.0047884034,1442826,1431,-668,963,8369
85592603,3992,0,0.18259569,0.030609708,-9.853092,0.00066640787,0.001454086,-0.04390547,58.182823,156.9064,0.0047884034,1442826,-1198,871,1610,8369
85692604,4001,0,-0.18446113,1.1077262,-9.421364,-0.0051285406,0.01041026,-0.034974314,58.191135,156.9064,0.0047884034,1442826,-609,260,3117,8372
85796624,3974,0,0.75025225,0.45918027,-9.656608,0.007292985,-0.011329461,-0.050857358,58.191135,156.9064,0.0047884034,1442826,-252,539,1759,8372
85896603,3998,0,0.20888683,-0.5582477,-10.190847,-0.016828664,-0.0033983514,-0.03886518,58.213295,156.9064,0.0047884034,1442826,849,-56,2882,8380
85998203,4000,0,-0.6807371,-0.81861305,-10.582988,0.0059509384,-0.0069991993,-0.04088805,58.238228,156.9064,0.0047884034,1442826,-1351,-234,2208,8389
86098203,3977,0,-0.5609465,0.6565531,-9.636537,0.009194728,0.015668385,-0.033048842,58.204987,156.9064,0.0047884034,1442826,-141,-304,1965,8377
86202203,4000,0,0.112188056,1.369298,-8.906769,-0.011623312,0.008117563,-0.06024093,58.238228,156.9064,0.0047884034,1442826,-60,1291,4310,8389
86302272,4040,0,-0.008278895,0.51164025,-10.132524,-0.010383387,-0.0024451797,-0.036040116,58.252075,156.9064,0.0047884034,1442826,734,-60,1923,8394
86406220,4017,0,0.23903012,-0.53397864,-10.554376,0.009854145,-0.0003603336,-0.0130269015,58.260387,156.9064,0.0047884034,1442826,1073,-720,1057,8397
86506209,4006,0,-0.16538967,-0.18203959,-9.716824,-0.01598946,0.0011217347,-0.05398166,58.27147,156.9064,0.0047884034,1442826,79,-496,1089,8401
86606203,4000,0,-0.2403818,0.91918105,-9.8741255,-0.019068139,0.02479746,-0.05196259,58.268696,156.9064,0.0047884034,1442826,543,-253,-108,8400
86710203,3975,0,0.31701097,0.9619091,-9.003103,0.010856434,-0.006722351,-0.036567148,58.279778,156.9064,0.0047884034,1442826,-701,735,1729,8404
86810204,3977,0,0.30130294,-0.13558742,-9.451188,-0.002796664,-0.004684792,-0.055129178,58.30471,156.9064,0.0047884034,1442826,451,926,4127,8413
86910209,4006,0,-0.113962315,-1.0050473,-10.258185,0.003983746,-0.0064677615,-0.04051449,58.29363,156.9064,0.0047884034,1442826,-594,1091,1866,8409
87014204,4001,0,-0.07189429,0.2217867,-10.346202,0.0033381863,0.0064723007,-0.04300149,58.30748,156.9064,0.0047884034,1442826,-563,332,254,8414
87118204,3994,0,-0.23243417,1.898776,-9.45947,0.0011650489,0.008912241,-0.038290832,58.31302,156.9064,0.0047884034,1442826,1301,-1022,1043,8416
87219025,4800,0,-0.26541644,0.9530815,-9.498687,-0.004808278,-0.010275321,-0.061248828,58.28809,156.9064,0.0047884034,1442826,-171,79,4792,8407
87319830,4027,0,0.24071136,-0.56988937,-9.862557,-0.0107630165,-0.011326607,-0.045727078,58.33518,156.9064,0.0047884034,1442826,93,330,3514,8424
87423803,3969,0,-0.54397076,-0.2829613,-10.371652,-0.0031198417,0.0191592,-0.060077228,58.32964,156.9064,0.0047884034,1442826,-576,-436,809,8422
87523803,3993,0,-0.17085694,0.5288584,-9.225963,0.0010413988,0.0073081055,-0.022435077,58.32964,156.9064,0.0047884034,1442826,187,93,4112,8422
87627861,4058,0,0.13883634,0.8112471,-9.248161,-0.0023824787,-0.010257072,-0.049313486,58.321327,156.9064,0.0047884034,1442826,-1111,-139,1823,8419
87727803,4000,0,0.31232843,0.04093872,-9.897164,-0.0028551926,0.0051378002,-0.043488383,58.3241,156.9064,0.0047884034,1442826,825,843,2295,8420
87827803,3963,0,0.08523621,-0.25939468,-10.651445,-0.000851775,-0.016639575,-0.061864626,58.37673,156.9064,0.0047884034,1442826,32,110,1840,8439
87931866,4063,0,-0.38887346,0.12339835,-9.7319565,-0.004868631,0.0006468418,-0.045368224,58.3795,156.9064,0.0047884034,1442826,-107,-285,2997,8440
88031814,3976,0,0.04269222,0.65237796,-9.746271,0.0045552626,-0.004884715,-0.035067875,58.34903,156.9064,0.0047884034,1442826,-92,-677,496,8429
88135804,3984,0,0.2921336,0.6458668,-9.689244,0.007643505,0.0028737506,-0.03843472,58.412743,156.9064,0.0047884034,1442826,998,524,3754,8452
88235803,3999,0,0.29436985,-0.5376114,-9.95482,-0.0023175376,-0.006703908,-0.029435657,58.415512,156.9064,0.0047884034,1442826,994,447,1948,8453
88335804,4000,0,-0.1286016,-0.43365243,-9.159416,-0.0014063183,0.007977871,-0.034888618,58.40166,156.9064,0.0047884034,1442826,-268,627,4244,8448
88439823,3971,0,-0.095586315,1.1899822,-9.27022,-0.007081349,0.012833694,-0.03220298,58.432133,156.9064,0.0047884034,1442826,456,396,1963,8459
88541403,4000,0,-0.16377783,1.3985597,-9.947155,0.0072868536,-0.0012130359,-0.060560092,58.429363,156.9064,0.0047884034,1442826,-213,-903,282,8458
88641403,3960,0,0.3804673,-0.049082924,-9.914066,-0.00042803888,-0.010183102,-0.021451343,58.462605,156.9064,0.0047884034,1442826,-251,-55,2052,8470
88741447,4043,0,0.3136989,-0.46591467,-10.321799,-0.014527223,-0.0013432913,-0.070344344,58.412743,156.9064,0.0047884034,1442826,417,-150,1313,8452
88845403,4000,0,0.11498691,-0.21331595,-9.891297,-0.0021574749,-0.0036468913,-0.036540747,58.462605,156.9064,0.0047884034,1442826,-943,-374,435,8470
88945410,4007,0,-0.3299218,1.0899417,-8.545176,-0.005371714,0.00700273,-0.035085395,58.473682,156.9064,0.0047884034,1442826,-770,819,5222,8474
89049416,4013,0,0.31412846,1.312638,-9.300013,0.013411326,-0.0016568474,-0.040076684,58.448753,156.9064,0.0047884034,1442826,1176,-180,3265,8465
89153403,3984,0,-0.13066539,-1.1785059,-10.439195,-0.0052131284,-0.012235359,-0.043820493,58.45983,156.9064,0.0047884034,1442826,-1227,55,2110,8469
89253413,4010,0,-0.28529814,-0.833188,-10.359612,-0.0031172528,0.008629315,-0.031125326,58.498615,156.9064,0.0047884034,1442826,-642,-29,1745,8483
89353403,4000,0,-0.4635356,0.33305007,-9.973598,-0.00166352,0.014820487,-0.035425853,58.501385,156.9064,0.0047884034,1442826,631,-120,903,8484
89457405,4002,0,0.08876737,1.4514524,-9.161563,0.0076988144,-0.0032585876,-0.041217186,58.470913,156.9064,0.0047884034,1442826,654,-218,3058,8473
89561440,4036,0,0.6794964,-0.653637,-10.003792,-0.00016027573,-0.0072494317,-0.039435286,58.490303,156.9064,0.0047884034,1442826,-235,638,1977,8480
89661403,3999,0,0.19630195,-1.2847108,-10.319703,-0.002185631,-0.004092064,-0.041394148,58.501385,156.9064,0.0047884034,1442826,-247,1025,3464,8484
89761460,4035,0,-0.06985549,-0.721859,-10.099953,0.0011595224,0.0019758954,-0.02116402,58.534626,156.9064,0.0047884034,1442826,-14,507,2266,8496
89863003,4000,0,0.028281406,1.1523389,-9.117827,-0.0013426422,0.015719045,-0.0301826,58.504154,156.9064,0.0047884034,1442826,-310,246,2044,8485
89967003,3974,0,-0.1924366,0.68892103,-9.26138,0.0062057422,0.004721309,-0.022322983,58.529087,156.9064,0.0047884034,1442826,451,-215,3493,8494
90067010,4007,0,0.36494976,-0.50989723,-9.287138,-0.0040529957,0.00076079415,-0.032038916,58.592796,156.9064,0.0047884034,1442826,1257,490,4223,8517
90171035,4032,0,-0.3530316,-0.7384028,-10.264984,-0.0018267704,0.006976575,-0.049115397,58.562325,156.9064,0.0047884034,1442826,-1092,29,2196,8506
90271003,3963,0,-0.4661609,0.5641912,-9.862377,0.009476526,0.00572747,-0.020932022,58.570637,156.9064,0.0047884034,1442826,-581,-711,593,8509
90375003,3952,0,0.16084836,0.9797888,-8.816665,-0.0047162436,0.006531409,-0.038889933,58.537395,156.9064,0.0047884034,1442826,954,745,3410,8497
90475008,4005,0,0.23350625,0.05016742,-9.483105,-0.0012363504,0.0071223984,-0.03999894,58.562325,156.9064,0.0047884034,1442826,550,-129,1999,8506
90579004,4001,0,0.2032938,-0.7338727,-10.266196,0.00021932041,-0.00932588,-0.042910255,58.59834,156.9064,0.0047884034,1442826,1019,724,2559,8519
90679003,3999,0,-0.24469872,-0.2943958,-9.572872,-0.0029753996,0.011054914,-0.031243201,58.587257,156.9064,0.0047884034,1442826,979,580,3207,8515
90779004,3987,0,-0.49862903,0.83480173,-9.093598,-0.0073518883,0.0064291507,-0.041215066,58.592796,156.9064,0.0047884034,1442826,-1095,149,3716,8517
90883015,4012,0,0.4558515,0.15470172,-9.154661,0.0030731475,-0.0006364449,-0.037472695,58.606647,156.9064,0.0047884034,1442826,-860,50,3411,8522
90983004,4000,0,0.23355427,-0.70298547,-9.992657,0.0045994194,-0.002386742,-0.03169319,58.648197,156.9064,0.0047884034,1442826,957,632,4187,8537
91084616,4003,0,-0.23388542,-1.1226037,-10.761249,-0.0062056864,0.0030232226,-0.037512727,58.63712,156.9064,0.0047884034,1442826,-828,-149,-643,8533
91184603,3990,0,-0.32854426,-0.2507999,-10.099074,0.0007887079,0.010854755,-0.02986075,58.62327,156.9064,0.0047884034,1442826,1257,144,1785,8528
91288626,4023,0,0.27406043,0.73026156,-8.994611,0.0001897749,-0.0065077553,-0.032771405,58.612186,156.9064,0.0047884034,1442826,97,953,3422,8524
91388603,3994,0,-0.107631266,0.17029552,-9.514298,-0.0072765467,-0.0025993898,-0.057581197,58.61773,156.9064,0.0047884034,1442826,-884,-1249,1445,8526
91492610,4007,0,0.19274572,-0.76605195,-10.256568,0.003444933,0.0044639693,-0.033004627,58.68421,156.9064,0.0047884034,1442826,777,359,1595,8550
91592603,4000,0,-0.15518902,-0.93158096,-9.872221,-0.013524723,-0.0027843034,-0.07324948,58.67313,156.9064,0.0047884034,1442826,-1486,107,271,8546
91692652,4049,0,-0.3933934,0.31434047,-9.321641,-0.008062085,0.00034889928,-0.04806268,58.631577,156.9064,0.0047884034,1442826,-949,324,3762,8531
91796611,4008,0,-0.2110315,1.3642073,-9.490866,0.007619684,0.005293256,-0.0385721,58.664818,156.9064,0.0047884034,1442826,1808,-299,1482,8543
91896640,4037,0,0.2555714,0.105640076,-9.537154,0.006720421,-0.004689371,-0.030354053,58.68144,156.9064,0.0047884034,1442826,676,229,3417,8549
91996604,3994,0,0.23831184,-0.87720114,-10.361919,0.0036004942,-0.0006503393,-0.04078089,58.65651,156.9064,0.0047884034,1442826,1094,79,3267,8540
92100638,3987,0,-0.2982874,-0.08323706,-10.052943,0.0011234344,0.006804084,-0.024411563,58.736843,156.9064,0.0047884034,1442826,354,262,1322,8569
92200603,3999,0,0.22728261,1.0506506,-8.962365,0.0069397325,0.007348225,-0.02055795,58.722992,156.9064,0.0047884034,1442826,701,1116,3375,8564
92301403,4000,0,-0.041433066,0.9730229,-8.705175,0.0007312712,-0.0013937807,-0.03804408,58.720222,156.9064,0.0047884034,1442826,87,470,4647,8563
92402203,3993,0,0.20113583,-0.2055748,-9.335544,-0.005126997,-0.011618053,-0.051670797,58.70637,156.9064,0.0047884034,1442826,165,443,2930,8558
92506210,3994,0,-0.19631442,-0.6327553,-10.360459,0.0049678213,0.011178052,-0.028657412,58.761772,156.9064,0.0047884034,1442826,656,-196,1497,8578
92606204,3918,0,-0.03452047,-0.19788478,-9.560286,-0.006745208,-0.0058780066,-0.057271436,58.739613,156.9064,0.0047884034,1442826,-592,551,2718,8570
92706246,4017,0,0.07891247,0.8777348,-9.264294,-0.0010589492,0.016210778,-0.018705398,58.739613,156.9064,0.0047884034,1442826,-125,361,3248,8570
92810232,4029,0,-0.055016205,1.102297,-9.718404,0.008414533,0.004028934,-0.036968578,58.756233,156.9064,0.0047884034,1442826,2077,87,1376,8576
92910203,3995,0,0.35644028,0.1659112,-9.8597975,0.00029901054,0.0055156783,-0.05815261,58.792244,156.9064,0.0047884034,1442826,1663,61,2048,8589
93014203,4000,0,-0.5283959,-0.69282234,-10.409342,-0.00132054,0.017854668,-0.029723788,58.7867,156.9064,0.0047884034,1442826,-538,-1518,929,8587
93114203,4000,0,-0.6289495,-0.28033313,-9.365713,-0.010413596,-0.005458343,-0.041788824,58.772854,156.9064,0.0047884034,1442826,-2473,372,4416,8582
93214236,4013,0,0.20751357,0.7085625,-8.854382,-0.00030065828,0.008724941,-0.03158776,58.775623,156.9064,0.0047884034,1442826,390,281,3994,8583
93318241,4007,0,0.12581232,0.47455198,-9.825852,0.0032830103,0.005369522,-0.035842434,58.778393,156.9064,0.0047884034,1442826,746,243,3256,8584
93418203,3998,0,0.11616986,-0.61104196,-10.306068,0.0011236644,-0.006782736,-0.03296746,58.795013,156.9064,0.0047884034,1442826,-532,894,3692,8590
