timestamp,integral_dt,error_count,x,y,z,x_integral,y_integral,z_integral,temperature,range_m_s2,scaling,device_id,x_raw,y_raw,z_raw,temperature_raw
35519817,4144,0,0.7333046,-0.70389175,-9.693071,0.004516247,-0.0029531443,-0.0376108,51.75,78.0,0.0023928226,1114658,462,755,-2971,10621
35619614,4248,0,0.50631887,0.22521786,-10.0564995,0.0030116807,-0.0017452656,-0.044234805,51.875,78.0,0.0023928226,1114658,868,910,-3883,-11
35720377,4183,0,0.42543015,0.88714886,-9.679168,-0.0009344316,0.0057708616,-0.043875255,51.875,78.0,0.0023928226,1114658,354,56,-3034,-11
35825406,5248,0,-0.1748182,0.6776486,-9.41857,0.005664725,0.018540153,-0.046732996,51.625,78.0,0.0023928226,1114658,-801,1431,-2804,10593
35926194,4227,0,-0.7801117,-1.286451,-9.629168,-0.011583529,0.00975935,-0.03619764,51.75,78.0,0.0023928226,1114658,-1380,1849,-1935,10628
36023817,5246,0,0.10143649,-1.4539353,-10.032436,-0.013674697,-0.0049363384,-0.047840428,51.875,78.0,0.0023928226,1114658,-182,-127,-2824,10599
36128817,4187,0,0.45439753,0.7566566,-9.647108,0.020107498,0.011827901,-0.040414132,51.875,78.0,0.0023928226,1114658,-338,1161,-2268,10605
36228578,4212,0,0.8488196,1.2722719,-9.74161,0.009830866,0.009727781,-0.050117277,51.875,78.0,0.0023928226,1114658,161,392,-3612,10620
36330416,5250,0,0.23654325,0.84673184,-9.831734,-0.0034064644,-0.006546889,-0.053214774,51.75,78.0,0.0023928226,1114658,1614,855,-3648,10614
36433370,5303,0,-0.32362685,-0.6641527,-9.941206,-0.0063202535,-0.005546742,-0.050072845,51.75,78.0,0.0023928226,1114658,225,614,-1997,10634
36535167,4195,0,1.1279687,-0.017171718,-9.8582945,0.004439728,0.009216669,-0.03634939,51.875,78.0,0.0023928226,1114658,-678,-278,-3359,8193
36637047,5245,0,0.3938235,0.9659665,-9.502738,-0.009904469,-0.0023866869,-0.052319843,51.875,78.0,0.0023928226,1114658,1564,329,-4138,2048
36735770,4254,0,-0.22621809,-0.3056214,-9.692558,0.0010377185,-0.004935959,-0.04197018,51.875,78.0,0.0023928226,1114658,1093,1062,-4486,10620
36836590,4274,0,-0.061004758,-0.6291841,-9.876732,0.0014661613,0.012787434,-0.04154493,51.875,78.0,0.0023928226,1114658,-627,958,-3731,10629
37448667,4102,0,1.2337555,0.67762786,-9.614415,0.013749413,0.009036387,-0.045679785,51.875,78.0,0.0023928226,1114658,21,1308,-3243,8193
37552617,4124,0,-0.7309091,-0.12670462,-9.598509,-0.013293924,-0.0029823307,-0.03363348,51.875,78.0,0.0023928226,1114658,961,508,-4857,10653
37652366,5241,0,-0.42715082,-0.67679274,-9.810041,0.015941534,0.010353557,-0.05356125,51.75,78.0,0.0023928226,1114658,-926,2210,-4437,-11
37755270,4195,0,1.3075606,1.2969382,-9.5822935,-0.012103567,-0.0042204536,-0.0406326,51.75,78.0,0.0023928226,1114658,1061,-1082,-2838,-11
37857161,5265,0,-0.5431944,-0.8286352,-9.625769,0.004827645,-0.008284729,-0.055452522,51.875,78.0,0.0023928226,1114658,565,1394,-4559,8192
37958995,5278,0,0.20340082,0.09243941,-9.667809,0.009390796,0.017570708,-0.049686372,51.75,78.0,0.0023928226,1114658,-489,2162,-3520,10669
38059818,4211,0,0.41663438,1.3879536,-9.6049,0.003965905,-0.006795831,-0.039591547,51.875,78.0,0.0023928226,1114658,1497,1040,-3600,8193
38161617,4200,0,-0.3550841,-1.1235801,-9.926228,0.005080658,-0.005769814,-0.042394344,51.875,78.0,0.0023928226,1114658,902,1346,-3216,2048
38260323,4163,0,-0.31960025,-0.6973857,-9.673517,0.011839282,0.013149663,-0.04269631,51.875,78.0,0.0023928226,1114658,-923,2350,-3827,8192
38362170,4204,0,1.4640169,1.3343402,-10.026957,0.0015623195,0.0006613138,-0.041896895,51.875,78.0,0.0023928226,1114658,567,457,-2233,10673
38466143,4227,0,-1.0834252,-0.4921543,-9.874002,0.0038121098,-0.0016263577,-0.043982618,51.75,78.0,0.0023928226,1114658,1442,1064,-3897,8192
38565867,5250,0,0.17532878,-0.12219093,-9.861303,0.014293799,0.011834542,-0.055045675,51.875,78.0,0.0023928226,1114658,48,1998,-3720,0
38666669,4202,0,1.5642768,0.9648471,-9.554461,-0.0028667098,-0.0017105478,-0.039605297,51.875,78.0,0.0023928226,1114658,835,-1419,-2765,8193
38768591,4275,0,-0.43667516,-0.47383142,-9.781756,-0.0010986995,-0.004172942,-0.04099536,52.0,78.0,0.0023928226,1114658,581,483,-4147,10684
38872565,5349,0,0.7799211,0.68399835,-9.656141,0.010071821,0.009973471,-0.04994053,51.875,78.0,0.0023928226,1114658,-368,1273,-3146,10695
38971167,4166,0,0.7759423,1.2981156,-9.693513,-0.007929271,-0.005128583,-0.04347368,51.875,78.0,0.0023928226,1114658,1221,-656,-2676,8193
39075159,4173,0,-0.013203565,-0.86204386,-9.878916,0.009242325,0.0027639132,-0.04316943,51.875,78.0,0.0023928226,1114658,-291,1588,-3376,10699
39173867,4250,0,0.34713322,-0.10304943,-9.472022,0.0076492997,0.014809691,-0.041840177,51.875,78.0,0.0023928226,1114658,-481,1306,-4416,16975
39275744,5328,0,0.6829748,1.3698376,-10.00205,0.0013641472,-0.0044047255,-0.055576447,52.0,78.0,0.0023928226,1114658,1558,275,-2321,10705
39378566,6300,0,-0.60947526,-0.73524064,-9.759129,-0.007891816,-0.0025028,-0.060536105,51.875,78.0,0.0023928226,1114658,-597,1568,-3119,8192
39483566,4200,0,1.4243248,0.9467256,-9.8159895,0.00075103674,-0.00016566961,-0.037123263,52.0,78.0,0.0023928226,1114658,363,-642,-2776,16976
39582267,4116,0,-0.16705172,0.012288819,-9.723775,-0.011583147,-0.008381153,-0.03552375,52.0,78.0,0.0023928226,1114658,726,-40,-2139,-11
39686217,4145,0,0.60484374,0.26481655,-9.631398,0.01686987,0.011758845,-0.0419341,51.875,78.0,0.0023928226,1114658,131,1858,-4513,10731
39788067,4201,0,0.57668906,0.9118468,-9.81292,-0.00085650285,-0.0069504646,-0.045873966,51.875,78.0,0.0023928226,1114658,1174,435,-2778,8193
39888867,6301,0,-0.6671689,-0.581261,-9.862439,0.0008818526,-0.009501532,-0.064416096,51.75,78.0,0.0023928226,1114658,182,808,-3064,2048
39990773,4257,0,1.2070115,0.5732539,-9.770468,0.010960908,0.014712858,-0.041881837,51.875,78.0,0.0023928226,1114658,-581,1154,-3745,8192
40094667,4171,0,-0.3665388,-0.0853702,-9.813094,-0.0056131664,-0.014376517,-0.03969306,51.75,78.0,0.0023928226,1114658,1336,-872,-3273,8193
40194416,5233,0,-0.20666708,-0.8698235,-10.060765,0.01552695,-0.00047129966,-0.050536353,51.875,78.0,0.0023928226,1114658,-246,2425,-1852,10739
40295216,4199,0,1.5356199,1.1189816,-9.60191,-0.0062748436,0.009351034,-0.040477935,51.875,78.0,0.0023928226,1114658,-168,-1142,-3787,10646
40397067,4149,0,-0.4279247,-0.25065833,-9.724657,0.0016040963,-0.0066069267,-0.048031796,51.75,78.0,0.0023928226,1114658,1278,1582,-4232,-11
40501030,5229,0,0.55073655,0.037629884,-9.692264,0.012537342,0.013553909,-0.048933107,52.0,78.0,0.0023928226,1114658,-1156,1312,-3530,2048
40597617,4200,0,0.5856822,1.1685529,-9.714229,-0.0018877678,0.00040547075,-0.041623496,51.75,78.0,0.0023928226,1114658,612,319,-2488,-11
40703744,4278,0,-0.21077165,-0.87268734,-10.092309,-0.0022173342,-0.00037002072,-0.04302358,51.625,78.0,0.0023928226,1114658,78,745,-2388,10769
40801330,5263,0,-0.15621783,-0.3171626,-9.794059,0.0014485915,0.009730359,-0.05222565,52.0,78.0,0.0023928226,1114658,-340,443,-3237,8192
40904221,4205,0,1.5836922,1.057739,-9.767222,-0.0089910785,-0.0025095483,-0.035093095,51.75,78.0,0.0023928226,1114658,905,-2018,-2899,-11
41006172,4306,0,-0.7646613,-0.67146647,-9.793836,0.0069431397,-0.0016724542,-0.04559868,51.875,78.0,0.0023928226,1114658,876,1128,-3782,10755
41107942,4141,0,1.4242826,0.515448,-9.895696,0.008845147,0.008818846,-0.0383027,51.875,78.0,0.0023928226,1114658,-365,505,-2691,10771
41209796,5263,0,0.013019381,0.6145494,-9.55439,-0.0070972163,-0.007997567,-0.055968735,51.875,78.0,0.0023928226,1114658,1316,371,-4444,2049
41312667,4147,0,0.3982533,-0.8068448,-10.090021,0.00995775,0.0014880041,-0.040894203,51.875,78.0,0.0023928226,1114658,-942,455,-2416,2048
41414517,4177,0,0.8727155,1.1150357,-9.593185,0.0039785616,0.0045751887,-0.044472918,51.75,78.0,0.0023928226,1114658,443,-101,-3881,10780
41518467,4200,0,0.34980032,-0.6603926,-9.981213,-0.0028356437,-0.0031797304,-0.034006275,51.875,78.0,0.0023928226,1114658,268,-196,-3566,2048
41620316,4196,0,-0.1317553,0.6996617,-9.532862,0.0060922923,0.010791049,-0.041606218,51.875,78.0,0.0023928226,1114658,424,2040,-3676,2049
41722256,4290,0,0.5335248,0.5342787,-9.819755,-0.0045467447,-0.011303565,-0.042596105,51.875,78.0,0.0023928226,1114658,847,-64,-2711,-11
41822996,4229,0,0.40254492,-0.50964963,-9.767091,0.008716705,0.0015442602,-0.03845098,51.875,78.0,0.0023928226,1114658,7,-437,-4041,-11
41922717,4188,0,0.28149515,0.29669535,-9.738194,0.004506138,0.010870096,-0.041074898,51.75,78.0,0.0023928226,1114658,132,2118,-3941,-11
42024610,4233,0,0.47102943,0.8158693,-9.805015,-0.0073400764,-0.0028871128,-0.04435497,52.0,78.0,0.0023928226,1114658,913,-67,-2470,-12
42126417,4198,0,-0.62089497,-0.45759895,-9.790714,0.002588203,-0.0037678415,-0.03996942,52.0,78.0,0.0023928226,1114658,315,2232,-3756,10808
42225158,4242,0,-0.045487314,-0.29012322,-9.86459,0.013216348,0.009113304,-0.035059903,51.875,78.0,0.0023928226,1114658,-649,3052,-2990,10807
42329067,4180,0,0.11061857,0.8549503,-9.94957,-0.008777592,-0.0053478424,-0.04213352,52.0,78.0,0.0023928226,1114658,1261,1081,-2250,2049
42430946,4229,0,0.2834427,-0.6226089,-9.950011,-0.0036021252,-0.0027056204,-0.03669172,52.0,78.0,0.0023928226,1114658,-19,-260,-3362,10821
42531728,4211,0,-0.2125294,0.37791044,-9.477689,0.009718571,0.009679696,-0.040495336,52.0,78.0,0.0023928226,1114658,-34,2035,-4030,10814
42639867,4170,0,0.7733957,-0.35886243,-9.963935,-0.0050907526,-0.00066232414,-0.04242079,52.0,78.0,0.0023928226,1114658,1273,-1446,-2773,8192
42739650,4233,0,-0.12568684,-0.018697288,-9.673817,0.013291774,0.008896864,-0.04503762,51.875,78.0,0.0023928226,1114658,72,1974,-3712,-12
42843567,4200,0,0.71354973,0.5461459,-9.84813,-0.0007329504,-0.0057374383,-0.040685233,51.875,78.0,0.0023928226,1114658,662,625,-3714,16975
42941323,4306,0,0.06345286,-0.14420234,-9.634746,-0.0051827254,-0.0058273547,-0.03396055,51.875,78.0,0.0023928226,1114658,433,-462,-3505,10666
43042121,4305,0,-0.41959727,-0.62486035,-9.440181,0.017995382,0.008964258,-0.040069845,51.875,78.0,0.0023928226,1114658,-1189,3206,-5044,10659
43143867,6300,0,1.4767592,0.945757,-9.724589,-0.020581892,0.00586873,-0.057869248,52.0,78.0,0.0023928226,1114658,1113,91,-4202,10837
43245756,4239,0,-0.5776242,-0.22638768,-9.95724,-0.0015478532,-0.008419185,-0.038220916,51.875,78.0,0.0023928226,1114658,990,-106,-2383,-11
43347566,4200,0,0.84541786,-0.07471967,-9.673835,0.014040767,0.0133971805,-0.036273107,52.0,78.0,0.0023928226,1114658,-646,1246,-3642,10843
43449417,5250,0,0.87166065,1.2058156,-9.775197,-0.009217321,-0.002103815,-0.056335397,51.875,78.0,0.0023928226,1114658,1526,-130,-3560,10847
43551267,5147,0,-0.44051716,-0.89252746,-10.032373,-0.00955814,-0.0077738534,-0.05639549,51.875,78.0,0.0023928226,1114658,475,-156,-3275,-11
43653158,5291,0,0.9071265,0.24754828,-9.494769,0.023890512,0.015035622,-0.050674736,51.875,78.0,0.0023928226,1114658,-703,439,-4019,2049
43754970,5253,0,0.85165983,1.0549582,-9.689521,-0.0010986371,-0.0068273516,-0.054878112,51.875,78.0,0.0023928226,1114658,1632,803,-4147,10853
43855806,4239,0,-0.38496453,-1.0523642,-9.952408,-0.020244474,-0.0057340064,-0.03972754,51.875,78.0,0.0023928226,1114658,733,-1359,-3140,0
43957626,4209,0,1.0203959,0.6699614,-9.771736,0.016873008,0.009461021,-0.039216366,51.875,78.0,0.0023928226,1114658,-388,-338,-2174,2049
44059483,4216,0,0.7363611,0.72934324,-9.831045,-0.005727626,-0.007127179,-0.04112974,52.0,78.0,0.0023928226,1114658,1169,-117,-3843,8192
44161344,4186,0,-0.69690436,-0.94761074,-9.750168,-0.002361564,-0.0017390946,-0.043482035,51.875,78.0,0.0023928226,1114658,81,1189,-3658,10877
44260017,6300,0,0.14032546,-0.56828225,-9.797716,0.032140832,0.014710029,-0.06040041,51.875,78.0,0.0023928226,1114658,-591,851,-4565,8193
44361906,4240,0,0.3896419,0.92880005,-9.661141,-0.0076796142,-0.0033319735,-0.04469783,51.875,78.0,0.0023928226,1114658,1280,1060,-3554,10871
44463744,5277,0,-0.7370412,-0.5196571,-9.8497505,-0.015817814,-0.008309033,-0.05073588,51.875,78.0,0.0023928226,1114658,854,-692,-2862,10886
44565567,5221,0,1.568297,0.46640405,-9.701248,0.013724395,0.009190189,-0.050359335,51.875,78.0,0.0023928226,1114658,-570,-369,-3054,8192
44667416,5157,0,0.105901316,0.3182509,-9.679675,-0.001657084,-0.00392294,-0.055801254,52.0,78.0,0.0023928226,1114658,846,983,-3726,10885
44769358,5309,0,-1.078062,-0.52188057,-9.870495,0.007811395,0.0018033216,-0.051678635,51.875,78.0,0.0023928226,1114658,-259,3558,-3419,10893
44872169,4202,0,1.1279869,1.2007619,-9.5758915,-0.0065952693,-0.0005890497,-0.046666764,51.875,78.0,0.0023928226,1114658,1215,-645,-4083,8193
44971916,4165,0,-0.19046721,-0.3483875,-9.888767,-0.0011307565,-0.0073295436,-0.042926542,52.0,78.0,0.0023928226,1114658,1341,1160,-3967,-11
45072716,4165,0,-0.13615233,-0.70724815,-9.760822,-0.008032427,0.006509037,-0.03911703,51.875,78.0,0.0023928226,1114658,-618,1271,-3309,10897
45174567,4200,0,0.65246016,1.479556,-9.587414,-0.002075213,-0.0022978438,-0.040767472,52.0,78.0,0.0023928226,1114658,973,-152,-3387,-11
45276516,4300,0,0.45294532,-0.6852345,-10.050194,-0.00954634,-0.004204376,-0.042484947,51.875,78.0,0.0023928226,1114658,777,-964,-3214,10661
45382468,4201,0,0.7654037,1.312412,-9.661239,-0.012687436,0.007390596,-0.035418224,52.0,78.0,0.0023928226,1114658,-4,-496,-3743,2048
45484316,4198,0,0.36351272,-0.3322457,-10.072648,-0.0072877943,-0.004626982,-0.04838188,51.875,78.0,0.0023928226,1114658,1172,-400,-3975,2049
45586181,5251,0,0.05210107,-0.09104769,-9.82579,0.010866501,0.011497913,-0.052353207,52.0,78.0,0.0023928226,1114658,-590,1813,-2773,10913
45682767,4200,0,0.9595311,0.69719046,-9.689498,-0.0020414207,0.0053098,-0.043670688,52.0,78.0,0.0023928226,1114658,739,-453,-3054,2048
45786718,4200,0,-0.23345654,-0.47522867,-9.858189,-0.0043068994,-0.0049911453,-0.03474056,51.875,78.0,0.0023928226,1114658,459,331,-3673,-11
45888610,4241,0,0.5339159,0.28659022,-9.627223,0.019115223,0.013402098,-0.048533596,51.875,78.0,0.0023928226,1114658,-62,1818,-4158,10932
45990417,4190,0,-0.13641305,0.7520765,-9.549795,-0.012261782,-0.011676803,-0.038758542,51.875,78.0,0.0023928226,1114658,1241,1303,-3172,10936
47212634,5268,0,0.45648274,-0.20076004,-9.681402,0.017449852,0.014152255,-0.049300086,51.875,78.0,0.0023928226,1114658,-914,1850,-4383,-11
47314470,5191,0,0.4790651,1.031439,-9.6539345,-0.02463263,-0.0039997627,-0.051409278,52.0,78.0,0.0023928226,1114658,2028,-267,-3676,10961
47417421,4250,0,-0.06878446,-0.73226106,-9.853868,0.0003378964,0.0012158968,-0.034325887,51.875,78.0,0.0023928226,1114658,-872,-349,-3054,10973
47515021,4148,0,0.9879911,0.3762907,-9.815908,0.01483004,0.008795644,-0.03995122,52.0,78.0,0.0023928226,1114658,-326,2051,-3168,10969
47616867,4199,0,-0.043476157,0.7772842,-9.382864,-0.0091763595,-0.007827137,-0.040048815,52.0,78.0,0.0023928226,1114658,1761,793,-4717,2048
47717667,4167,0,-0.28716275,-1.1239405,-9.982216,0.01168305,-0.0012004564,-0.045716017,52.0,78.0,0.0023928226,1114658,441,1379,-3089,8193
47819516,4199,0,1.1673255,0.7485526,-9.631185,-0.008890124,0.007884429,-0.03756267,52.0,78.0,0.0023928226,1114658,-242,461,-3475,8193
47923500,4232,0,0.048019487,-0.75573415,-9.889675,-0.008533785,-0.0099755945,-0.043721057,52.0,78.0,0.0023928226,1114658,1103,-546,-3027,0
48025330,4172,0,0.9675715,0.027829718,-9.537475,0.019005382,0.0116500985,-0.033707794,52.0,78.0,0.0023928226,1114658,-592,706,-3992,10675
48127200,4193,0,-0.23306209,1.0104318,-9.65638,-0.011030739,-0.002574949,-0.04076387,51.875,78.0,0.0023928226,1114658,1585,1563,-4581,8193
48227966,4167,0,0.08314025,-0.5567697,-10.060004,-0.014950763,-0.0011799643,-0.036584433,52.0,78.0,0.0023928226,1114658,1052,-1269,-3288,11003
48327765,4248,0,0.3962444,0.6262581,-9.720762,0.012754001,0.0076513356,-0.043536812,52.0,78.0,0.0023928226,1114658,535,1467,-3061,11006
48429566,4178,0,0.5178393,0.36724225,-9.816393,-0.00066862063,-0.0040566763,-0.042588327,51.875,78.0,0.0023928226,1114658,749,-120,-4354,-11
48531416,4199,0,1.5053089,1.1475854,-9.630565,0.021274107,0.011692858,-0.03620991,52.0,78.0,0.0023928226,1114658,-998,960,-4200,11012
48633347,4280,0,-0.30456775,-0.3067046,-9.681212,0.014879973,0.009889106,-0.04263225,52.0,78.0,0.0023928226,1114658,179,2885,-4635,11017
48737259,5260,0,-0.9255256,-0.92645967,-9.8437195,0.011378354,0.015732447,-0.047608618,52.0,78.0,0.0023928226,1114658,-2197,2422,-3383,8193
48840122,4205,0,-0.50284094,-0.8642846,-9.756827,0.014384818,0.017944157,-0.03240296,52.0,78.0,0.0023928226,1114658,-1923,2231,-3359,8192
48941974,4207,0,-1.1949912,-0.8200762,-9.658017,0.0022789903,0.016836775,-0.027251683,52.125,78.0,0.0023928226,1114658,-1983,1959,-2843,2049
49043843,5268,0,-0.9575348,-0.8516984,-10.036185,-0.0054148906,-0.000583668,-0.051426504,52.0,78.0,0.0023928226,1114658,1708,737,-3682,11037
49140473,4256,0,1.4463421,1.1386285,-9.862018,-0.003777097,0.004621063,-0.033249546,51.875,78.0,0.0023928226,1114658,-174,-505,-2925,10687
49244367,4187,0,0.3401826,-0.061266463,-9.51525,0.017605474,0.014405264,-0.043874763,52.0,78.0,0.0023928226,1114658,-346,1640,-4728,8192
49447021,4148,0,0.80468506,0.46426055,-9.802839,0.019372744,0.0079620145,-0.038750026,52.0,78.0,0.0023928226,1114658,85,1857,-2082,11053
49548867,4200,0,-0.005268594,0.10850491,-9.822398,-0.02209618,-0.009959436,-0.041123986,52.0,78.0,0.0023928226,1114658,1366,-806,-4503,-11
49652817,4189,0,0.7448402,0.46430656,-9.515132,0.016451588,0.016619613,-0.03273424,52.125,78.0,0.0023928226,1114658,-382,2606,-4656,10678
49752572,5255,0,1.1928823,1.088603,-9.464113,-0.01609381,-0.004299061,-0.055392142,51.875,78.0,0.0023928226,1114658,1511,-485,-5016,10690
49854417,5247,0,-0.82455003,-0.98229384,-9.951722,-0.0039033184,-0.006048871,-0.05031564,51.875,78.0,0.0023928226,1114658,294,1033,-2752,8192
49960520,4253,0,0.34758368,1.1621996,-9.670906,-0.0102200145,-0.0024024956,-0.04430851,52.0,78.0,0.0023928226,1114658,959,948,-3456,11071
50061344,4277,0,-0.031774104,-0.62351054,-9.947363,-0.0056044906,-0.008948579,-0.04180989,52.0,78.0,0.0023928226,1114658,855,-278,-3651,11078
50161017,4200,0,0.15310133,-0.74471635,-9.790306,0.010349966,0.012289206,-0.039247006,52.0,78.0,0.0023928226,1114658,-1321,1877,-3995,2048
50262924,5307,0,0.52185625,1.6599169,-9.653956,-0.0019940038,0.0021514334,-0.053549565,52.125,78.0,0.0023928226,1114658,1818,251,-3847,10696
50365839,4272,0,0.09948448,-0.84870017,-9.9174185,-0.007188248,-0.002881131,-0.039195336,52.0,78.0,0.0023928226,1114658,197,-299,-3652,0
50467693,4277,0,1.0450429,0.52868253,-9.830238,0.0045150276,0.007963554,-0.047061704,52.0,78.0,0.0023928226,1114658,116,-726,-3381,10697
50569485,4090,0,-0.09679682,0.7485448,-10.036545,0.008243288,-0.011990708,-0.036231026,52.0,78.0,0.0023928226,1114658,1409,2182,-2428,11085
50669279,4262,0,-0.26635337,-0.95806646,-9.7359915,-0.005156582,-0.004187417,-0.03489837,52.0,78.0,0.0023928226,1114658,-463,12,-3614,10693
50774244,4171,0,1.5729427,1.1371553,-9.826708,-0.0042654495,0.0010709486,-0.038693953,52.125,78.0,0.0023928226,1114658,687,-1058,-2641,11094
50876067,4200,0,-0.07685421,-0.52395225,-9.929118,-0.004622137,-0.0035224222,-0.038108416,52.0,78.0,0.0023928226,1114658,491,-710,-3709,8193
50977916,4200,0,0.050931145,-0.25107986,-9.898048,0.02894004,0.012021691,-0.046136476,52.0,78.0,0.0023928226,1114658,-195,3226,-3664,-11
51077667,4168,0,1.0770508,1.5189272,-9.59759,-0.006983965,0.002415851,-0.036783285,52.0,78.0,0.0023928226,1114658,834,443,-2263,8193
51179516,4200,0,0.31227145,-0.63658875,-9.815657,-0.0054646567,-0.009570848,-0.044642676,52.0,78.0,0.0023928226,1114658,567,-1401,-4309,8193
51284569,4252,0,0.89047146,0.868077,-9.586101,0.015385151,0.013377523,-0.0397518,52.0,78.0,0.0023928226,1114658,-941,123,-3234,-11
51382194,4198,0,0.52449703,1.4245714,-9.684052,-0.0011550372,0.00088022224,-0.03762149,52.125,78.0,0.0023928226,1114658,1069,745,-3137,11103
51484034,4179,0,0.1758161,-0.55715615,-9.834579,-0.014066156,-0.004484325,-0.038700093,52.125,78.0,0.0023928226,1114658,1336,-734,-3541,-11
51587966,4150,0,1.1655354,0.9570172,-9.677907,0.009007391,0.009229125,-0.040348243,51.875,78.0,0.0023928226,1114658,-586,-934,-3588,11108
51686667,4200,0,0.6427567,0.7603002,-9.907359,-0.010023609,-0.00527861,-0.036273677,52.0,78.0,0.0023928226,1114658,1110,460,-2495,8193
51788544,4205,0,-0.3922015,-0.65214545,-9.634776,-0.0053159264,0.0019676213,-0.04256551,52.125,78.0,0.0023928226,1114658,27,569,-3778,11115
51892544,4278,0,1.2266368,1.1069497,-9.621765,-0.001343532,0.0014329391,-0.037557114,52.125,78.0,0.0023928226,1114658,55,16,-3298,11119
51994317,4192,0,0.4099841,-0.3249828,-9.842651,-0.0014093901,-0.006050597,-0.0405731,52.0,78.0,0.0023928226,1114658,1266,-1567,-3794,10702
52096167,4201,0,0.038770296,-0.58767694,-9.956312,0.019266859,0.010203384,-0.04280401,52.0,78.0,0.0023928226,1114658,-1160,2708,-2559,-11
52196966,4199,0,0.9714106,1.52929,-9.62815,-0.006995191,0.0041918885,-0.037656207,52.0,78.0,0.0023928226,1114658,339,-575,-3413,8192
52297768,5248,0,0.18536764,0.24387352,-9.687956,0.01211074,-0.014006707,-0.04914378,52.0,78.0,0.0023928226,1114658,1613,695,-4130,11135
52400678,4152,0,0.18092185,-0.81386703,-9.980522,0.0041710082,0.009098853,-0.038607705,52.0,78.0,0.0023928226,1114658,-586,1388,-2591,-11
52502526,4209,0,0.3680922,1.426569,-9.6201,-0.0016617491,-0.0008817811,-0.037020862,52.0,78.0,0.0023928226,1114658,667,253,-3354,2048
52600192,4226,0,0.13573875,0.5291477,-9.927483,0.00037100437,-0.008665178,-0.04027604,52.0,78.0,0.0023928226,1114658,1169,703,-2805,8193
52700966,4200,0,0.008735894,-0.6999995,-9.5982685,0.0074944263,0.005689133,-0.038128506,52.0,78.0,0.0023928226,1114658,-990,1322,-3517,-11
52802873,4256,0,0.6526506,0.8419336,-9.677214,0.0026815918,0.0043043722,-0.043489836,52.0,78.0,0.0023928226,1114658,631,1168,-4047,10703
52904675,4090,0,-0.14127803,-0.15953396,-9.838334,-9.807919e-05,-0.0040237196,-0.04105513,52.0,78.0,0.0023928226,1114658,783,603,-2629,8193
53006517,4200,0,-0.16692996,-0.08081939,-9.543423,0.016017167,0.011484169,-0.037435737,52.0,78.0,0.0023928226,1114658,-1286,2504,-3708,-11
53110473,4206,0,0.050658707,0.64116627,-9.884184,-0.0025718417,-0.010492309,-0.046245143,52.125,78.0,0.0023928226,1114658,1751,1367,-3339,8192
53211302,4235,0,-0.64773554,-1.1198075,-9.89084,0.0016394402,-0.004680666,-0.04339443,52.0,78.0,0.0023928226,1114658,137,1013,-2503,8192
53313158,4242,0,0.97527623,0.5594264,-9.815809,0.008627391,0.0151673835,-0.041460548,52.125,78.0,0.0023928226,1114658,-626,1227,-3496,-12
53412867,4200,0,0.34344563,1.536821,-9.553238,-0.0011960207,0.0005448583,-0.043986652,52.0,78.0,0.0023928226,1114658,1482,784,-4120,8192
53514717,4201,0,-0.5622897,-1.1794952,-10.001614,0.00044121564,-0.009295309,-0.04315467,52.0,78.0,0.0023928226,1114658,405,1203,-2685,-12
53616603,4237,0,1.3454963,0.38839662,-9.749206,0.011796944,0.011475392,-0.04131642,52.0,78.0,0.0023928226,1114658,-648,523,-2368,11190
53717381,4214,0,0.5601885,0.825588,-9.7067995,-0.010819076,-0.0049799243,-0.04252219,52.0,78.0,0.0023928226,1114658,825,-1194,-2874,11180
53819261,4234,0,-0.5441331,-0.8365991,-9.917713,-0.0007665127,0.0020824783,-0.04089089,52.0,78.0,0.0023928226,1114658,-335,2604,-3298,-12
53921066,4199,0,1.2736934,1.3481609,-9.738176,-3.5347894e-05,0.0035403443,-0.044113547,52.125,78.0,0.0023928226,1114658,459,-505,-2191,11185
54021867,4199,0,0.055636358,0.17679447,-9.932388,0.0007356508,-0.015663465,-0.03946421,52.125,78.0,0.0023928226,1114658,1428,1123,-2363,2048
54123726,4210,0,-0.17220499,-1.0995402,-9.606209,0.017802715,0.0139500275,-0.039267756,52.0,78.0,0.0023928226,1114658,-1246,1837,-3687,10718
54225566,4150,0,0.764721,1.5997319,-9.579689,-0.0010922005,0.0005115512,-0.04094163,51.875,78.0,0.0023928226,1114658,1067,1633,-3548,2048
54325365,4209,0,0.0969451,0.13045384,-9.841776,0.0013425841,-0.0111672385,-0.044827204,52.125,78.0,0.0023928226,1114658,1458,-714,-2764,11197
54427167,4200,0,-0.6839843,-0.72177154,-9.72442,0.008963416,0.0042427257,-0.03511889,52.0,78.0,0.0023928226,1114658,-1306,3175,-2858,8193
54529017,4200,0,2.119659,1.2569588,-9.6135645,-0.0023876089,0.0066809063,-0.040728625,52.25,78.0,0.0023928226,1114658,699,-1638,-4234,8193
54635067,4146,0,-1.1326858,-1.0731397,-9.659461,0.009127546,-0.0037746278,-0.037653755,52.125,78.0,0.0023928226,1114658,-939,2445,-4083,11219
54732717,4167,0,0.47194394,-0.30047408,-9.988159,0.009528122,0.011146445,-0.04208277,52.125,78.0,0.0023928226,1114658,-1033,1887,-3339,11214
54833518,4177,0,1.3166608,1.4453683,-9.470748,-0.0050830534,-0.0008327842,-0.035254322,52.0,78.0,0.0023928226,1114658,843,-1256,-3395,16976
54939625,4259,0,-0.051448934,-1.3354079,-10.040903,0.009942269,0.0018655009,-0.04230714,52.125,78.0,0.0023928226,1114658,-902,1496,-2409,-11
55041417,4123,0,0.85556513,1.2406864,-9.6207,-0.011203725,0.009491633,-0.03627886,52.0,78.0,0.0023928226,1114658,-230,-80,-3690,11215
55143267,4186,0,-0.5891166,0.24092321,-9.530426,-0.0040775687,-0.013009907,-0.044922255,52.0,78.0,0.0023928226,1114658,1731,1302,-4428,11229
55245162,5285,0,0.3672255,-1.0257667,-9.911437,0.00787052,0.00869004,-0.05465282,52.0,78.0,0.0023928226,1114658,-720,1207,-3323,8192
55346996,5279,0,1.1027141,1.4263663,-9.660153,-0.004297257,0.0054995297,-0.051546667,52.0,78.0,0.0023928226,1114658,257,-582,-3180,11236
55448816,5209,0,-0.20928575,-0.3949329,-9.956224,-0.01011709,-0.009377685,-0.04829795,51.875,78.0,0.0023928226,1114658,712,58,-3720,-12
55550667,5244,0,-0.021602703,-0.19298501,-9.812362,0.015815875,0.01259073,-0.052339643,52.25,78.0,0.0023928226,1114658,-322,2186,-3173,8193
55649382,4216,0,1.3478528,1.4309064,-9.837631,0.0056658387,0.008024457,-0.048796605,52.125,78.0,0.0023928226,1114658,950,269,-3343,11247
55755460,5250,0,-1.0160179,-0.8152022,-9.9373455,-0.007655901,-0.0017918502,-0.04898909,52.125,78.0,0.0023928226,1114658,552,1140,-3268,-12
55855167,4166,0,0.77153903,0.11422261,-9.842637,0.01196018,0.014079409,-0.043560658,52.0,78.0,0.0023928226,1114658,-306,1369,-3404,8192
55955967,4171,0,0.7997174,1.5285436,-9.769802,-0.014405603,-0.0007351216,-0.046711195,52.125,78.0,0.0023928226,1114658,1346,-590,-2600,0
56062051,4202,0,-0.0741317,-1.009656,-9.94846,0.005078841,0.0032392165,-0.040932547,52.0,78.0,0.0023928226,1114658,-126,1899,-2997,0
56161777,4210,0,1.3929958,0.9534051,-9.564574,-0.0010652042,0.01040922,-0.042070247,52.125,78.0,0.0023928226,1114658,-328,-1050,-2709,-12
56260544,4278,0,0.15158473,1.3871622,-9.615823,-0.001731292,-0.0068765953,-0.043047953,52.125,78.0,0.0023928226,1114658,1673,542,-2635,11253
56362317,4155,0,-0.030068865,-1.1360958,-9.946601,-0.0024687545,-0.00039110362,-0.04001857,52.125,78.0,0.0023928226,1114658,-71,-551,-3613,11248
56464167,4201,0,1.0610621,0.8907934,-9.726437,0.012602334,0.0103500895,-0.045473233,52.125,78.0,0.0023928226,1114658,169,1065,-3495,8192
56566050,5284,0,0.11283711,0.47278336,-9.948772,-0.014927765,-0.014102075,-0.053251415,52.125,78.0,0.0023928226,1114658,1127,-61,-2894,0
56666873,4254,0,-0.30480084,-1.0193788,-9.700964,0.003555184,0.0037267369,-0.038581684,52.0,78.0,0.0023928226,1114658,-1034,1012,-3967,10729
56770777,6233,0,1.3900993,1.418127,-9.765463,0.002184649,0.003919534,-0.0611508,52.125,78.0,0.0023928226,1114658,1331,-746,-2451,11269
56872627,4154,0,-0.6450962,-0.6101053,-9.714316,0.007990177,-0.002705044,-0.04088104,52.25,78.0,0.0023928226,1114658,35,1339,-3901,11269
56976609,4228,0,0.70181096,0.71049833,-9.743696,0.014665553,0.009014235,-0.045657836,52.25,78.0,0.0023928226,1114658,-586,2274,-2626,11280
57074217,4144,0,0.99610883,1.339575,-9.708772,-0.0022014359,0.0019307858,-0.04240736,52.125,78.0,0.0023928226,1114658,1561,-740,-3652,11268
57175017,4115,0,-0.24108188,-0.2683284,-9.887998,-0.013679821,-0.009567155,-0.041636344,52.25,78.0,0.0023928226,1114658,736,-937,-1861,10733
57276867,4160,0,1.3443576,-0.25758964,-9.949441,0.012066552,0.012794305,-0.035584107,52.125,78.0,0.0023928226,1114658,-746,104,-3540,11279
57377667,4162,0,0.18807119,1.2992766,-9.589817,-0.008744126,0.0052860505,-0.040612187,52.125,78.0,0.0023928226,1114658,1028,791,-4408,8193
57479517,4200,0,-0.44163704,-0.4192212,-9.970215,0.0053316616,-0.0075374045,-0.0432992,52.125,78.0,0.0023928226,1114658,1299,1550,-3134,-11
57581367,4155,0,0.389899,0.29101345,-9.727684,0.011339254,0.013881938,-0.036059782,52.0,78.0,0.0023928226,1114658,-680,1918,-3541,2049
57683217,4199,0,0.19550803,0.8970506,-9.5935955,-0.0072395904,-0.011967245,-0.045281086,52.125,78.0,0.0023928226,1114658,2354,572,-3993,11297
57787176,4160,0,0.08080194,-0.6315988,-9.556004,0.004856118,0.008710014,-0.031870976,52.125,78.0,0.0023928226,1114658,-1306,875,-3818,8193
57889019,4202,0,0.91880953,1.3392725,-9.720135,0.00018254382,0.0021370323,-0.042969223,52.125,78.0,0.0023928226,1114658,1323,-176,-3041,8192
57991923,4158,0,-0.26493263,-0.5563212,-9.669858,0.008287306,-0.0036505705,-0.03806775,52.125,78.0,0.0023928226,1114658,445,1497,-4389,-11
58093811,4244,0,0.85348785,0.15889148,-9.911606,0.0067112194,0.011865452,-0.04725903,52.125,78.0,0.0023928226,1114658,545,1210,-3395,16976
58195673,4220,0,-0.0129715875,0.67162025,-9.7642145,-0.01052614,-0.009310496,-0.0395914,52.125,78.0,0.0023928226,1114658,778,-450,-3506,10734
58297467,4147,0,0.12949818,-0.5005016,-9.766121,-0.0024340393,0.0016215644,-0.043054584,52.0,78.0,0.0023928226,1114658,46,892,-3781,11314
58399317,4195,0,1.6525785,1.1066968,-9.777246,0.0052354713,0.0027473029,-0.039685152,52.125,78.0,0.0023928226,1114658,196,-625,-2473,10741
58500161,4230,0,-0.81293875,-0.056867283,-9.711629,-0.010352545,-0.011098175,-0.038758516,52.125,78.0,0.0023928226,1114658,740,911,-3571,11329
58601966,4200,0,0.5518412,-0.90891397,-9.907526,0.0049423715,0.013320441,-0.044355605,52.0,78.0,0.0023928226,1114658,-1163,337,-3577,-11
58703821,4142,0,0.7725067,1.708089,-9.539624,-0.008168752,-0.0012855616,-0.03490759,52.125,78.0,0.0023928226,1114658,653,-446,-2830,11326
58805681,5232,0,0.24031067,-0.70887643,-9.836521,0.009114608,-0.009591771,-0.05238374,52.125,78.0,0.0023928226,1114658,876,495,-3859,8193
58907517,5251,0,0.16168861,-0.2525642,-9.925867,0.00076769496,0.016200747,-0.047407165,52.25,78.0,0.0023928226,1114658,-314,1168,-2485,-11
59009369,5210,0,0.36007848,1.1823393,-9.695253,-0.0008892387,-0.0046981955,-0.04949389,52.125,78.0,0.0023928226,1114658,917,727,-3409,-11
59110234,4268,0,-0.74402505,-0.64229107,-9.646434,-0.0070369015,-0.0016307019,-0.039919965,52.125,78.0,0.0023928226,1114658,278,836,-4196,-11
59216229,4212,0,1.7360168,1.0266563,-9.624674,-0.009723162,0.0028027715,-0.033221927,52.125,78.0,0.0023928226,1114658,376,-1870,-3071,0
59313866,4151,0,-0.17655686,0.3283562,-9.570237,-0.0128031485,-0.01170107,-0.037903637,52.125,78.0,0.0023928226,1114658,782,133,-3101,8192
59415721,4204,0,-0.82830966,-1.0323563,-9.785667,0.00794014,0.0033168532,-0.03970259,52.125,78.0,0.0023928226,1114658,-666,3362,-4172,10744
59517567,4165,0,1.7541506,1.5837338,-9.675085,0.0027528033,0.0066559706,-0.03795515,52.125,78.0,0.0023928226,1114658,806,-729,-2898,11353
59620520,4254,0,-0.6155835,-0.57728547,-9.66925,0.0031057468,-0.014153916,-0.039468616,52.125,78.0,0.0023928226,1114658,1327,490,-4454,11355
59722316,4169,0,0.5044215,-0.508145,-10.023948,-0.003872485,0.015701337,-0.03857849,52.125,78.0,0.0023928226,1114658,-770,1406,-3018,0
59824167,4200,0,0.25334433,1.4863472,-9.577049,0.0023902103,-0.0013919112,-0.043654744,52.125,78.0,0.0023928226,1114658,1276,1046,-3506,8193
59921816,5243,0,0.04753762,0.71738374,-9.717703,0.015580268,-0.011592679,-0.05986049,52.125,78.0,0.0023928226,1114658,1559,1379,-3719,-11
60024717,4183,0,-0.6054965,-0.829745,-9.9530325,0.014439326,0.0066343048,-0.03758093,52.125,78.0,0.0023928226,1114658,-1147,2786,-2866,8193
60126566,4199,0,1.3772442,1.4215914,-9.518807,-0.0057507004,0.0024044574,-0.040633198,52.125,78.0,0.0023928226,1114658,566,-534,-4202,-11
60226326,4132,0,-0.1565813,-0.47472367,-9.9317255,-0.005282438,-0.008154994,-0.036422484,52.125,78.0,0.0023928226,1114658,1140,164,-3546,11371
60331323,4165,0,0.8306992,0.57600725,-9.689928,0.016915776,0.012359418,-0.037542343,52.0,78.0,0.0023928226,1114658,-654,913,-2893,11376
60433212,4245,0,0.7647353,1.0494546,-9.713187,-0.0058116443,-0.009931361,-0.041555822,52.125,78.0,0.0023928226,1114658,1751,387,-3886,2049
60535024,4130,0,-0.5711669,-1.2115936,-9.692996,-0.00035553295,0.0023488137,-0.044804625,52.25,78.0,0.0023928226,1114658,-74,76,-3940,11391
60636867,4200,0,1.1588736,1.0689852,-9.745709,0.010741828,0.007312509,-0.043100704,52.125,78.0,0.0023928226,1114658,-30,1418,-2768,10747
60738733,5233,0,0.014548612,0.37534878,-9.754043,-0.011370485,-0.013365159,-0.049240254,52.25,78.0,0.0023928226,1114658,784,-734,-3063,8193
60840582,5265,0,-0.36925578,-0.8868089,-9.613492,0.014032469,0.00794866,-0.046518117,52.0,78.0,0.0023928226,1114658,-984,2956,-4075,-12
60941370,4158,0,1.7053915,1.4294252,-9.825446,-0.004381366,0.004284209,-0.04314357,52.125,78.0,0.0023928226,1114658,1211,-772,-3579,11384
61045349,5282,0,-1.1222305,-0.86049443,-9.73977,-0.0020646043,-0.008785659,-0.0478806,52.0,78.0,0.0023928226,1114658,343,281,-3634,11400
61147167,5251,0,1.5333498,0.45996112,-9.786662,0.011879868,0.017716475,-0.04792221,52.125,78.0,0.0023928226,1114658,-312,360,-3818,8193
61249020,5222,0,0.011243768,1.2361094,-9.794419,-0.007077975,-0.0116776405,-0.055660095,52.125,78.0,0.0023928226,1114658,1753,1029,-2736,-12
61349817,4201,0,-0.26689187,-1.5309529,-10.035437,-0.009280427,-0.0021920167,-0.04130108,52.125,78.0,0.0023928226,1114658,-737,237,-3182,8193
61453792,5241,0,1.403228,1.6377275,-9.586041,-0.004088942,0.006070357,-0.052044246,52.0,78.0,0.0023928226,1114658,942,-1530,-2868,8193
61555650,5283,0,-0.1039394,-0.4460763,-9.830926,0.004423631,-0.015261576,-0.050835464,52.25,78.0,0.0023928226,1114658,935,1203,-3280,-12
61654316,4165,0,-0.3618181,-1.1518078,-9.906453,-0.0071154567,0.0042981,-0.034443375,52.25,78.0,0.0023928226,1114658,-1554,760,-2666,8192
61754150,5334,0,1.2915167,1.2618786,-9.545449,0.0056358906,0.011534386,-0.04537448,52.25,78.0,0.0023928226,1114658,-218,-377,-2984,11421
61858073,4257,0,-0.28337964,-0.5877798,-9.984641,-0.0004957084,-0.01107343,-0.038471293,52.125,78.0,0.0023928226,1114658,1039,-1075,-2579,10752
61961966,4200,0,2.0756123,1.1148218,-9.709023,0.021604754,0.009915025,-0.044072352,52.0,78.0,0.0023928226,1114658,735,625,-3592,-11
62063838,4185,0,0.3730523,-0.030444229,-10.011637,-0.0032998018,-0.010017036,-0.043696847,52.25,78.0,0.0023928226,1114658,1019,-665,-2718,-11
62164673,4179,0,-1.0129545,-1.0091765,-9.847811,-0.006585014,0.0042561367,-0.035494357,52.125,78.0,0.0023928226,1114658,-1136,2010,-3781,-11
62266466,4199,0,1.7918942,1.4095427,-9.680507,0.01574875,0.0067224503,-0.042779792,52.25,78.0,0.0023928226,1114658,1209,-381,-3231,-11
62366217,5250,0,-0.29159996,0.58602405,-9.798748,-0.009117043,-0.012277104,-0.05413352,52.25,78.0,0.0023928226,1114658,1678,705,-2731,11430
62469159,4206,0,0.694453,-0.65792817,-9.95651,0.007882685,0.014090178,-0.03676752,52.0,78.0,0.0023928226,1114658,-1159,650,-3374,2048
62570996,4215,0,0.8818462,1.451328,-9.672395,-0.008065156,-0.0051563014,-0.04346862,52.25,78.0,0.0023928226,1114658,1648,-423,-3062,2049
62672817,4195,0,-0.3206256,-0.89754474,-10.058613,-0.00046360824,-0.0050504063,-0.03683987,52.125,78.0,0.0023928226,1114658,537,830,-2775,8193
62772604,4238,0,-0.17939839,0.07064617,-9.432072,0.012069499,0.014410689,-0.037517026,52.25,78.0,0.0023928226,1114658,-862,2464,-4674,11447
62873375,4208,0,0.7808466,1.5785217,-9.704485,0.0052551185,0.0010043089,-0.04271986,52.125,78.0,0.0023928226,1114658,2275,1339,-3738,10750
62977320,4162,0,-0.7188669,-1.1445509,-10.006053,-0.007061259,-0.0009038245,-0.03700336,52.125,78.0,0.0023928226,1114658,-550,1272,-3428,10749
63079180,4170,0,1.0442053,1.1380335,-9.556059,0.01245294,0.009896203,-0.044716794,52.125,78.0,0.0023928226,1114658,471,90,-3616,8193
63180010,4164,0,0.24175297,0.5330117,-9.785006,-0.0048740576,-0.0104795545,-0.044304736,52.375,78.0,0.0023928226,1114658,1622,914,-2737,8193
63281817,4200,0,-0.17382777,-0.77576786,-9.776313,0.0042225798,0.0014354102,-0.03883231,52.25,78.0,0.0023928226,1114658,-1115,1242,-2944,11464
63383720,4244,0,0.92958117,0.9570414,-9.388888,-0.009469742,0.0050968053,-0.037597217,52.125,78.0,0.0023928226,1114658,454,-183,-4432,10763
63483416,5192,0,0.0015824382,0.415207,-9.747557,0.0047349515,-0.005671126,-0.051634725,52.375,78.0,0.0023928226,1114658,1063,551,-3343,8192
63585358,5341,0,-0.307611,-0.8133349,-10.033534,0.0053339098,0.004676354,-0.054176506,52.125,78.0,0.0023928226,1114658,-396,2249,-2397,11462
63683967,4192,0,1.261179,0.9141987,-9.796609,0.010249971,0.0075470656,-0.04260475,52.125,78.0,0.0023928226,1114658,57,35,-2539,11465
63790073,4230,0,-0.3735312,-0.7239129,-9.89377,0.010475009,-0.009259127,-0.043903675,52.25,78.0,0.0023928226,1114658,1497,1820,-3932,10755
63886617,4201,0,0.18712886,-1.1742281,-10.030218,-0.01523277,0.0051572407,-0.041547384,52.125,78.0,0.0023928226,1114658,-654,-462,-3696,-12
63993717,5146,0,-0.1347586,1.3430513,-9.321552,-0.013786745,-0.005796674,-0.051309228,52.25,78.0,0.0023928226,1114658,1573,1339,-5219,-12
64094518,4202,0,0.61075675,-1.07524,-9.741767,-0.0025739714,-0.008298397,-0.0387592,52.25,78.0,0.0023928226,1114658,899,-1605,-4105,8193
64194267,4147,0,0.21030204,-0.16479759,-9.700787,-0.0033624962,0.011750989,-0.045676317,52.125,78.0,0.0023928226,1114658,-550,925,-3010,16976
64295067,4110,0,0.12747271,0.927373,-9.674176,-0.0063804197,-0.003328865,-0.04069689,52.25,78.0,0.0023928226,1114658,780,1464,-3067,11472
64396933,5189,0,0.21803811,-0.18414749,-9.791198,-0.0005984465,-0.0031121387,-0.05040902,52.25,78.0,0.0023928226,1114658,318,-1019,-3890,11473
64498808,5291,0,0.6258318,0.09363331,-9.674152,0.029286506,0.009938208,-0.06462825,52.125,78.0,0.0023928226,1114658,130,3163,-3697,2049
64600617,5251,0,-1.3667767,-0.51720816,-9.730605,-0.01957975,-0.0057317135,-0.050734036,52.25,78.0,0.0023928226,1114658,491,14,-4315,10769
64701417,4109,0,1.9932839,1.2094039,-9.572059,-0.0065761143,-0.0012001694,-0.036286093,52.125,78.0,0.0023928226,1114658,1831,-1655,-4821,11487
64805396,5250,0,1.4556388,0.9126557,-9.7460985,0.0053544063,-0.008185587,-0.054430854,52.25,78.0,0.0023928226,1114658,1900,-749,-3239,11491
64907217,5240,0,1.2887212,1.0515155,-9.912932,0.014516454,0.0022525177,-0.059092853,52.25,78.0,0.0023928226,1114658,1656,1639,-3217,11495
65009067,5250,0,1.9794657,1.2009599,-9.435597,0.0011366701,0.00941228,-0.053608757,52.25,78.0,0.0023928226,1114658,271,-994,-5065,-12
65109867,4200,0,1.6662357,1.4353251,-9.53932,0.0090695135,0.010138031,-0.041351277,52.25,78.0,0.0023928226,1114658,643,-102,-3123,-12
65213861,4244,0,0.10057557,0.21171072,-9.463736,0.01754195,0.019094786,-0.044574488,52.25,78.0,0.0023928226,1114658,-930,1988,-4811,16977
65313578,4174,0,-0.27458766,-0.9694489,-9.733891,0.0051148776,-0.010632635,-0.03674287,52.375,78.0,0.0023928226,1114658,-312,674,-3667,16977
65416616,4350,0,0.59073085,1.2130846,-9.603733,6.0363054e-05,0.0014876993,-0.03940138,52.25,78.0,0.0023928226,1114658,528,-51,-4263,-12
65514125,5258,0,0.535476,-0.32777095,-9.807283,-0.0012377271,-0.0072960053,-0.045184173,52.25,78.0,0.0023928226,1114658,447,-36,-3321,11512
65615996,4214,0,0.2031515,0.39458364,-9.719965,0.020465612,0.0043281186,-0.045713767,52.25,78.0,0.0023928226,1114658,-391,1744,-3068,0
65719917,4173,0,-0.40375146,-0.50793755,-9.848261,-0.0071467427,-0.0089543285,-0.042271845,52.375,78.0,0.0023928226,1114658,1374,1417,-2643,8193
65821767,4175,0,0.35239008,0.17930683,-9.576516,0.008136507,0.01599207,-0.039669435,52.375,78.0,0.0023928226,1114658,-563,1609,-4328,11516
65924667,4126,0,0.414319,0.5292151,-9.718073,-0.0063261264,-0.013714835,-0.041475944,52.125,78.0,0.0023928226,1114658,1014,-1034,-3088,8193
66030717,4201,0,0.4753889,-0.4174728,-9.720445,0.024611909,0.012364707,-0.04384298,52.25,78.0,0.0023928226,1114658,-1195,1790,-3040,8192
66128366,4197,0,1.8387172,1.4009134,-9.751403,-0.0077294167,0.0021979616,-0.042494178,52.25,78.0,0.0023928226,1114658,1008,-1304,-2834,-12
66230249,4170,0,-0.9669655,-0.5324118,-9.842376,-0.0020118952,-0.0060374215,-0.038028143,52.125,78.0,0.0023928226,1114658,1227,763,-4453,-12
66334197,4231,0,0.31898677,1.1386007,-9.20423,0.008284868,0.009086016,-0.038166698,52.125,78.0,0.0023928226,1114658,-416,1950,-3126,11526
66432867,6300,0,0.86681354,1.4340323,-9.7169895,-0.0045771436,-0.0069707166,-0.062457636,52.25,78.0,0.0023928226,1114658,1399,295,-3252,-12
66536817,4175,0,-0.61870915,-1.1333965,-9.894915,-0.01087483,0.002982415,-0.03959715,52.375,78.0,0.0023928226,1114658,-658,1311,-3125,11533
66634466,4199,0,0.47919816,0.675432,-9.597851,0.012345858,0.019529471,-0.04101176,52.25,78.0,0.0023928226,1114658,-147,1526,-3755,8192
66736316,4150,0,0.6746477,1.175946,-10.065003,-0.018073523,-0.011264865,-0.04388273,52.125,78.0,0.0023928226,1114658,1813,-654,-2501,0
66838194,4228,0,-0.96388113,-1.5176079,-9.827277,-0.009364696,-0.004587192,-0.039945263,52.25,78.0,0.0023928226,1114658,-594,1521,-3963,8192
66943167,4171,0,1.3509198,1.4612192,-9.769762,-0.00041471163,0.004474585,-0.040676974,52.25,78.0,0.0023928226,1114658,377,541,-2756,8193
67045018,4201,0,-0.4561295,0.15700091,-9.739448,0.0054272865,-0.008697904,-0.036955554,52.25,78.0,0.0023928226,1114658,1018,421,-3230,2048
67148974,4207,0,0.6975821,-0.021240283,-9.782533,0.012782406,0.00954093,-0.03881899,52.25,78.0,0.0023928226,1114658,-19,1637,-3397,10779
67250873,4257,0,0.74290806,0.8486145,-9.659569,-0.00540029,-0.002747712,-0.03781477,52.375,78.0,0.0023928226,1114658,582,255,-3972,10772
67351685,4269,0,-0.47881937,-0.4835459,-9.746051,-0.0063351304,-0.0030437142,-0.043372564,52.25,78.0,0.0023928226,1114658,354,208,-4627,10773
67453508,4154,0,0.8336358,0.36944005,-9.8638525,0.0031867737,0.008790906,-0.041205205,52.25,78.0,0.0023928226,1114658,-186,305,-3245,2048
67559517,4200,0,0.0012270005,-0.48728943,-9.805972,0.0019935905,-0.011817067,-0.04778071,52.375,78.0,0.0023928226,1114658,894,1373,-3522,8193
67657167,5250,0,-0.22918262,-0.8849259,-9.943552,0.0014873199,-0.0021351846,-0.047648888,52.375,78.0,0.0023928226,1114658,557,1128,-3572,8192
67760067,4200,0,0.47531486,0.9972806,-9.835617,0.007350872,0.010058005,-0.0413136,52.375,78.0,0.0023928226,1114658,-241,1266,-2187,11563
67861916,4200,0,0.788139,0.70369697,-9.820354,-0.0086492775,-0.010979063,-0.038540643,52.25,78.0,0.0023928226,1114658,1118,-1207,-3584,-12
67963796,5280,0,-0.67597675,-0.9087942,-9.702627,0.00020615269,0.0026801545,-0.055833086,52.25,78.0,0.0023928226,1114658,205,1238,-4088,11562
68066667,4200,0,1.7958517,0.9218395,-9.671799,-0.0025881762,0.005612592,-0.04446631,52.25,78.0,0.0023928226,1114658,-194,-637,-2733,8193
68163267,4200,0,1.2105167,1.0507745,-9.663603,-0.0077520716,-0.00057983195,-0.042592812,52.25,78.0,0.0023928226,1114658,1390,-724,-4506,11570
68265158,4242,0,-0.9977656,-0.38222498,-9.746412,0.017228177,-0.0065279845,-0.04309682,52.25,78.0,0.0023928226,1114658,908,2169,-2916,-12
68367003,4236,0,1.3423612,0.4669409,-9.947877,0.005381787,0.00952642,-0.03559824,52.25,78.0,0.0023928226,1114658,-607,199,-2725,11582
68468846,5275,0,-0.0014842622,0.47517183,-9.493762,-0.005948286,-0.005930683,-0.0510113,52.25,78.0,0.0023928226,1114658,1133,661,-3805,8192
68572766,4199,0,0.30342236,-0.40487283,-10.054741,0.008397589,0.008753255,-0.03358863,52.25,78.0,0.0023928226,1114658,-1146,1518,-3334,2049
68673566,6300,0,0.56312525,1.0273855,-9.811642,-0.002019908,0.01304415,-0.06296919,52.375,78.0,0.0023928226,1114658,749,1426,-3541,16977
68775417,4164,0,-0.17643908,-0.2160064,-9.950469,-0.0009914525,-0.0130033735,-0.041751243,52.25,78.0,0.0023928226,1114658,1566,1031,-3591,11577
68877344,5326,0,0.38478017,-0.98804146,-9.751922,0.01132841,0.009333036,-0.04905942,52.25,78.0,0.0023928226,1114658,-1498,760,-3462,11590
68978165,4299,0,0.9504527,1.4274681,-9.438025,-0.00620438,0.003334841,-0.036979046,52.375,78.0,0.0023928226,1114658,441,-266,-4420,11593
69079917,4195,0,-0.120882094,-0.37739292,-9.872196,0.00010812086,-0.0054370924,-0.041782852,52.375,78.0,0.0023928226,1114658,961,-150,-3991,11598
69180717,4166,0,0.34699982,-0.1081875,-9.657207,0.019664168,0.009213948,-0.045279555,52.25,78.0,0.0023928226,1114658,-70,1952,-3745,11602
69282567,4200,0,1.1323887,0.7996395,-9.825282,0.0043656463,-0.003120224,-0.042379525,52.25,78.0,0.0023928226,1114658,766,-83,-2760,-12
69384473,4257,0,-0.6109368,-0.72932976,-9.749406,-0.0073133297,0.0006085725,-0.038213372,52.25,78.0,0.0023928226,1114658,-114,127,-3991,10792
69484202,5258,0,0.025027785,-0.13138634,-9.430797,0.018169457,0.014021074,-0.04671469,52.375,78.0,0.0023928226,1114658,-1025,1182,-4102,8193
69584966,4200,0,1.2496631,1.4532421,-9.61785,-0.007020017,0.0020790955,-0.039397303,52.25,78.0,0.0023928226,1114658,1548,-338,-4237,11606
69688916,4199,0,-0.56164044,-0.9545349,-9.800891,-0.007838106,-0.0065392866,-0.037090857,52.125,78.0,0.0023928226,1114658,209,118,-2914,11601
69790767,5250,0,1.0895752,0.13616006,-9.572565,0.0056515993,0.016096847,-0.049459886,52.125,78.0,0.0023928226,1114658,-888,59,-4735,8193
69889467,4115,0,0.9886062,1.7487228,-9.759461,-0.0028633894,0.004679007,-0.039754696,52.25,78.0,0.0023928226,1114658,1773,-498,-3722,11607
69995517,4200,0,0.5183244,-0.077018805,-9.870235,0.009419497,0.015003663,-0.04012394,52.25,78.0,0.0023928226,1114658,-726,1603,-2740,8193
70093167,4170,0,0.5950174,0.59904325,-9.782876,-0.0011824318,-0.016516965,-0.041874595,52.25,78.0,0.0023928226,1114658,1948,551,-3974,8193
70199217,5251,0,1.1629814,0.98102915,-9.535057,-0.014001818,-0.010551039,-0.051587448,52.375,78.0,0.0023928226,1114658,2128,-1330,-3785,-12
70295847,4198,0,1.0769343,0.057414114,-9.647292,0.018231144,0.020451516,-0.0353713,52.25,78.0,0.0023928226,1114658,-1558,1206,-3032,0
70397667,4168,0,1.9713013,1.2479191,-9.366613,0.005913643,0.010267737,-0.04355864,52.25,78.0,0.0023928226,1114658,29,-37,-4128,8193
70503757,4241,0,0.17456803,-0.00047491826,-9.722288,-0.01598056,-0.02333064,-0.042271037,52.375,78.0,0.0023928226,1114658,2259,-1009,-4768,11629
70601401,5243,0,0.36470306,0.31090337,-9.73755,-0.017488165,-0.025317574,-0.05474754,52.375,78.0,0.0023928226,1114658,1698,-1267,-4248,11626
70704296,4229,0,0.9497875,0.32289982,-9.748114,0.020162933,0.039389517,-0.038862847,52.25,78.0,0.0023928226,1114658,-1523,521,-4220,-12
70806212,4296,0,-0.0060385917,-2.009054,-9.8216505,0.030940378,0.014009311,-0.046841484,52.25,78.0,0.0023928226,1114658,-2212,3261,-3850,-12
70907999,4190,0,-1.0199114,-1.832021,-10.404401,0.022689668,-0.0039349655,-0.031132286,52.375,78.0,0.0023928226,1114658,-1454,2962,-1887,11653
71009817,4185,0,-1.0203813,-0.6507512,-9.664564,0.022086203,-0.011420771,-0.037731715,52.375,78.0,0.0023928226,1114658,422,3582,-3384,11643
71111758,5316,0,-1.5996873,0.32305732,-9.6985445,0.002850868,-0.03298684,-0.053479165,52.375,78.0,0.0023928226,1114658,2652,3291,-3401,11644
71926467,4155,0,0.6792722,-0.5502046,-9.64164,0.024259565,0.010172422,-0.0382828,52.25,78.0,0.0023928226,1114658,-1760,1332,-3253,10799
72028331,4173,0,-0.4163456,-0.8590721,-9.892672,0.022611897,-0.005942464,-0.03950399,52.25,78.0,0.0023928226,1114658,216,2866,-3552,2049
72125966,5249,0,0.060117166,1.0445856,-9.977806,-0.020667082,-0.010217203,-0.055208426,52.375,78.0,0.0023928226,1114658,1436,-496,-2643,8193
72227817,5218,0,1.329446,0.8141433,-9.682077,-0.030144388,0.00092886895,-0.05429541,52.375,78.0,0.0023928226,1114658,1499,-2320,-3115,11674
72332816,4199,0,-0.8741479,-0.34898052,-9.385168,0.01717798,-0.009163076,-0.029296517,52.375,78.0,0.0023928226,1114658,-178,3570,-2418,10793
72434667,4200,0,1.3925335,-0.43158278,-10.102331,0.034028813,-0.002014148,-0.047493186,52.25,78.0,0.0023928226,1114658,-364,857,-2330,8193
72536559,4242,0,-0.22533588,0.6136562,-9.669347,-0.026345436,0.004904841,-0.044043597,52.125,78.0,0.0023928226,1114658,1479,115,-3647,-12
72640544,4277,0,0.86263305,0.11355719,-9.796707,0.03406599,0.0025097723,-0.035635024,52.125,78.0,0.0023928226,1114658,398,2408,-4469,11695
72742317,4150,0,-0.77607054,0.815095,-9.594422,-0.027075928,-0.0103227915,-0.034481887,52.375,78.0,0.0023928226,1114658,1625,1142,-3827,11675
72843163,4217,0,1.328312,-0.3380098,-10.3341255,0.052170165,0.0027316313,-0.041430898,52.375,78.0,0.0023928226,1114658,-852,1785,-1179,8192
72942920,4252,0,-1.0464587,0.594981,-8.755227,-0.01937856,-0.0074252123,-0.037608575,52.25,78.0,0.0023928226,1114658,2059,656,-5387,10797
73046873,4256,0,-1.5701072,0.4253205,-9.618566,-0.049852837,-0.007226468,-0.016745107,52.375,78.0,0.0023928226,1114658,1796,357,-3749,10793
73148667,4115,0,0.6734774,0.18762773,-10.272224,-0.06461295,0.00160556,-0.036144927,52.375,78.0,0.0023928226,1114658,1085,-4811,-2113,8193
73246317,4124,0,-1.0743774,0.30394223,-8.903272,-0.06448375,-0.015065697,-0.0202411,52.375,78.0,0.0023928226,1114658,949,-896,-3912,8192
73352367,4201,0,-0.114596754,0.16570579,-10.413662,-0.056367993,0.001747222,-0.036381833,52.375,78.0,0.0023928226,1114658,668,-1465,-3126,-12
73450050,4207,0,0.93666434,-0.33438092,-9.88908,0.05178123,0.014422077,-0.07167967,52.375,78.0,0.0023928226,1114658,-1043,1941,-7651,8192
73551867,4099,0,1.7657107,0.9266469,-9.973906,0.060957998,0.0046116263,-0.03828574,52.125,78.0,0.0023928226,1114658,1667,630,-2186,11680
73656887,4220,0,2.239893,0.2673178,-9.7665825,-0.0016076958,0.009164382,-0.06596199,52.25,78.0,0.0023928226,1114658,381,-4946,-5107,2048
73758716,4199,0,2.518078,1.016764,-10.921356,0.009900993,0.0047564856,-0.019464483,52.25,78.0,0.0023928226,1114658,1888,-4583,-648,-12
73860601,4229,0,0.2899661,0.04147198,-8.837292,0.024557652,0.012280837,-0.0631917,52.25,78.0,0.0023928226,1114658,-1527,-2398,-5754,2048
73962416,6257,0,1.0044818,1.0962397,-10.328217,0.05754772,0.010474281,-0.060959943,52.25,78.0,0.0023928226,1114658,692,-3300,1932,11697
74064267,4200,0,1.9535211,0.36145037,-10.610152,-0.0123554235,0.008738694,-0.06337323,52.25,78.0,0.0023928226,1114658,1039,-3754,-4268,8192
74166161,5294,0,1.8936924,-0.31095377,-10.877113,-0.013791736,0.013076188,-0.07202896,52.25,78.0,0.0023928226,1114658,198,-5748,-2216,11716
74267967,4189,0,1.5319725,0.66657805,-10.527089,-0.046680704,0.010490954,-0.04960745,52.25,78.0,0.0023928226,1114658,-373,-5097,-1877,11712
74369816,4200,0,-0.33993778,-0.12093991,-10.186938,-0.042331938,0.011045994,-0.05132272,52.5,78.0,0.0023928226,1114658,363,-526,-4909,-12
74471774,5358,0,-1.2875494,0.30258188,-10.883472,0.04709308,0.00785925,-0.07814122,52.375,78.0,0.0023928226,1114658,1108,6993,-3271,11726
74573532,5265,0,1.1735356,0.78163683,-10.369407,-0.035636906,-0.002929441,-0.023397818,52.5,78.0,0.0023928226,1114658,627,-3606,-716,16978
74675366,5181,0,-1.1665201,0.8026625,-11.4185705,0.021445947,0.00596291,-0.06495176,52.375,78.0,0.0023928226,1114658,2283,6895,-538,-12
74778267,4124,0,-0.9585857,-0.46115556,-10.4160795,-0.033088263,0.002805451,-0.035385422,52.5,78.0,0.0023928226,1114658,-154,1530,-1288,11729
74880159,4196,0,0.13922255,0.0113318395,-9.361019,0.032069832,-0.001151827,-0.063847676,52.375,78.0,0.0023928226,1114658,-182,-152,-6246,11732
74981973,4207,0,-0.844522,1.0406923,-9.31303,0.0015143441,0.0040164534,-0.029543722,52.375,78.0,0.0023928226,1114658,1448,4439,-3895,2049
75083824,4131,0,-0.55631876,-0.60871994,-10.621594,-0.029099122,0.0036120536,-0.04632393,52.375,78.0,0.0023928226,1114658,590,791,-2791,11727
75185667,4200,0,1.3771871,-0.6808431,-10.532737,0.015033485,-0.014264108,-0.012221185,52.375,78.0,0.0023928226,1114658,1044,-1687,643,8193
75283317,4158,0,-1.1414974,-0.932083,-10.707649,-0.0057370327,0.009267075,-0.06655213,52.375,78.0,0.0023928226,1114658,-1255,4963,-1313,11731
75384123,4206,0,-1.4880879,-0.30662152,-10.194247,0.0052714543,0.016405413,-0.0625146,52.125,78.0,0.0023928226,1114658,-1561,4671,-4294,8193
75488067,4200,0,0.8999342,1.6391302,-10.436477,0.015519729,0.010742247,-0.027400127,52.25,78.0,0.0023928226,1114658,371,-1632,-1875,-12
75589956,4239,0,-0.06284225,0.56249875,-8.882474,-0.014593924,-0.006516786,-0.031225713,52.375,78.0,0.0023928226,1114658,1579,-696,-5882,2049
75691833,4253,0,1.5615351,-1.2396344,-9.568824,-0.025941228,-0.010035817,-0.016508624,52.375,78.0,0.0023928226,1114658,905,-5168,-3601,11754
75793617,4200,0,1.1365495,-0.34554097,-10.244886,0.002872573,-0.009113364,-0.0034466449,52.375,78.0,0.0023928226,1114658,709,-2802,-480,16977
75894416,4199,0,0.4156636,0.6483294,-8.691366,-0.02503075,0.0001917046,-0.0063779457,52.375,78.0,0.0023928226,1114658,279,-2354,-6585,-12
75996270,4193,0,-0.06671615,1.2366323,-8.632549,-0.029019648,-0.0016684138,-0.023956189,52.25,78.0,0.0023928226,1114658,-66,-1602,-3875,0
76098184,4208,0,1.6660138,0.84120363,-10.098164,-0.016724402,-0.012629211,-0.016496861,52.375,78.0,0.0023928226,1114658,1193,-4490,-1634,8192
76199967,4145,0,1.6356341,-0.21799478,-10.919174,0.004085424,-0.0021451062,-0.059960112,52.375,78.0,0.0023928226,1114658,296,-2425,-2135,8193
76301816,4200,0,0.62636393,-1.356191,-11.231396,0.036286302,0.00586814,-0.049856804,52.375,78.0,0.0023928226,1114658,240,889,-787,-12
76403768,5352,0,-0.19293733,0.6036699,-10.262522,0.035289913,0.01624198,-0.04950507,52.375,78.0,0.0023928226,1114658,92,4624,731,11771
76505517,5249,0,0.13794167,2.1390321,-8.195062,0.020104166,-0.0034840922,-0.05437955,52.375,78.0,0.0023928226,1114658,927,1917,-5971,-12
76605344,4278,0,-0.47314268,1.3503737,-8.135437,-0.0010117834,0.0037820335,-0.024052227,52.375,78.0,0.0023928226,1114658,1051,4556,-7395,11763
76707158,4238,0,0.013250742,-0.8928152,-8.899618,-0.034933887,-0.018051177,-0.010697879,52.375,78.0,0.0023928226,1114658,1016,-532,-4542,-12
76807920,4156,0,1.9898107,-1.0104257,-9.500188,0.00076666684,-0.0053746244,-0.011613947,52.25,78.0,0.0023928226,1114658,1565,-4245,-3729,-12
76909782,4212,0,0.6500761,-0.70243263,-9.695689,0.021160118,0.016777622,-0.04744187,52.375,78.0,0.0023928226,1114658,-1264,-2173,-3834,11776
77009521,4143,0,-0.93156934,0.024340969,-9.191201,0.0014477783,0.017796453,-0.06876995,52.375,78.0,0.0023928226,1114658,-2065,3908,-6695,11778
77111366,4199,0,0.40353784,1.0204526,-8.641539,-0.046999518,0.010481157,-0.060831826,52.375,78.0,0.0023928226,1114658,-1286,-3220,-6989,8192
77215317,4151,0,0.9283274,0.92905176,-9.543595,-0.014285489,-0.0073868996,-0.02958672,52.375,78.0,0.0023928226,1114658,1244,491,-3208,11781
77315067,5227,0,-0.2999252,-0.5137335,-10.297079,-0.038597565,-0.008002367,-0.034266744,52.375,78.0,0.0023928226,1114658,456,51,-1066,11788
77416918,5197,0,-0.5436827,-1.1452643,-9.215933,-0.039296888,-0.009686722,-0.02170326,52.375,78.0,0.0023928226,1114658,984,-3742,-1512,8192
77518805,5288,0,0.97821337,-0.14879769,-9.571846,-0.001533655,0.00642067,-0.007044572,52.375,78.0,0.0023928226,1114658,-483,-3633,-464,-12
77619588,4215,0,0.9449224,0.84233516,-8.26054,-0.0034225734,-0.0054773176,-0.02316194,52.375,78.0,0.0023928226,1114658,25,-4381,-5298,2049
77719317,4158,0,-0.14325649,1.988976,-9.604097,0.032598633,0.00018641246,-0.027137486,52.375,78.0,0.0023928226,1114658,2558,1361,-1874,8192
77823266,4199,0,1.5993457,-0.20005026,-9.745876,0.016939249,-0.018402027,-0.03729386,52.375,78.0,0.0023928226,1114658,1391,-2830,-2466,11804
77925158,4241,0,2.2741656,-0.98059094,-10.564521,0.025119528,-0.0098764105,-0.01805865,52.375,78.0,0.0023928226,1114658,723,-2121,-410,-12
78026980,4214,0,0.26844794,-0.37770167,-10.878486,0.017506767,0.0083970865,-0.028383402,52.375,78.0,0.0023928226,1114658,-134,-415,1600,-12
78125667,4200,0,-0.5999802,-0.12663044,-10.946308,0.014331396,0.0046209195,-0.045341104,52.375,78.0,0.0023928226,1114658,-320,1417,893,-12
78227523,4206,0,0.43120632,1.6674516,-9.641484,0.023815803,-0.0112865735,-0.031348426,52.375,78.0,0.0023928226,1114658,2478,1091,-1301,2049
78331467,4188,0,-1.003207,-0.20650592,-9.651482,-0.035066564,-0.02347866,-0.01667923,52.375,78.0,0.0023928226,1114658,1094,368,-6264,8192
78433365,4207,0,0.91385764,-0.94468606,-9.752103,-0.033048816,-0.0030763182,-0.004086146,52.375,78.0,0.0023928226,1114658,-165,-3913,-2148,11810
78537340,4273,0,-0.5003458,-0.26983732,-8.764421,-0.023270043,0.009862948,-0.05145331,52.375,78.0,0.0023928226,1114658,-1814,1499,-8055,10818
78639161,4217,0,-0.9566228,0.73785627,-8.242169,-0.027213,0.01103175,-0.029536566,52.5,78.0,0.0023928226,1114658,-1441,1782,-7325,8192
78739919,4191,0,0.26663512,1.3564188,-8.64427,0.01268567,-0.00012756194,-0.07892037,52.375,78.0,0.0023928226,1114658,-1044,3111,-7002,11818
78841767,4200,0,1.2426553,0.2183147,-10.0440645,0.013484186,-0.0114220055,0.0066261915,52.5,78.0,0.0023928226,1114658,2091,-315,478,-12
78943714,4290,0,-0.38836265,-1.4636992,-9.468557,-0.01535098,-0.011247184,-0.025110189,52.375,78.0,0.0023928226,1114658,1202,2318,-6571,10827
79043366,4199,0,-0.024088254,-0.7505564,-9.643707,-0.011589812,0.0009128299,-0.0080391625,52.375,78.0,0.0023928226,1114658,668,911,-1771,8192
79145328,5361,0,-0.13072826,0.7450476,-9.341159,-0.016957333,0.014988917,-0.026890004,52.375,78.0,0.0023928226,1114658,-203,1383,-2110,10816
79246122,4297,0,-0.0027915458,1.9075637,-8.62873,0.012170859,0.010323251,-0.020896709,52.5,78.0,0.0023928226,1114658,1249,3698,-3444,10811
79348917,5174,0,-0.97392243,1.286576,-9.828088,0.015397253,0.0018425392,-0.04179371,52.375,78.0,0.0023928226,1114658,1545,5195,-2268,8192
79449731,4189,0,-0.3229371,-0.20686395,-10.107375,0.012813298,-0.0019397115,-0.034992605,52.25,78.0,0.0023928226,1114658,1849,3482,-2950,2048
79551575,4208,0,-1.2068427,-1.1166108,-10.248321,-0.011284831,0.00807071,-0.030829424,52.375,78.0,0.0023928226,1114658,193,4047,-2090,2048
79657617,4187,0,-0.7790128,1.6458457,-8.93765,0.018149447,-0.00048093233,-0.040179703,52.375,78.0,0.0023928226,1114658,787,4301,-3432,11838
79759466,4200,0,-0.5201832,1.7657845,-8.628211,0.017223312,-0.0067895516,-0.04113051,52.5,78.0,0.0023928226,1114658,1037,4406,-5391,-12
79859217,5250,0,-0.8582301,0.87221247,-9.515995,-0.028601231,-0.012890923,-0.03172368,52.375,78.0,0.0023928226,1114658,2125,1927,-1978,8192
79961066,5214,0,0.9070636,-0.62045497,-9.537162,-0.017462457,-0.014219812,-0.02105675,52.375,78.0,0.0023928226,1114658,1452,-639,-3476,-12
80062928,5261,0,-0.44571853,-0.72047496,-8.713291,-0.015927052,-0.0036703951,-0.049898457,52.375,78.0,0.0023928226,1114658,342,2778,-6786,11855
80164816,5253,0,-0.83394766,0.39410573,-8.577918,0.00092974067,0.02143483,-0.0669871,52.375,78.0,0.0023928226,1114658,-542,4250,-8859,10825
80267720,4204,0,0.10529461,1.0034763,-8.341714,-0.029687895,0.008705436,-0.05788014,52.375,78.0,0.0023928226,1114658,-1619,1256,-6373,10809
80365365,4205,0,-0.33706066,2.038275,-9.323195,0.028356325,-0.0026914445,-0.031800125,52.5,78.0,0.0023928226,1114658,3398,2345,-4095,11856
80467169,4179,0,0.14979915,0.75496495,-10.105615,0.025680114,0.0024392973,-0.08384312,52.5,78.0,0.0023928226,1114658,1689,3291,-6635,8192
80567967,4185,0,-1.4990945,-1.3337098,-10.390037,-0.00041155276,-0.013460409,-0.045871135,52.25,78.0,0.0023928226,1114658,961,4696,-2937,8192
80675068,5251,0,-1.5922482,0.64778,-10.61545,0.027816992,0.019094065,-0.06890787,52.5,78.0,0.0023928226,1114658,321,5869,-1600,10819
80776916,5172,0,-0.6635221,1.6715672,-9.978089,-0.0110631855,0.016105196,-0.06093625,52.5,78.0,0.0023928226,1114658,-1455,3600,-6800,-12
80879821,4109,0,-1.0377274,1.0521314,-9.963664,-0.014828845,0.0014935281,-0.015182593,52.5,78.0,0.0023928226,1114658,1414,3870,-2972,11869
80980631,5265,0,1.1227708,-0.15092814,-10.11712,-0.029645512,-0.02188994,-0.051382277,52.5,78.0,0.0023928226,1114658,1451,-1213,-6744,11871
81081418,4125,0,-0.36458406,-1.2043452,-9.867697,-0.026761252,-0.0056920205,-0.023647608,52.375,78.0,0.0023928226,1114658,92,966,-9233,10822
81183266,4199,0,-0.9712082,-1.1867313,-11.0689945,0.011733031,-0.003948831,-0.03600049,52.375,78.0,0.0023928226,1114658,-247,2955,-2537,0
81281967,4200,0,-0.23869534,-0.61491895,-9.28474,0.013321866,0.010782337,-0.040990178,52.375,78.0,0.0023928226,1114658,-82,3704,-7875,8193
81383853,4179,0,-0.490319,2.0123713,-10.593931,0.0274068,0.0044667083,-0.04664476,52.375,78.0,0.0023928226,1114658,1313,2628,-469,-12
81485667,4200,0,0.59061277,2.1108413,-10.944021,-0.012547507,-0.0029163803,-0.012298278,52.5,78.0,0.0023928226,1114658,1711,-1573,2123,8193
81587518,4193,0,0.53195155,0.26833874,-10.708792,-0.011952525,-0.0017329672,-0.027539873,52.5,78.0,0.0023928226,1114658,1565,60,-2160,8193
