timestamp,integral_dt,error_count,x,y,z,x_integral,y_integral,z_integral,temperature,range_m_s2,scaling,device_id,x_raw,y_raw,z_raw,temperature_raw
32345296,4002,0,-0.19791745,-0.3670574,-9.899448,-0.0022608861,0.0016420799,-0.039176997,63.451523,156.9064,0.0047884034,1442826,-81,134,2008,10271
32449294,3973,0,0.4761893,0.110147394,-10.100155,0.0052132597,-0.00090700365,-0.040031943,63.44044,156.9064,0.0047884034,1442826,12,-85,2137,10267
32553303,3981,0,-0.31568164,-0.5019716,-9.810064,-0.000589334,0.0007968646,-0.03970871,63.465374,156.9064,0.0047884034,1442826,-366,-49,2056,10276
32653294,3961,0,0.042475224,0.30031213,-9.561395,-0.0007605684,-0.0049503883,-0.037787642,63.462605,156.9064,0.0047884034,1442826,416,199,1825,10275
32753300,3961,0,0.2732665,1.3348895,-10.183494,0.0024148957,0.004749758,-0.034379963,63.45983,156.9064,0.0047884034,1442826,67,-22,2221,10274
32857331,4037,0,0.23175475,1.4076663,-10.24856,0.0012161641,0.009841491,-0.037864175,63.448753,156.9064,0.0047884034,1442826,-186,229,1513,10270
32961340,4044,0,0.12439376,1.5307145,-9.556047,-0.001524215,0.004138103,-0.036560077,63.473682,156.9064,0.0047884034,1442826,55,-81,1827,10279
33061294,3995,0,0.11177081,1.432238,-9.505656,0.00018896126,0.005569446,-0.036625285,63.498615,156.9064,0.0047884034,1442826,338,-71,1743,10288
33162925,3980,0,0.1815697,1.196601,-9.595094,1.4579149e-05,-0.0086150635,-0.03715165,63.512466,156.9064,0.0047884034,1442826,543,19,1968,10293
33262870,4000,0,0.09359591,0.2174557,-9.8617115,-0.00353846,-0.01290483,-0.04166698,63.520775,156.9064,0.0047884034,1442826,639,204,2416,10296
33366902,4031,0,-0.55353105,-1.2055833,-9.943921,0.00045980493,0.00433853,-0.03850885,63.495846,156.9064,0.0047884034,1442826,-455,47,2109,10287
33466893,3993,0,0.029367264,0.052620042,-9.933745,0.0045805387,0.008486792,-0.04275129,63.495846,156.9064,0.0047884034,1442826,-666,-147,1902,10287
33570907,4014,0,0.24863541,0.8373004,-9.681114,-0.005623106,-0.0043634586,-0.039307084,63.493073,156.9064,0.0047884034,1442826,324,335,2154,10286
33670905,3997,0,-0.70241857,-0.39194873,-9.759802,-0.0063653626,-0.0055481633,-0.03893409,63.515236,156.9064,0.0047884034,1442826,310,313,2244,10294
33774925,3980,0,0.112120606,0.30314696,-9.895469,0.0066592647,0.008737939,-0.03872157,63.520775,156.9064,0.0047884034,1442826,-253,-444,1754,10296
33878925,4017,0,0.30959824,0.45345676,-9.542733,-0.0060799136,-0.006021994,-0.04592991,63.520775,156.9064,0.0047884034,1442826,351,466,2298,10296
33978894,4001,0,-0.35983425,-0.7488759,-10.08114,-0.005080983,-0.0052402257,-0.040815413,63.540165,156.9064,0.0047884034,1442826,156,235,2299,10303
34080559,4045,0,-0.23679602,-0.08985174,-9.929372,0.0009972274,0.0076107644,-0.03575433,63.523544,156.9064,0.0047884034,1442826,-473,-165,1728,10297
34180514,4000,0,-0.014307292,0.8766872,-9.300208,0.00056463794,0.0018728583,-0.037016924,63.559555,156.9064,0.0047884034,1442826,-153,51,2016,10310
34284514,3994,0,-0.1363405,-0.5040855,-9.987128,-0.0017399591,-0.005024661,-0.03939724,63.554016,156.9064,0.0047884034,1442826,463,144,2361,10308
34384514,4001,0,-0.37434196,-0.50944835,-9.960509,0.0037078983,0.008069651,-0.03637999,63.567867,156.9064,0.0047884034,1442826,-156,-268,1898,10313
34484550,4036,0,0.37691426,0.75050265,-9.480316,0.003187024,0.008847165,-0.03778643,63.556786,156.9064,0.0047884034,1442826,-245,85,2422,10309
34588514,4000,0,-0.3451697,-0.19791651,-9.962933,-0.00626773,-0.007877019,-0.04294941,63.537395,156.9064,0.0047884034,1442826,243,396,2019,10302
34688539,4019,0,-0.7233554,-0.49624202,-9.904526,0.0060901814,0.0025894863,-0.034256414,63.576176,156.9064,0.0047884034,1442826,-370,-222,1856,10316
34792521,4007,0,0.54221654,0.5948981,-9.734351,-0.006444322,-0.006636733,-0.041727435,63.584488,156.9064,0.0047884034,1442826,320,518,2010,10319
34896530,4010,0,0.31379396,0.49466255,-9.760599,0.0133838365,0.008298039,-0.03790049,63.606647,156.9064,0.0047884034,1442826,-368,-642,1575,10327
34996529,4009,0,-1.232491,-0.3850675,-10.05531,-0.012749644,-0.0035644416,-0.04325465,63.584488,156.9064,0.0047884034,1442826,423,-79,2010,10319
35098127,4032,0,1.1266648,0.6859726,-9.575542,-0.0033804623,-0.01171311,-0.04536089,63.606647,156.9064,0.0047884034,1442826,124,539,1748,10327
35202123,3984,0,0.93282586,0.46361145,-9.490024,-0.00638263,-0.010884168,-0.04084163,63.612186,156.9064,0.0047884034,1442826,-63,954,2159,10329
35302093,3999,0,0.7355832,0.19938949,-9.509889,-0.009526013,-0.0042117448,-0.04064434,63.63712,156.9064,0.0047884034,1442826,588,1041,2374,10338
35402100,3958,0,-0.92336375,-0.53040665,-9.9307375,0.0014774498,-0.0020358795,-0.036933415,63.626038,156.9064,0.0047884034,1442826,-792,-139,1676,10334
35506094,4000,0,0.3942006,0.31043577,-9.555841,-0.013592221,-0.0083293505,-0.04308249,63.63435,156.9064,0.0047884034,1442826,68,909,2620,10337
35606094,3965,0,0.80451715,0.33900034,-9.5222645,0.010043231,0.0068204864,-0.033162795,63.64266,156.9064,0.0047884034,1442826,11,222,2260,10340
35710094,3953,0,0.8000561,0.34829226,-9.832713,-0.005202695,0.0033738092,-0.044480003,63.609417,156.9064,0.0047884034,1442826,-307,607,1707,10328
35810121,4028,0,0.6294801,0.09963803,-9.556478,-0.007305037,-0.0014918873,-0.041480403,63.65097,156.9064,0.0047884034,1442826,87,937,1756,10343
35910934,4041,0,-0.31884265,0.35563698,-9.877698,-0.0128990505,0.001934232,-0.044529475,63.67313,156.9064,0.0047884034,1442826,222,316,2116,10351
36011722,4029,0,-0.29694372,-0.07364345,-9.972309,0.01760713,0.0025559054,-0.03719599,63.68144,156.9064,0.0047884034,1442826,94,-973,1717,10354
36115698,3996,0,-0.86881006,0.09689787,-9.862978,-0.004323622,0.0027299086,-0.03872318,63.68698,156.9064,0.0047884034,1442826,-462,-507,1346,10356
36215694,3988,0,0.6595252,0.25131738,-9.486806,-0.0010925909,0.0070291865,-0.04318451,63.68144,156.9064,0.0047884034,1442826,684,385,2275,10354
36315706,4011,0,-0.4640228,-0.090030044,-9.753627,0.014629621,-0.003112731,-0.038090564,63.69529,156.9064,0.0047884034,1442826,-468,-912,1472,10359
36419693,3973,0,0.6151757,0.19159319,-9.576534,-0.0010853905,0.0032058624,-0.03589044,63.69529,156.9064,0.0047884034,1442826,-50,1011,2221,10359
36519736,4043,0,0.19000679,0.56802005,-10.362388,-0.018142963,0.0025721348,-0.04292732,63.71191,156.9064,0.0047884034,1442826,631,1077,1614,10365
36623706,3972,0,0.5765215,-0.3001047,-8.76341,0.010019633,-0.0012175211,-0.041369617,63.71191,156.9064,0.0047884034,1442826,-337,-92,3512,10365
36727703,4010,0,-0.59436667,0.35242876,-9.958852,0.021149287,-0.0050112335,-0.01963145,63.742382,156.9064,0.0047884034,1442826,-724,-1225,668,10376
36829313,4843,0,-0.8512483,0.18479761,-9.6234665,-0.013558558,-0.00022034906,-0.039490722,63.71191,156.9064,0.0047884034,1442826,36,126,2317,10365
36929369,4055,0,-0.4717509,-0.2943811,-10.290743,-0.0044602854,0.0035247016,-0.05223079,63.722992,156.9064,0.0047884034,1442826,-364,298,2849,10369
37029314,4000,0,-0.81439096,0.40072277,-10.13632,0.0007476909,0.0079381885,-0.040453747,63.75346,156.9064,0.0047884034,1442826,-863,-955,1700,10380
37133314,3945,0,0.06903049,0.22542204,-10.009381,-0.009619266,0.0018442993,-0.0480247,63.759003,156.9064,0.0047884034,1442826,-582,584,1421,10382
37233313,3999,0,-0.44906005,0.24478805,-9.74874,0.0034917947,0.0055902298,-0.02271177,63.739613,156.9064,0.0047884034,1442826,92,-1158,729,10375
37333320,3999,0,0.39892069,0.37342468,-9.180923,-0.0013500002,-0.003696548,-0.05053246,63.736843,156.9064,0.0047884034,1442826,-970,245,3280,10374
37437322,3971,0,-0.16047633,0.94802314,-10.2165165,0.008575942,0.00082416786,-0.025884762,63.74515,156.9064,0.0047884034,1442826,769,-575,1634,10377
38358894,3994,0,0.3059354,0.55594516,-10.143266,0.004645263,0.008650987,-0.04484587,63.78393,156.9064,0.0047884034,1442826,-297,-432,3092,10391
38458894,3947,0,0.40797317,1.0096482,-10.404431,0.0028035701,-0.0013688861,-0.042180628,63.839333,156.9064,0.0047884034,1442826,-195,402,3086,10411
38562936,4030,0,-0.52292484,1.0357,-11.437031,0.0001828639,-0.0025378778,-0.049396023,63.825485,156.9064,0.0047884034,1442826,230,-325,1603,10406
38667702,4009,0,0.20371443,-1.2283477,-11.700171,-0.00478114,-0.008728652,-0.042450976,63.839333,156.9064,0.0047884034,1442826,243,691,2405,10411
38768494,3973,0,-0.2291292,-0.68781763,-10.778856,-0.007468207,0.00623165,-0.026200596,63.850414,156.9064,0.0047884034,1442826,211,-116,1599,10415
38868500,4006,0,-0.24583936,0.13044237,-9.7782345,-0.00030565076,0.015840743,-0.03113389,63.847645,156.9064,0.0047884034,1442826,272,-661,1510,10414
38972531,3998,0,0.3355024,0.96280223,-10.052588,0.004339993,-0.006099395,-0.049970277,63.867035,156.9064,0.0047884034,1442826,29,-234,1914,10421
39076501,4008,0,0.49889103,-0.5179743,-10.281905,-0.007659762,-0.0026427044,-0.035908926,63.894737,156.9064,0.0047884034,1442826,228,392,2787,10431
39176494,4000,0,0.016235754,-0.8894812,-10.200452,-0.0078004804,0.0052463976,-0.039671227,63.853184,156.9064,0.0047884034,1442826,-153,130,2299,10416
39280510,4010,0,-0.31533983,0.6051352,-9.910529,0.0029432438,0.009596175,-0.04958629,63.880886,156.9064,0.0047884034,1442826,-4,-281,1695,10426
39384493,4000,0,0.51760393,0.6742737,-9.5041275,-0.002720775,-0.0045645023,-0.033736516,63.861496,156.9064,0.0047884034,1442826,-534,129,2316,10419
39484514,4011,0,0.53921944,-0.113983504,-10.138953,-0.0037024694,-0.0028530483,-0.03248986,63.886425,156.9064,0.0047884034,1442826,20,307,2569,10428
39586137,4024,0,0.119461514,-1.0344285,-10.379483,-0.005075374,0.0008795756,-0.033755306,63.925205,156.9064,0.0047884034,1442826,248,12,2189,10442
39686159,3997,0,0.12919079,-0.6304828,-9.948083,-0.008746601,0.009057648,-0.042277653,63.897507,156.9064,0.0047884034,1442826,-627,199,2758,10432
39790114,4000,0,-0.15090449,1.2857605,-9.818912,0.00046142243,0.011782916,-0.05069273,63.891968,156.9064,0.0047884034,1442826,123,-341,1150,10430
39890114,4000,0,-0.14519061,1.6176243,-9.484815,0.0025297094,0.0037727617,-0.053274654,63.922436,156.9064,0.0047884034,1442826,424,-326,2513,10441
39990131,4017,0,0.25386724,0.2139301,-9.450124,-6.430666e-06,-0.007918563,-0.052147318,63.92798,156.9064,0.0047884034,1442826,-755,-246,3127,10443
40094114,3976,0,-0.19346942,-0.3933146,-9.872239,0.0043394463,0.0067806714,-0.036259837,63.94737,156.9064,0.0047884034,1442826,589,33,2188,10450
40194114,4000,0,-0.22903813,-0.13517047,-9.210259,-0.0072051245,0.01181338,-0.035748407,63.92798,156.9064,0.0047884034,1442826,-678,-4,1792,10443
40298162,4041,0,-0.029475115,1.488538,-8.825351,-0.0006427164,0.005874743,-0.036988918,63.96399,156.9064,0.0047884034,1442826,6,-614,1330,10456
40402114,4000,0,0.2372952,-0.3469586,-9.631608,0.0067231446,-0.0028941326,-0.035996955,63.94737,156.9064,0.0047884034,1442826,804,-507,1509,10450
40502114,3994,0,-0.14587913,-1.052512,-10.024462,-0.010511205,0.004063149,-0.039756794,63.96399,156.9064,0.0047884034,1442826,-297,-285,840,10456
40603693,3999,0,-0.20602968,-0.74086875,-9.577715,-0.0038724183,0.009953725,-0.039513562,64.0,156.9064,0.0047884034,1442826,-1639,604,1742,10469
40707694,4000,0,0.42823094,1.6281828,-8.656539,-0.0045536915,0.002764552,-0.03648734,63.98615,156.9064,0.0047884034,1442826,6,1165,1986,10464
40807694,3952,0,0.2877734,1.0685041,-9.337041,0.0032051092,-0.008606115,-0.021261422,63.97784,156.9064,0.0047884034,1442826,681,-75,1895,10461
40907700,4006,0,0.060390487,-0.29951233,-10.195352,0.009246367,-0.0071745226,-0.037398648,64.00554,156.9064,0.0047884034,1442826,140,-347,1041,10471
41011703,3999,0,-0.234441,-0.5117777,-10.02289,-0.0010459633,0.005196506,-0.032399766,63.99723,156.9064,0.0047884034,1442826,731,86,1059,10468
41111694,4000,0,-0.20263505,0.16748895,-8.993536,-0.0035795276,0.009530964,-0.027491262,64.058174,156.9064,0.0047884034,1442826,-216,-135,2314,10490
41215694,3988,0,-0.2102025,0.8881028,-8.408013,-0.00893909,-0.0021415774,-0.030536998,64.01662,156.9064,0.0047884034,1442826,-155,172,3641,10475
41315694,3987,0,0.15656134,0.38027856,-9.882311,0.014383488,-0.0013827462,-0.027333045,64.00277,156.9064,0.0047884034,1442826,1285,-268,1437,10470
41417293,3999,0,-0.27208686,-0.8766283,-9.8590355,-0.011775784,-0.0037376103,-0.03716767,64.01662,156.9064,0.0047884034,1442826,139,-551,1098,10475
41517339,4046,0,-0.24663,-0.85472655,-9.635919,0.0016037712,0.0009676595,-0.012976579,64.04709,156.9064,0.0047884034,1442826,240,-222,332,10486
41617296,3964,0,-0.3665262,0.6533252,-9.448179,0.004550773,0.010976225,-0.034664318,64.04986,156.9064,0.0047884034,1442826,-314,-801,1715,10487
41721351,4032,0,-0.062999524,1.219888,-9.707236,0.00044041558,0.007104907,-0.042122003,64.058174,156.9064,0.0047884034,1442826,482,-403,658,10490
41821294,4001,0,0.43490955,0.59028524,-9.392351,-0.0011494673,-0.008505067,-0.038416903,64.03601,156.9064,0.0047884034,1442826,290,75,1145,10482
41925293,3967,0,0.4006172,-1.1145647,-10.163355,0.000751431,-0.011744178,-0.037600446,64.10526,156.9064,0.0047884034,1442826,33,27,1698,10507
42025294,3958,0,-0.43521696,-0.3208371,-9.958666,-0.0037493196,0.008164308,-0.033434596,64.06925,156.9064,0.0047884034,1442826,48,-419,1692,10494
42125294,4001,0,0.33088595,0.73110837,-8.272401,0.0036536222,0.00627504,-0.014896923,64.094185,156.9064,0.0047884034,1442826,-132,698,4034,10503
42229293,3994,0,0.5787535,0.99320215,-9.648878,0.00827008,-0.007938543,-0.02512803,64.10249,156.9064,0.0047884034,1442826,640,-321,1231,10506
42330957,4043,0,0.04610927,-0.08562216,-10.9039955,0.011754823,0.0007760993,-0.044774164,64.06648,156.9064,0.0047884034,1442826,1674,-159,689,10493
42430914,4000,0,0.017104985,-0.8190953,-10.580864,-0.0056370045,0.001478079,-0.047456235,64.11357,156.9064,0.0047884034,1442826,-2,42,2410,10510
42530913,3960,0,-0.42556256,-0.86981374,-10.299488,-0.01125703,0.010249612,-0.04599597,64.11357,156.9064,0.0047884034,1442826,-633,-122,1621,10510
42634951,4031,0,-0.1183993,0.70225626,-9.374157,-0.008987049,0.0055184597,-0.023344029,64.130196,156.9064,0.0047884034,1442826,-279,249,2076,10516
42734935,4015,0,0.6576079,1.2427403,-9.416699,0.00693495,-0.0026026363,-0.04721435,64.135735,156.9064,0.0047884034,1442826,309,456,2148,10518
42838920,4007,0,0.37436458,-0.4827019,-10.334647,-0.011504669,-0.0020263854,-0.06844677,64.127426,156.9064,0.0047884034,1442826,120,211,884,10515
42938921,3998,0,0.486827,-1.4197307,-10.224015,0.0055364436,-0.005855162,-0.02324481,64.130196,156.9064,0.0047884034,1442826,-518,868,2740,10516
43038920,4006,0,-0.124373764,-0.27053577,-10.81498,0.00418988,0.004980474,-0.050118715,64.11634,156.9064,0.0047884034,1442826,327,-651,-421,10511
43142914,3928,0,0.27773693,1.6011223,-8.959397,0.005912498,0.0057177474,-0.016998015,64.14681,156.9064,0.0047884034,1442826,294,329,3768,10522
43244544,4039,0,0.13533817,1.45786,-10.267819,0.009005649,-0.005139386,-0.026578024,64.16621,156.9064,0.0047884034,1442826,569,-459,364,10529
43344501,3956,0,-0.15486978,0.13436931,-10.665593,0.0017886023,-0.0059025623,-0.04447531,64.168976,156.9064,0.0047884034,1442826,477,-798,418,10530
43448524,4023,0,-0.34551775,-1.0882096,-10.675968,0.0031531556,-0.0013629119,-0.044299077,64.19945,156.9064,0.0047884034,1442826,306,-1007,768,10541
43548503,4010,0,-0.41182315,-0.38669264,-8.941581,-0.0100431815,0.0148700625,-0.057248436,64.18005,156.9064,0.0047884034,1442826,-379,851,3779,10534
43648494,4000,0,-0.1291004,1.5080383,-8.6201515,0.0021960319,0.006117272,-0.032858487,64.19668,156.9064,0.0047884034,1442826,487,10,2009,10540
43752500,4006,0,0.29346293,0.55905443,-9.2234125,0.0037458183,-0.010634735,-0.04016436,64.18282,156.9064,0.0047884034,1442826,763,-77,1427,10535
43852512,4019,0,-0.11345506,-0.66977715,-10.129839,-0.0094082635,-0.00388845,-0.06927793,64.207756,156.9064,0.0047884034,1442826,864,-500,1084,10544
43956494,3958,0,-0.51975083,-0.3760099,-10.103579,-0.006420339,0.009840944,-0.046630476,64.22437,156.9064,0.0047884034,1442826,-338,-323,1130,10550
44060513,4019,0,-0.17919932,1.4488114,-9.0267935,-0.0024579272,0.011500284,-0.049973913,64.22714,156.9064,0.0047884034,1442826,-614,-225,2218,10551
44162113,4020,0,0.1455952,1.3498731,-8.716035,-0.007147192,0.0028688333,-0.05428994,64.254845,156.9064,0.0047884034,1442826,690,520,3194,10561
44262121,4028,0,0.18840767,0.18534409,-9.785616,0.009036119,-0.010794251,-0.04860191,64.22992,156.9064,0.0047884034,1442826,255,-665,1069,10552
44362094,3987,0,-0.04290773,-0.63177943,-9.433377,-0.013858743,-0.0053118495,-0.06280052,64.24654,156.9064,0.0047884034,1442826,-1213,343,2524,10558
44466175,4082,0,-0.15896252,-0.568328,-9.44671,-0.010629509,0.008961553,-0.049371112,64.213295,156.9064,0.0047884034,1442826,-169,139,1325,10546
44566097,4004,0,-0.33212796,1.3270903,-9.380111,0.005345082,0.016081087,-0.04996267,64.2687,156.9064,0.0047884034,1442826,391,-463,-662,10566
44666166,4073,0,-0.035750706,1.5277468,-8.552702,-0.010006215,0.0071623893,-0.04265296,64.27978,156.9064,0.0047884034,1442826,578,718,4180,10570
44770141,4041,0,0.74783087,-0.133826,-9.555871,0.012286803,-0.0143823195,-0.027854685,64.26038,156.9064,0.0047884034,1442826,-618,731,2380,10563
44870093,3978,0,-0.06459797,-0.91772616,-10.517199,-0.0032312493,-0.004482743,-0.033608336,64.27147,156.9064,0.0047884034,1442826,-223,95,3018,10567
44974095,3976,0,-0.35231093,0.12944025,-10.244619,0.0076599754,0.0029777656,-0.0336721,64.296394,156.9064,0.0047884034,1442826,-905,-481,3062,10576
45075717,3991,0,-0.52908444,1.1273767,-9.169104,-0.0065638307,0.0045170235,-0.026067352,64.30194,156.9064,0.0047884034,1442826,360,-240,3953,10578
45179720,4006,0,0.062523864,0.92358965,-10.013712,-0.0054253014,-0.0007004082,-0.052219436,64.28532,156.9064,0.0047884034,1442826,42,87,3214,10572
45279720,3997,0,0.7143198,-0.27452704,-10.116302,0.0056756586,-0.012602249,-0.027305877,64.29917,156.9064,0.0047884034,1442826,326,-197,2199,10577
45383717,3958,0,-0.29530686,-1.4325426,-10.495627,0.0050142207,-0.0037948275,-0.024647292,64.329636,156.9064,0.0047884034,1442826,-1066,761,3281,10588
45483762,4048,0,-0.25868082,0.077126734,-9.994599,0.005762294,0.012491686,-0.021201864,64.34903,156.9064,0.0047884034,1442826,500,-407,2879,10595
45583720,4003,0,0.05253204,0.78359497,-9.470577,-0.0056580743,0.017010834,-0.055973478,64.36011,156.9064,0.0047884034,1442826,524,392,1904,10599
45687714,3998,0,0.7882333,0.76089394,-8.134378,0.001674507,-0.011634871,-0.032379497,64.35734,156.9064,0.0047884034,1442826,-278,1217,2988,10598
45787716,3969,0,-0.095445454,-0.015708135,-8.589078,-0.0134540675,0.00760034,-0.0487761,64.329636,156.9064,0.0047884034,1442826,1300,207,2602,10588
45887717,3990,0,-0.57925737,-0.375361,-9.327969,-0.013643982,-0.0040213773,-0.035835143,64.33795,156.9064,0.0047884034,1442826,-305,-197,3166,10591
45993300,4006,0,0.14659734,0.6593242,-8.592975,-0.007969124,0.016251413,-0.06471824,64.31856,156.9064,0.0047884034,1442826,-748,581,462,10584
46093301,4006,0,-0.068657435,1.173246,-9.591549,-0.0039624465,0.009415178,-0.03856104,64.3518,156.9064,0.0047884034,1442826,158,-261,446,10596
46197308,4015,0,0.49018684,-0.330195,-9.410507,-0.0059446096,0.0041957526,-0.04461901,64.35734,156.9064,0.0047884034,1442826,641,1182,2474,10598
46301343,4010,0,-0.06555633,-1.2241427,-9.958999,-0.0032577268,-0.0068516033,-0.03975199,64.3795,156.9064,0.0047884034,1442826,-969,104,742,10606
46401341,4048,0,-0.68986017,0.61163664,-9.846423,-0.00010309555,0.016807131,-0.023705324,64.3795,156.9064,0.0047884034,1442826,1008,-693,952,10606
46501294,3963,0,0.2883589,1.0330501,-8.38739,0.00026068385,0.0074120658,-0.022203285,64.36842,156.9064,0.0047884034,1442826,141,159,2793,10602
46605304,4010,0,0.14746392,0.9006013,-8.999469,0.010250937,-0.004092084,-0.032352194,64.4072,156.9064,0.0047884034,1442826,615,-255,1307,10616
46705310,4016,0,-0.014869012,-0.03464267,-9.61667,-0.0112407245,-0.0015976808,-0.029525876,64.39612,156.9064,0.0047884034,1442826,977,667,3994,10612
46806936,4067,0,0.32184598,-1.0080062,-10.084296,-0.0015916075,-0.0061526536,-0.023747593,64.42382,156.9064,0.0047884034,1442826,-467,464,2602,10622
46906936,4036,0,-0.3458298,-0.9278894,-10.454105,-0.009436848,-0.0063060075,-0.041353993,64.39889,156.9064,0.0047884034,1442826,-966,-368,1342,10613
47010893,4000,0,-0.13072859,1.2433074,-9.803847,-0.0025687949,0.007871316,-0.036139444,64.42382,156.9064,0.0047884034,1442826,-860,106,1477,10622
47110894,3994,0,-0.506369,1.4963688,-9.682776,-0.006577732,0.014553516,-0.019258343,64.41274,156.9064,0.0047884034,1442826,1067,209,2861,10618
47210907,4014,0,0.075534604,0.72086185,-10.028259,-0.0031128644,0.002738215,-0.03446289,64.47369,156.9064,0.0047884034,1442826,386,111,4714,10640
47314906,3991,0,0.24421501,-0.9644602,-11.784741,0.0011699046,-0.011392441,-0.035750754,64.47092,156.9064,0.0047884034,1442826,-704,22,969,10639
47414900,4007,0,-0.27063742,-1.2346418,-10.997425,-0.006465319,-0.00030301465,-0.04099869,64.440445,156.9064,0.0047884034,1442826,-1404,145,2396,10628
47514893,4000,0,-0.3689023,0.15104862,-11.078253,-0.002750987,0.014503034,-0.05323175,64.443214,156.9064,0.0047884034,1442826,299,-721,1730,10629
47618918,4023,0,-0.12960295,0.88623345,-9.721336,-0.0013738448,-0.0018927131,-0.027107002,64.46814,156.9064,0.0047884034,1442826,-864,-273,1786,10638
47720527,4013,0,0.10752171,0.6471318,-9.864406,-0.005553027,0.0018027294,-0.054779813,64.46814,156.9064,0.0047884034,1442826,-14,-198,2529,10638
47820520,4006,0,0.21464221,-0.44371778,-10.468691,0.0025024184,-0.004361748,-0.048028402,64.46814,156.9064,0.0047884034,1442826,-481,-664,2091,10638
47924514,4000,0,-0.14929919,-0.431007,-10.301462,-0.008070744,-0.0028319473,-0.05243852,64.48753,156.9064,0.0047884034,1442826,-343,-265,365,10645
48028520,3976,0,-0.30111682,1.1555243,-9.399741,-0.0039576865,0.009094332,-0.055392705,64.49307,156.9064,0.0047884034,1442826,-262,-922,487,10647
48128539,4025,0,0.089906886,0.8100212,-8.739024,-0.0050320895,0.006635258,-0.03289423,64.50416,156.9064,0.0047884034,1442826,951,269,3603,10651
48232571,4057,0,0.0674974,-0.5159163,-10.060862,0.0034291963,-0.0013292725,-0.029064473,64.49584,156.9064,0.0047884034,1442826,1062,-98,2963,10648
48332514,3989,0,-0.24305257,-0.6663183,-9.567796,-0.0023539858,-0.0021026896,-0.034725502,64.49861,156.9064,0.0047884034,1442826,-1492,-308,3874,10649
48432514,3995,0,-0.21620436,0.3137371,-9.469137,0.008206559,0.009065503,-0.023362895,64.5097,156.9064,0.0047884034,1442826,-572,-247,3720,10653
48536514,4000,0,0.28131962,1.2435256,-9.15144,0.0036132934,0.0025449817,-0.02684926,64.556786,156.9064,0.0047884034,1442826,1005,9,2348,10670
48638119,4025,0,0.6815976,-0.007450167,-9.909791,0.003230468,-0.008081009,-0.024415787,64.554016,156.9064,0.0047884034,1442826,-389,237,1180,10669
48738121,4027,0,0.4604921,-1.2108307,-10.366229,-0.007110897,-0.016644156,-0.038114734,64.54571,156.9064,0.0047884034,1442826,-1150,592,1781,10666
48838164,4033,0,-0.25661543,-1.2667011,-10.675233,0.0006792038,-0.01301756,-0.034385484,64.518005,156.9064,0.0047884034,1442826,170,21,1126,10656
48942113,4012,0,-0.065599084,0.6894056,-9.260641,-0.002174133,0.0123698935,-0.029345028,64.562325,156.9064,0.0047884034,1442826,-645,810,2221,10672
49046093,3985,0,0.025691397,1.0668203,-8.987233,-0.010553135,0.002046821,-0.049562905,64.59003,156.9064,0.0047884034,1442826,-46,-284,1349,10682
49150094,3959,0,0.38603923,-0.57081115,-10.144688,-0.0063460227,-0.0030290943,-0.05327255,64.556786,156.9064,0.0047884034,1442826,698,74,3351,10670
49254119,4026,0,-0.42513236,-0.11675331,-10.167345,0.004090594,0.002635283,-0.02932848,64.55125,156.9064,0.0047884034,1442826,315,-446,1122,10668
49354094,3995,0,-0.5996808,0.6856027,-9.912622,0.0030508835,0.012298792,-0.03711526,64.559555,156.9064,0.0047884034,1442826,-435,-508,1350,10671
49455709,4038,0,-0.4459736,1.5594754,-9.411445,-0.0030727792,0.006300372,-0.043931335,64.58172,156.9064,0.0047884034,1442826,-90,-203,1385,10679
49559714,4044,0,0.041307285,0.32050797,-10.465931,-0.0034194482,-0.009678415,-0.058265768,64.554016,156.9064,0.0047884034,1442826,320,-761,1223,10669
49659730,4060,0,0.37859115,-1.1171097,-10.838929,-0.002217502,-0.0057562683,-0.04943302,64.598335,156.9064,0.0047884034,1442826,285,124,2414,10685
49759698,4028,0,-0.2644341,-0.81682307,-10.464157,-0.004804513,0.006028334,-0.038137622,64.595566,156.9064,0.0047884034,1442826,-516,-235,2572,10684
49863694,4001,0,-0.7201534,0.77589774,-10.089693,0.008246928,0.011962793,-0.030327654,64.61219,156.9064,0.0047884034,1442826,240,-683,383,10690
49963694,3963,0,-0.05182001,1.3404756,-9.938229,0.0036430836,0.0051001837,-0.046473898,64.62327,156.9064,0.0047884034,1442826,-192,-339,2330,10694
50063714,4021,0,0.1082551,1.1443495,-9.146879,-0.0041606077,-0.0042309705,-0.042744067,64.61496,156.9064,0.0047884034,1442826,262,90,3066,10691
50167738,4036,0,0.48361158,-0.9932465,-9.566242,-0.004097528,0.0020299845,-0.037366755,64.64543,156.9064,0.0047884034,1442826,748,888,1995,10702
50267694,3999,0,0.0111179985,-1.2567122,-9.739548,0.0017093078,-0.0025997583,-0.025584228,64.61219,156.9064,0.0047884034,1442826,194,115,1389,10690
50369327,4013,0,-0.04946843,0.68091863,-9.7616415,0.011413795,0.017761618,-0.018560676,64.634346,156.9064,0.0047884034,1442826,-280,74,237,10698
50469314,4000,0,-0.2709357,1.231471,-9.565606,0.0061933585,0.009964541,-0.022563744,64.66482,156.9064,0.0047884034,1442826,-93,-507,2116,10709
50573314,4000,0,0.2387997,0.8401571,-9.418658,0.010508639,-0.0003323339,-0.0349526,64.6482,156.9064,0.0047884034,1442826,232,-457,1697,10703
50673313,4000,0,0.2813022,-0.41568106,-9.99994,0.008837518,-0.009282729,-0.03357572,64.65651,156.9064,0.0047884034,1442826,-325,-459,247,10706
50777317,3997,0,0.09435087,-0.56553227,-10.160734,-0.0023812354,-0.0013019032,-0.050715372,64.64266,156.9064,0.0047884034,1442826,348,97,1478,10701
50877356,4006,0,0.029277336,0.4480947,-9.106159,0.00094337785,-0.0010650711,-0.04561372,64.68421,156.9064,0.0047884034,1442826,-159,479,2836,10716
50977314,4000,0,0.19489941,1.2358133,-9.251004,0.005681994,0.0056163874,-0.03746684,64.68421,156.9064,0.0047884034,1442826,135,-29,1218,10716
51081318,4004,0,0.70349294,0.59597045,-9.4829855,0.0046861693,-0.0051377574,-0.044735115,64.66759,156.9064,0.0047884034,1442826,646,682,2476,10710
51181314,4000,0,0.65175086,-0.3866447,-9.74214,0.0072528645,-0.007547835,-0.03083742,64.68144,156.9064,0.0047884034,1442826,749,692,3452,10715
52096479,4009,0,0.3587091,1.4442065,-9.663781,0.0016966732,-0.005640246,-0.04221271,64.70914,156.9064,0.0047884034,1442826,463,-203,747,10725
52300476,4006,0,-0.32808074,-0.81209004,-11.023597,-0.011051137,-0.0006080031,-0.052873466,64.76177,156.9064,0.0047884034,1442826,668,232,2807,10744
52404470,3991,0,-0.63438207,0.1557261,-10.6349125,-0.0034943032,0.015147837,-0.06697125,64.73961,156.9064,0.0047884034,1442826,-591,-415,1300,10736
52504470,4000,0,0.29323792,1.1700078,-9.616126,-0.0021303382,0.015360569,-0.03349775,64.77562,156.9064,0.0047884034,1442826,-411,455,2768,10749
52604470,3997,0,0.22043686,1.8929124,-9.49595,-0.0029578756,-0.004311369,-0.03822985,64.76454,156.9064,0.0047884034,1442826,380,-135,1847,10745
52708471,3961,0,0.564245,0.037196193,-9.962556,0.012688056,-0.009470116,-0.039678816,64.77285,156.9064,0.0047884034,1442826,683,-129,3463,10748
52908493,4000,0,-0.060101848,-1.699564,-10.330402,-0.0029459381,-0.00811431,-0.029035421,64.79778,156.9064,0.0047884034,1442826,-1209,607,1737,10757
53010169,4055,0,-0.20225295,0.30268842,-9.743416,0.011903494,0.0061515206,-0.031220283,64.76731,156.9064,0.0047884034,1442826,470,-296,1858,10746
53114114,4000,0,0.018301357,1.529846,-9.360672,0.0068689534,-0.004845712,-0.028013825,64.79778,156.9064,0.0047884034,1442826,490,-421,1416,10757
53214114,4000,0,-0.2548681,1.0815256,-10.097591,0.0027453704,-0.0057528866,-0.057886817,64.81441,156.9064,0.0047884034,1442826,-156,-715,1099,10763
53318162,4035,0,-0.025818126,-1.0595633,-10.264014,0.0030252952,-0.0039982516,-0.021956548,64.81441,156.9064,0.0047884034,1442826,586,16,1345,10763
53422114,4000,0,-0.13213979,0.016398162,-9.569112,0.003058857,0.0066457354,-0.042432643,64.828255,156.9064,0.0047884034,1442826,-307,120,1516,10768
53522134,4020,0,0.37870786,1.035852,-8.794026,0.003916649,0.00576297,-0.03200924,64.825485,156.9064,0.0047884034,1442826,-635,612,2819,10767
53626162,4011,0,0.45188686,0.7722412,-8.794751,-0.00495195,0.0068403264,-0.04135596,64.83379,156.9064,0.0047884034,1442826,486,736,3564,10770
53726160,4040,0,0.4026838,-0.34602633,-9.652298,-0.0012871405,0.0013085146,-0.024979033,64.83656,156.9064,0.0047884034,1442826,456,561,3641,10771
53826904,4736,0,0.2956123,-0.7850245,-10.250607,0.0017386453,0.002280051,-0.046780907,64.83656,156.9064,0.0047884034,1442826,-271,-123,2121,10771
53927713,4019,0,-0.28647327,-0.04842297,-10.086773,0.001643856,0.010302576,-0.042770818,64.87811,156.9064,0.0047884034,1442826,343,-462,1423,10786
54031718,4024,0,-0.0086022075,0.9427705,-9.002654,-0.008314713,-0.0028601368,-0.041004445,64.864265,156.9064,0.0047884034,1442826,12,752,3255,10781
54131694,3981,0,-0.22228223,0.87625647,-9.350922,-0.0011392366,0.0077879913,-0.0507207,64.8421,156.9064,0.0047884034,1442826,331,-191,2367,10773
54235695,3994,0,0.27263153,-0.8742658,-9.99386,-0.004255342,-0.012488254,-0.052528165,64.87811,156.9064,0.0047884034,1442826,-597,-430,1261,10786
54335695,4002,0,-0.06193284,-0.93380076,-10.186809,-0.005708238,0.0013980074,-0.032639347,64.85596,156.9064,0.0047884034,1442826,-336,295,2412,10778
54439694,3994,0,0.20098177,1.0372517,-9.55063,0.004074672,0.0075887954,-0.02894115,64.869804,156.9064,0.0047884034,1442826,541,68,673,10783
54539708,3995,0,-0.035031732,0.9467375,-9.705658,-0.0017809786,-0.0096704215,-0.035611834,64.87811,156.9064,0.0047884034,1442826,-763,23,1755,10786
54639729,4035,0,0.41596112,0.31877238,-9.209161,-0.000711821,0.0059521976,-0.034187146,64.87811,156.9064,0.0047884034,1442826,584,1067,4478,10786
54741270,3964,0,0.17781517,-0.62380487,-10.4223385,-0.0005732344,-6.1484054e-05,-0.047634978,64.900276,156.9064,0.0047884034,1442826,39,-188,1589,10794
54841275,4005,0,0.099843614,-0.5450408,-10.412715,0.00166553,-0.0044177836,-0.044020005,64.911354,156.9064,0.0047884034,1442826,1056,372,3106,10798
54945270,4000,0,-0.2996018,0.3234432,-9.502005,0.0016664085,0.009198102,-0.049121544,64.903046,156.9064,0.0047884034,1442826,372,-28,3253,10795
55045270,4000,0,0.2353063,0.68219846,-9.563153,-0.0014476057,-0.0024804238,-0.028657258,64.911354,156.9064,0.0047884034,1442826,-43,617,2445,10798
55145270,4000,0,0.4672251,0.090742506,-9.7080145,0.00034969684,0.006281547,-0.045298044,64.91412,156.9064,0.0047884034,1442826,373,134,1866,10799
55249270,3989,0,0.17054878,-0.55674314,-10.325268,0.0031990218,-0.0027903556,-0.045494076,64.95568,156.9064,0.0047884034,1442826,-125,287,2242,10814
55353333,4063,0,-0.37570998,0.38864717,-9.665961,0.00031945424,0.006871434,-0.058539852,64.908585,156.9064,0.0047884034,1442826,-363,-537,1380,10797
55453334,4064,0,-0.11461228,0.7384007,-9.684073,-0.0025644298,0.008280656,-0.028731152,64.941826,156.9064,0.0047884034,1442826,-389,348,1495,10809
55550927,4007,0,-0.21902697,0.956166,-9.222074,-0.0043388414,0.013906065,-0.038949657,64.93906,156.9064,0.0047884034,1442826,-361,-364,1661,10808
55654980,4066,0,0.13977633,-0.0065160436,-9.654651,0.0029020556,0.006987574,-0.029008672,64.944595,156.9064,0.0047884034,1442826,450,-329,1572,10810
55754914,4000,0,0.5607372,-0.6129624,-10.379361,0.0024184622,-0.012798302,-0.033737242,64.9723,156.9064,0.0047884034,1442826,642,976,2464,10820
55858914,3994,0,-0.098648936,-0.102544,-10.184552,-0.00106714,0.0030181478,-0.030940522,64.97507,156.9064,0.0047884034,1442826,-395,648,1790,10821
55958914,3977,0,-0.3225741,1.0507843,-8.936621,0.0050592297,0.0096775405,-0.031870976,64.96399,156.9064,0.0047884034,1442826,554,-200,4152,10817
56058953,4039,0,-0.22430204,0.8256885,-9.685578,-0.00021353748,-0.002581837,-0.040886313,64.91967,156.9064,0.0047884034,1442826,-844,-9,1920,10801
56162920,3965,0,0.37715527,-0.692747,-10.075167,-0.005751729,-0.007018869,-0.037607927,64.9723,156.9064,0.0047884034,1442826,-6,677,2295,10820
56262931,4017,0,-0.1980991,-0.55196244,-10.568078,-0.0043836725,0.0040954617,-0.06478793,64.99723,156.9064,0.0047884034,1442826,-29,-656,1326,10829
56362914,3993,0,-0.10966734,-0.226065,-9.878213,-0.00036559277,0.0032906854,-0.02809501,64.98892,156.9064,0.0047884034,1442826,287,300,1295,10826
56464540,4001,0,-0.50614405,1.0038024,-9.782957,0.0054970738,0.0005176144,-0.031589337,65.01939,156.9064,0.0047884034,1442826,-437,-857,1388,10837
56568510,4012,0,0.45526746,0.34242302,-9.705994,-0.00784492,-0.006737903,-0.05384492,65.01662,156.9064,0.0047884034,1442826,-2,563,1557,10836
56672495,4001,0,0.3536651,-1.13857,-10.641295,-0.003106849,-0.016028594,-0.040432204,64.99169,156.9064,0.0047884034,1442826,108,200,1053,10827
56776500,3995,0,-0.09356591,0.36046383,-10.164965,0.006225647,0.00051973615,-0.04237004,65.01108,156.9064,0.0047884034,1442826,36,-274,197,10834
56876500,4006,0,0.1837726,1.0819273,-9.140652,-0.00057250547,0.005016465,-0.035124473,65.03878,156.9064,0.0047884034,1442826,-102,269,2981,10844
56976494,4001,0,0.19391519,0.7878501,-9.106486,0.0028613992,-0.0033050831,-0.022376899,65.01385,156.9064,0.0047884034,1442826,610,249,2735,10835
57080513,4020,0,0.21739697,-0.5577491,-9.860913,-0.0013024299,0.004068367,-0.042325675,65.04155,156.9064,0.0047884034,1442826,767,177,3067,10845
57180493,3949,0,-0.16875622,-0.78730965,-10.367001,-0.0033954685,-0.004090349,-0.044844396,65.04986,156.9064,0.0047884034,1442826,-851,-463,804,10848
57282070,4000,0,-0.17333364,0.24667315,-10.184519,0.0059384573,0.000687778,-0.031242918,65.04986,156.9064,0.0047884034,1442826,816,302,966,10848
57382070,3981,0,0.051656038,0.9575959,-9.08243,0.0024617482,0.00063597574,-0.030068541,65.03878,156.9064,0.0047884034,1442826,-641,169,1672,10844
57486133,4063,0,-0.2719358,0.44030628,-9.628234,-0.0054752342,0.0028914034,-0.061760716,65.04155,156.9064,0.0047884034,1442826,-351,-906,1754,10845
57586070,4000,0,0.076656334,-0.37799802,-9.787714,0.010909024,0.002560249,-0.027436847,65.03878,156.9064,0.0047884034,1442826,1553,28,2332,10844
57686115,4045,0,0.028311506,-1.1979259,-10.630709,-0.0035880113,-0.008294623,-0.03721487,65.03878,156.9064,0.0047884034,1442826,-201,126,789,10844
57790070,3994,0,-0.17984655,0.13118802,-9.590901,0.0012342746,-0.0043385583,-0.03304028,65.04709,156.9064,0.0047884034,1442826,-502,-193,1448,10847
57890087,4017,0,0.1133691,0.8123936,-9.210611,0.00061346474,0.0076141553,-0.022313569,65.0554,156.9064,0.0047884034,1442826,672,587,2078,10850
57994115,3969,0,0.47436607,0.5108096,-9.154835,0.0077860905,-0.007115763,-0.03376169,65.06925,156.9064,0.0047884034,1442826,1455,395,3694,10855
58095705,3974,0,0.03736913,-0.6041381,-9.691652,0.00092079444,0.014121908,-0.031353407,65.058174,156.9064,0.0047884034,1442826,456,619,3396,10851
58195700,3965,0,-0.19387901,-0.8236996,-10.095854,0.00046925794,0.0011408611,-0.040660977,65.06371,156.9064,0.0047884034,1442826,-1035,-226,2221,10853
58295701,4007,0,-0.13156405,0.2289766,-9.5253,0.0041411445,-0.0040698964,-0.031991657,65.08587,156.9064,0.0047884034,1442826,-102,159,3000,10861
58399703,4009,0,-0.08384529,1.0967718,-9.543801,0.0014674837,0.005295931,-0.032685716,65.10249,156.9064,0.0047884034,1442826,-691,-656,739,10867
58499714,3977,0,-0.083533876,0.5192037,-10.342327,0.0011094267,-0.007980106,-0.058572832,65.11357,156.9064,0.0047884034,1442826,-528,-686,-424,10871
58599717,3975,0,0.35227266,-0.29698533,-10.525732,0.0035099033,-0.01638329,-0.04015846,65.11357,156.9064,0.0047884034,1442826,288,-359,1964,10871
58703733,4011,0,-0.38882357,-0.8374993,-9.584875,-0.0059459624,0.009256605,-0.035609297,65.096954,156.9064,0.0047884034,1442826,-590,380,2961,10865
58803714,3952,0,-0.53486717,-0.038806666,-9.529941,-0.0057694428,0.007034603,-0.040378958,65.127426,156.9064,0.0047884034,1442826,-1151,-847,823,10876
58907717,3992,0,0.30551633,1.2837209,-9.552722,0.0047164825,-0.0005583279,-0.033167787,65.138504,156.9064,0.0047884034,1442826,1746,443,3230,10880
59009311,4017,0,0.78478324,-0.2288461,-9.53893,0.00011219084,-0.010133386,-0.021304993,65.14404,156.9064,0.0047884034,1442826,1254,1098,3617,10882
59109294,3999,0,0.64552134,-0.97443706,-9.931288,-0.0063922177,0.0026310626,-0.01865056,65.15789,156.9064,0.0047884034,1442826,348,1313,3792,10887
59209334,4034,0,-0.10999184,-1.1511961,-9.840865,-0.0018648965,0.0077753216,-0.016781047,65.14958,156.9064,0.0047884034,1442826,-774,603,2150,10884
59313325,4007,0,-0.3198779,0.8793028,-9.530331,0.005499818,0.014743946,-0.037008394,65.171745,156.9064,0.0047884034,1442826,856,-172,2911,10892
59413294,3991,0,-0.14116861,1.106137,-9.617114,0.0018777773,0.006154895,-0.042772654,65.14681,156.9064,0.0047884034,1442826,-284,-842,1049,10883
59513307,4014,0,-0.22415651,0.7335627,-10.029164,-0.0030006894,-0.009062399,-0.06556344,65.177284,156.9064,0.0047884034,1442826,-363,-777,1838,10894
59617325,4026,0,0.40889186,-1.0910931,-10.341533,0.001990768,-0.006535054,-0.025847979,65.15235,156.9064,0.0047884034,1442826,870,179,1577,10885
59721294,4000,0,-0.4984894,-0.13289435,-9.616593,-0.00044361793,0.012657717,-0.038165227,65.19391,156.9064,0.0047884034,1442826,530,629,2596,10900
59822869,4776,0,-0.33375695,1.1685026,-9.215681,-0.0049470416,0.0074746963,-0.047744647,65.18005,156.9064,0.0047884034,1442826,1020,432,2509,10895
59922871,4001,0,0.33260944,0.91641223,-9.414008,-0.005910216,0.0038675112,-0.033293426,65.20222,156.9064,0.0047884034,1442826,437,357,2186,10903
60026870,3950,0,-0.16224432,-0.9092755,-10.342436,-0.0022122287,-0.011001714,-0.06316314,65.14958,156.9064,0.0047884034,1442826,-1170,-791,1598,10884
60126876,4006,0,-0.19243483,-1.2705178,-10.635726,-0.009701234,-0.0065301056,-0.053692054,65.18005,156.9064,0.0047884034,1442826,-587,-198,2626,10895
60230895,4025,0,0.019530738,0.9212754,-9.436454,0.002998629,0.0040567145,-0.031781375,65.174515,156.9064,0.0047884034,1442826,436,104,2323,10893
60330920,4050,0,0.17503844,1.2170496,-9.517754,0.008376525,0.004145782,-0.039543048,65.218834,156.9064,0.0047884034,1442826,1333,52,1822,10909
60430870,3975,0,0.01632639,0.66887563,-9.630734,0.0076829516,-0.008169276,-0.04083763,65.218834,156.9064,0.0047884034,1442826,941,-544,837,10909
60534870,4001,0,0.3461725,-1.0949645,-9.714669,-0.00069484906,-0.005563357,-0.038769957,65.20499,156.9064,0.0047884034,1442826,102,691,3449,10904
60636501,4008,0,-0.22999968,-1.399566,-10.481326,-0.002261714,0.00078848423,-0.038640045,65.18559,156.9064,0.0047884034,1442826,-968,-262,205,10897
60736510,4009,0,-0.13940008,0.30951917,-9.248195,0.0021611145,0.012686653,-0.012232159,65.213295,156.9064,0.0047884034,1442826,449,415,1687,10907
60840500,4006,0,-0.30181634,0.8223427,-9.293634,-0.0016816983,0.0027928683,-0.041710004,65.213295,156.9064,0.0047884034,1442826,296,76,2750,10907
60944533,4039,0,0.21007772,-0.36526886,-10.259582,-0.00053328654,-0.00823041,-0.050502155,65.26316,156.9064,0.0047884034,1442826,956,-142,2022,10925
61048493,3999,0,0.23237146,-0.9364421,-9.81357,0.0015809777,-0.004621406,-0.024896678,65.26038,156.9064,0.0047884034,1442826,279,758,4611,10924
61148531,4038,0,-0.6062282,0.28816018,-10.292471,-0.00026658946,0.0042599984,-0.04386397,65.23823,156.9064,0.0047884034,1442826,-328,-817,-736,10916
61252501,4007,0,-0.12284018,1.3443437,-8.476392,0.007425139,0.0044064503,-0.024599142,65.24377,156.9064,0.0047884034,1442826,963,-26,3719,10918
61352494,3997,0,0.68090236,0.095109574,-8.467505,0.008578475,-0.0044461396,-0.030911181,65.26038,156.9064,0.0047884034,1442826,91,878,3311,10924
61456513,4019,0,-0.19304118,-1.4195421,-10.35779,0.004783288,-0.0026527187,-0.030856797,65.27701,156.9064,0.0047884034,1442826,372,-213,1366,10930
61558095,3984,0,-0.5890801,-0.2470162,-9.363745,-0.010300882,0.008835953,-0.03798017,65.254845,156.9064,0.0047884034,1442826,112,-36,2812,10922
61662096,3991,0,-0.19038808,0.8717503,-9.563571,-0.0054341964,0.0010318648,-0.046792258,65.27424,156.9064,0.0047884034,1442826,-1010,-914,1070,10929
61762094,4001,0,0.5124682,1.0737426,-8.763053,-0.0019760644,-0.0017751175,-0.051093116,65.257614,156.9064,0.0047884034,1442826,-295,706,3934,10923
61862093,3954,0,0.6409718,-0.06671335,-10.169927,0.015580816,-0.0011628304,-0.015503329,65.28255,156.9064,0.0047884034,1442826,1101,-559,1424,10932
61966093,3999,0,-0.24608058,-1.2332816,-10.65278,0.0041877045,-0.012921368,-0.038227793,65.27978,156.9064,0.0047884034,1442826,-148,-197,1178,10931
62066094,3958,0,-0.5975204,-0.24942128,-9.679224,-0.0037068175,0.01778881,-0.036591705,65.296394,156.9064,0.0047884034,1442826,-207,-277,2464,10937
62170116,3976,0,0.16464128,1.2867943,-8.978594,-0.0008929396,0.006330775,-0.03286468,65.30471,156.9064,0.0047884034,1442826,-283,-362,3498,10940
62270121,4027,0,0.55304176,0.91206914,-9.207982,-0.0027054718,-0.0005062721,-0.044088446,65.32133,156.9064,0.0047884034,1442826,1066,574,2367,10946
62370107,3972,0,0.2918901,-0.5414364,-10.375796,0.006225641,-0.0123546785,-0.031011414,65.288086,156.9064,0.0047884034,1442826,259,117,1671,10934
62471699,4006,0,0.45327547,-1.0762697,-10.283488,0.0077433386,0.006503417,-0.03084186,65.290855,156.9064,0.0047884034,1442826,1298,197,2369,10935
62575694,3994,0,-0.31083077,0.52420956,-9.194651,0.0104094865,0.012932671,-0.01103782,65.31025,156.9064,0.0047884034,1442826,442,-72,2359,10942
62675670,4000,0,0.38285145,1.3277619,-9.285751,0.011593165,0.012998186,-0.03235437,65.31579,156.9064,0.0047884034,1442826,1943,384,2717,10944
62775678,4008,0,-0.13518232,0.89230996,-9.788773,0.009532974,-0.002079544,-0.03734544,65.29917,156.9064,0.0047884034,1442826,1295,-417,2121,10938
62879676,3980,0,0.1974148,-0.79438317,-10.27387,0.0020863118,-0.019274674,-0.053026415,65.33795,156.9064,0.0047884034,1442826,-626,-299,2284,10952
62979708,4038,0,0.22774272,-0.75108564,-9.965937,0.0039722216,0.0017626509,-0.03853211,65.34072,156.9064,0.0047884034,1442826,1342,663,2320,10953
63079670,4000,0,-0.17854328,-0.06916914,-10.005114,0.008426902,0.005266461,-0.029264214,65.34349,156.9064,0.0047884034,1442826,281,110,1242,10954
63184541,4028,0,0.020390898,0.9448326,-8.631601,-0.0064411866,-0.0023791047,-0.047309555,65.37119,156.9064,0.0047884034,1442826,145,976,4842,10964
63289294,3987,0,0.23723112,-0.5488946,-10.719664,0.0051288335,-0.007023934,-0.04638421,65.36011,156.9064,0.0047884034,1442826,-1167,-921,-833,10960
63389348,4055,0,0.32804704,-1.054611,-10.35734,-0.006100993,-0.013948312,-0.050264247,65.34626,156.9064,0.0047884034,1442826,314,111,2390,10955
63493300,4006,0,-0.03138842,-0.19648248,-9.5449705,0.00058864645,0.0066888067,-0.04242483,65.326866,156.9064,0.0047884034,1442826,-703,-229,707,10948
63593300,3992,0,0.11777885,1.204012,-9.221113,0.0010355328,-0.0029465447,-0.031229928,65.35457,156.9064,0.0047884034,1442826,-68,159,1944,10958
63693294,4001,0,0.023253025,1.2065117,-10.139884,0.008758716,-0.008135036,-0.04617443,65.37396,156.9064,0.0047884034,1442826,-535,-925,-1014,10965
63797293,3999,0,0.88908136,-0.70518386,-10.153707,0.0065710275,-0.015087948,-0.043121036,65.401665,156.9064,0.0047884034,1442826,126,410,1464,10975
63897294,3967,0,-0.06432301,-1.2580342,-10.814578,0.0016831972,-0.0133108795,-0.04431831,65.37119,156.9064,0.0047884034,1442826,-516,-304,567,10964
63997293,3994,0,-0.44661772,-0.93340975,-10.113015,-0.0062392857,0.0068851435,-0.044314347,65.41274,156.9064,0.0047884034,1442826,-1138,-841,633,10979
64098893,3984,0,0.025584092,0.06896328,-9.453833,-0.0034196698,0.0076490026,-0.035079252,65.38504,156.9064,0.0047884034,1442826,437,949,3284,10969
64202893,4000,0,0.15888205,1.5597419,-9.193297,-0.0053369757,-0.00054174196,-0.046778135,65.39889,156.9064,0.0047884034,1442826,31,438,1170,10974
64302919,4026,0,0.66932845,0.6844642,-9.797284,0.020316433,0.0020051405,-0.027117822,65.401665,156.9064,0.0047884034,1442826,1422,-400,3417,10975
64406893,4000,0,-0.13296908,-1.374089,-10.403627,0.002716172,-0.016533587,-0.04274782,65.42936,156.9064,0.0047884034,1442826,225,-192,2766,10985
64510932,4032,0,-0.26141885,0.26925817,-9.954702,0.0151656605,0.013015086,-0.025113702,65.39058,156.9064,0.0047884034,1442826,100,-623,1518,10971
64610894,4001,0,0.23731522,0.63117355,-9.058502,-0.004588403,0.0023266335,-0.040548794,65.42105,156.9064,0.0047884034,1442826,-617,386,898,10982
64710893,3968,0,0.1362917,1.4649311,-9.36841,0.010707956,0.0075704637,-0.038375974,65.43213,156.9064,0.0047884034,1442826,96,-772,1270,10986
64814894,3963,0,0.28250924,-0.41714823,-9.789773,-0.008348946,-0.0018597057,-0.039202504,65.437675,156.9064,0.0047884034,1442826,1370,465,3715,10988
64916514,4807,0,0.40087909,-1.2204702,-10.077623,0.0065462682,-0.008046831,-0.046814986,65.440445,156.9064,0.0047884034,1442826,-104,137,1941,10989
65016519,3961,0,-0.13974236,-0.43172562,-9.066973,-0.0118184695,0.0138715,-0.03161963,65.41274,156.9064,0.0047884034,1442826,-875,162,1022,10979
65116560,4040,0,-0.46007887,1.0174695,-9.485922,0.00821766,0.009271547,-0.054646987,65.47092,156.9064,0.0047884034,1442826,-850,-850,275,11000
65220528,4014,0,-0.06536355,1.0139644,-9.152435,-0.011089133,-0.0016275714,-0.05136056,65.434906,156.9064,0.0047884034,1442826,1025,-167,3042,10987
65320520,4006,0,0.19906351,0.24969265,-10.027841,0.016313685,0.0025431179,-0.01790785,65.42936,156.9064,0.0047884034,1442826,1067,-630,398,10985
65424514,3994,0,-0.38060242,-1.2039199,-10.684136,-0.008269573,0.005913019,-0.052739732,65.45152,156.9064,0.0047884034,1442826,-951,-728,-401,10993
65524514,3961,0,-0.11914084,-0.70245904,-9.907445,0.004418378,-0.0038823178,-0.033612166,65.445984,156.9064,0.0047884034,1442826,-550,-198,1484,10991
65624514,3989,0,-0.26130584,0.48466283,-9.0900955,-0.0074486146,0.00442511,-0.04693788,65.484764,156.9064,0.0047884034,1442826,-1270,-260,2797,11005
65726106,3973,0,0.17911914,1.3165356,-9.287154,0.004397708,-0.009048587,-0.03856054,65.49584,156.9064,0.0047884034,1442826,-472,37,1146,11009
65830130,4036,0,-0.33947015,-0.6243557,-10.68076,0.0053430726,-0.015631424,-0.04934611,65.49584,156.9064,0.0047884034,1442826,-285,-689,2297,11009
65930094,3999,0,0.5629705,-1.104562,-10.28544,0.0020972805,-0.0067069414,-0.04979614,65.50693,156.9064,0.0047884034,1442826,-977,181,1394,11013
66034100,3966,0,-0.5835099,0.7211276,-9.544394,0.010997171,0.008239676,-0.03759431,65.49584,156.9064,0.0047884034,1442826,817,-342,1569,11009
66134098,3998,0,0.47559056,1.4550345,-8.644041,-0.00119435,-0.0005847167,-0.033641085,65.4903,156.9064,0.0047884034,1442826,-649,690,2433,11007
66234093,3999,0,0.033750642,0.99472165,-9.62276,0.0026174372,0.0016974278,-0.03348117,65.53739,156.9064,0.0047884034,1442826,311,-522,2581,11024
66338134,4040,0,0.85148126,-0.954146,-10.225945,-0.012083323,-0.01254126,-0.060276307,65.49307,156.9064,0.0047884034,1442826,-937,1022,1778,11008
66442093,3999,0,-0.4077253,-0.31206182,-10.272783,0.012489505,-0.0021815528,-0.02626488,65.523544,156.9064,0.0047884034,1442826,107,-678,759,11019
66542093,4000,0,0.2520341,0.39997852,-8.803157,-0.0021514422,0.006791136,-0.033486392,65.50693,156.9064,0.0047884034,1442826,-346,530,2073,11013
66643694,4001,0,-0.4834224,1.3912241,-9.765599,0.0033161691,0.008399367,-0.03838869,65.554016,156.9064,0.0047884034,1442826,-154,-580,840,11030
66747693,3999,0,0.63228035,-0.016598081,-9.750755,-0.0067736832,0.0026646925,-0.035687834,65.54017,156.9064,0.0047884034,1442826,1223,818,3397,11025
66847694,3963,0,-0.12335121,-0.47064242,-10.41921,0.008350179,0.0015402487,-0.03143919,65.57618,156.9064,0.0047884034,1442826,1465,-256,2578,11038
66947715,4022,0,-0.009321932,-1.1900804,-9.976658,0.0005241168,-0.0066724815,-0.041108515,65.54848,156.9064,0.0047884034,1442826,44,-39,1900,11028
67051740,4047,0,-0.252779,1.1844927,-9.622319,0.011806693,0.011046245,-0.039617203,65.54571,156.9064,0.0047884034,1442826,-48,-217,1555,11027
67151694,3988,0,0.56688523,1.260241,-8.510882,0.0062089018,-0.0010530141,-0.010689881,65.559555,156.9064,0.0047884034,1442826,571,407,3335,11032
67255693,3991,0,-0.26905847,-0.2542626,-10.7021885,0.0054559647,-0.008230832,-0.04820742,65.53462,156.9064,0.0047884034,1442826,114,-930,396,11023
67359693,3999,0,-0.638885,-0.833729,-10.501547,-0.020858565,0.00051987125,-0.05473429,65.5928,156.9064,0.0047884034,1442826,-1055,-272,609,11044
67461314,4000,0,-0.2148771,0.4246733,-9.896724,0.009581638,0.0036825745,-0.020712111,65.559555,156.9064,0.0047884034,1442826,1347,-387,1763,11032
67561314,4000,0,0.2111398,0.98003584,-8.847546,-0.0141926,0.007959682,-0.045760263,65.58726,156.9064,0.0047884034,1442826,51,609,2103,11042
67661320,4000,0,-0.08260718,1.218404,-9.47885,0.011424166,-0.0041740593,-0.031622656,65.61219,156.9064,0.0047884034,1442826,-135,-943,1185,11051
67765320,3974,0,0.12157954,-0.9164569,-10.515796,-0.0053666797,-0.011663549,-0.045647617,65.603874,156.9064,0.0047884034,1442826,-149,-371,1979,11048
67865314,4000,0,-0.28709188,-0.8834368,-10.752317,0.007171711,0.004651316,-0.04000574,65.601105,156.9064,0.0047884034,1442826,1656,-433,1384,11047
67965314,4000,0,-0.07301892,-0.6065099,-9.852167,0.0017613483,-0.0037789727,-0.038232375,65.637115,156.9064,0.0047884034,1442826,-1269,29,1624,11060
68069329,4015,0,-0.28550208,1.7477087,-9.034612,0.0040059714,0.015098979,-0.029922647,65.6482,156.9064,0.0047884034,1442826,943,-278,2167,11064
68169314,3986,0,0.46531928,1.1676594,-9.077051,0.011980824,-0.00837903,-0.024697578,65.63158,156.9064,0.0047884034,1442826,524,-192,2306,11058
68273316,4002,0,-0.30247313,-0.7771585,-10.329612,-0.012854106,-0.0043052677,-0.0505996,65.62327,156.9064,0.0047884034,1442826,-460,11,2923,11055
68378907,4007,0,0.04529903,-0.32269308,-9.7521715,-0.002268969,0.0037862197,-0.050451785,65.62881,156.9064,0.0047884034,1442826,-901,609,1586,11057
68478894,3973,0,0.16472861,1.0956838,-8.977957,-0.014695576,0.009063416,-0.057875656,65.61773,156.9064,0.0047884034,1442826,-212,807,3530,11053
68582942,4035,0,0.51731974,0.88262516,-9.358443,0.007511421,-0.012989351,-0.035100885,65.65651,156.9064,0.0047884034,1442826,364,-530,1705,11067
68682900,4006,0,1.2013772,-0.46372986,-9.346377,0.0052021444,-0.012110925,-0.04107686,65.65651,156.9064,0.0047884034,1442826,-354,1235,4473,11067
68782894,3953,0,0.44089928,-1.2227942,-10.017392,-0.014562921,0.0043252697,-0.050111704,65.62604,156.9064,0.0047884034,1442826,-673,1037,2593,11056
68882903,4002,0,-0.29355443,-0.9354257,-10.42746,-0.019194234,0.0010287447,-0.050711025,65.67867,156.9064,0.0047884034,1442826,-734,213,1988,11075
68986902,4009,0,0.20924532,0.786794,-9.089602,0.016175775,-0.004060063,-0.025096297,65.65097,156.9064,0.0047884034,1442826,-639,86,1904,11065
69086924,4030,0,0.4940835,1.083145,-8.54581,9.615254e-05,-0.008733021,-0.044329133,65.68144,156.9064,0.0047884034,1442826,340,1294,3935,11076
69188472,3980,0,0.33703062,-0.37279797,-10.12363,-0.009806335,0.0003992722,-0.052555468,65.69529,156.9064,0.0047884034,1442826,1458,367,1861,11081
69288470,4000,0,-0.14549981,-1.0607597,-10.844157,-0.008273997,-0.00079434644,-0.061552454,65.68421,156.9064,0.0047884034,1442826,-686,-289,754,11077
69392471,4001,0,0.048084117,0.0063864524,-9.890985,0.0031643491,0.002114476,-0.02157107,65.70637,156.9064,0.0047884034,1442826,-81,210,1218,11085
69492470,4000,0,0.27665064,1.0638807,-8.926677,-0.0055777933,-0.0012469557,-0.04992503,65.69529,156.9064,0.0047884034,1442826,-689,460,1891,11081
69596470,3987,0,-0.23797198,0.5257174,-10.279789,0.007071428,-0.00013522131,-0.03701776,65.66759,156.9064,0.0047884034,1442826,226,-1030,548,11071
69700518,4041,0,1.0614015,-1.0110958,-10.125441,0.003143901,0.0004018899,-0.03366774,65.68975,156.9064,0.0047884034,1442826,-7,1606,2024,11079
69800570,4055,0,-0.24498242,-0.21290152,-9.986024,-0.016097633,0.0056937016,-0.06742558,65.68975,156.9064,0.0047884034,1442826,-857,375,523,11079
69901371,4078,0,-0.103919126,0.95454097,-9.21664,-0.006784519,0.0094780885,-0.045193776,65.69252,156.9064,0.0047884034,1442826,236,73,3128,11080
70006163,3960,0,0.3935543,0.5553533,-8.905812,-0.008788262,0.0020602883,-0.05619279,65.72299,156.9064,0.0047884034,1442826,261,1099,4348,11091
70106121,4001,0,-0.19727363,-0.4057392,-10.620968,0.0013571876,0.0030337935,-0.029548716,65.70914,156.9064,0.0047884034,1442826,1004,-673,-268,11086
70206114,3946,0,0.18639049,-1.629056,-10.354381,0.0057977973,-0.010642543,-0.047948517,65.69529,156.9064,0.0047884034,1442826,139,216,3295,11081
70310120,4006,0,-0.7193524,0.58122563,-10.201733,-0.0017197744,0.008618124,-0.04699136,65.72576,156.9064,0.0047884034,1442826,263,-860,459,11092
70410120,3970,0,0.106403545,1.3714153,-8.757191,0.0055121486,0.0064750966,-0.027776046,65.76177,156.9064,0.0047884034,1442826,122,189,1528,11105
70510163,4011,0,-0.18850903,1.0224271,-9.169637,-0.0016500477,0.0005261351,-0.046412338,65.73407,156.9064,0.0047884034,1442826,427,-595,3220,11095
70614114,3993,0,0.76271534,-0.59851325,-9.463753,-0.008499408,-0.0036610956,-0.045528524,65.72022,156.9064,0.0047884034,1442826,236,1084,3946,11090
70714123,4009,0,0.070774786,-1.1687042,-10.213898,0.009622761,-0.0068462407,-0.029312784,65.7313,156.9064,0.0047884034,1442826,359,294,2915,11094
70819700,4798,0,-0.5805484,0.9198634,-9.183445,0.009267578,0.007937653,-0.043202844,65.73684,156.9064,0.0047884034,1442826,482,-348,3722,11096
70923694,4000,0,-0.08189887,1.137503,-9.610178,0.009130597,0.001183296,-0.02530785,65.72299,156.9064,0.0047884034,1442826,107,-1243,848,11091
71023700,3967,0,0.11101794,0.39469802,-9.764096,-0.0024046097,0.0040745493,-0.052367855,65.73407,156.9064,0.0047884034,1442826,1800,-157,2937,11095
71123694,3950,0,1.0617001,-0.9625007,-10.041367,0.002515796,-0.009440947,-0.02976512,65.76177,156.9064,0.0047884034,1442826,-475,636,2679,11105
71227729,3998,0,-0.28889194,-0.9231282,-10.153222,0.0025668812,0.00645156,-0.030590352,65.76177,156.9064,0.0047884034,1442826,-292,554,1932,11105
71327694,3994,0,-0.19000965,0.87064964,-9.4833765,0.0071149124,0.015519787,-0.01699753,65.750694,156.9064,0.0047884034,1442826,958,-88,1911,11101
71427694,3999,0,-0.34469083,1.0273992,-9.083949,-0.0026722571,0.00029231375,-0.0484002,65.77839,156.9064,0.0047884034,1442826,-1388,-405,2951,11111
71531706,4013,0,-0.17525919,0.6392049,-9.787179,0.013481025,-0.004760601,-0.030111186,65.76454,156.9064,0.0047884034,1442826,1401,-417,2556,11106
71633269,3999,0,-0.12011408,-0.7913617,-10.415524,-0.0021168813,-0.0058728405,-0.053110804,65.747925,156.9064,0.0047884034,1442826,-408,-588,1264,11100
71733270,4000,0,0.054692343,-1.2269381,-10.571549,-0.0055231657,0.0021387888,-0.047762204,65.77839,156.9064,0.0047884034,1442826,-355,96,2161,11111
71833311,4041,0,-0.033812065,-0.96523595,-9.852693,-0.002593393,0.013327386,-0.01897698,65.759,156.9064,0.0047884034,1442826,-341,590,2393,11104
71937316,4039,0,-0.31744522,1.5513611,-9.366165,-0.0041343407,0.012833314,-0.04286267,65.789474,156.9064,0.0047884034,1442826,178,240,3085,11115
72041345,4075,0,0.29160714,0.73314065,-9.77217,0.0056782532,0.0020338383,-0.0483497,65.781166,156.9064,0.0047884034,1442826,517,-439,1800,11112
72141270,4000,0,0.34655833,-0.46228963,-10.094156,0.0046198852,-0.004853362,-0.045390826,65.8421,156.9064,0.0047884034,1442826,1361,204,4068,11134
72245270,4000,0,0.12980275,-0.058321606,-9.89603,0.003688611,0.0067117517,-0.029186774,65.81995,156.9064,0.0047884034,1442826,344,-145,1689,11126
72345279,4009,0,-0.35210806,0.8091292,-9.802925,0.0011814395,0.012717782,-0.043074444,65.81995,156.9064,0.0047884034,1442826,-356,-15,1596,11126
72446894,3994,0,-0.122053735,1.5572959,-9.67354,-0.0014263504,0.00610035,-0.05663938,65.80332,156.9064,0.0047884034,1442826,213,-343,1987,11120
72550894,4000,0,0.07240442,0.14291564,-10.143536,0.014636646,-0.0023015921,-0.015596071,65.83656,156.9064,0.0047884034,1442826,1579,-272,2004,11132
72650901,3981,0,0.32504132,-0.6896903,-10.070893,0.002753679,-0.0057939747,-0.024523772,65.825485,156.9064,0.0047884034,1442826,880,-173,2250,11128
72750900,3997,0,-0.24171181,-0.575674,-10.126854,-0.008758069,0.004141734,-0.038735177,65.83656,156.9064,0.0047884034,1442826,-218,-437,1154,11132
72854894,4000,0,-0.23697045,1.415331,-9.638307,0.007377956,0.009169598,-0.028697025,65.83933,156.9064,0.0047884034,1442826,1059,-471,2783,11133
72954894,4000,0,-0.09604299,1.7820196,-9.305434,0.004081771,0.0055923113,-0.041228697,65.8421,156.9064,0.0047884034,1442826,1707,-462,2191,11134
73054920,3981,0,0.08086394,1.0291605,-9.7116165,0.0019259845,0.0046575624,-0.056336384,65.864265,156.9064,0.0047884034,1442826,930,-255,2670,11142
73158952,4039,0,0.27675313,-1.0115653,-10.718492,-0.0013930625,-0.009186749,-0.055093348,65.83933,156.9064,0.0047884034,1442826,111,-328,1304,11133
73258914,4000,0,-0.43727067,-0.37641916,-10.281661,-0.001262659,0.00042004423,-0.05182202,65.864265,156.9064,0.0047884034,1442826,71,-526,387,11142
73360511,4017,0,0.13974619,0.8979831,-9.145418,0.0019812845,0.0070603183,-0.04555911,65.83656,156.9064,0.0047884034,1442826,-107,287,1925,11132
73464547,4053,0,-0.02221354,1.051657,-9.382551,-0.0042397873,-0.0013039475,-0.04139712,65.85596,156.9064,0.0047884034,1442826,-190,-159,2431,11139
73564531,4038,0,0.7141001,0.018386925,-9.536809,-0.006222953,-0.000960349,-0.054463826,65.83379,156.9064,0.0047884034,1442826,-287,285,1272,11131
73668495,3976,0,-0.05226978,-0.5216939,-10.285754,-0.0019116449,0.00476429,-0.06209094,65.85596,156.9064,0.0047884034,1442826,236,-300,976,11139
73772501,3999,0,0.20055278,0.77594286,-9.587574,-0.006265563,0.004337262,-0.04424328,65.87534,156.9064,0.0047884034,1442826,-641,176,2048,11146
73872527,4033,0,0.23299342,1.1543256,-8.8231945,-0.003390086,0.0068556694,-0.029920872,65.903046,156.9064,0.0047884034,1442826,-914,900,3324,11156
73972533,4040,0,0.20569102,0.6072379,-9.492217,-0.006832908,0.0040951073,-0.041131847,65.85596,156.9064,0.0047884034,1442826,423,-126,1534,11139
75095706,4006,0,-0.2930881,-0.79278296,-10.361579,-0.0039886297,0.01096742,-0.031896498,65.9723,156.9064,0.0047884034,1442826,149,-10,1636,11181
75199699,4005,0,0.32329863,0.78432524,-9.607245,-0.00027803832,-0.005302629,-0.024987832,65.9723,156.9064,0.0047884034,1442826,-420,305,2851,11181
75299700,4006,0,0.43076864,1.2695861,-9.235758,-0.0022984399,0.011129102,-0.043068998,65.93352,156.9064,0.0047884034,1442826,190,396,1537,11167
75403694,3945,0,0.26418403,-0.03675848,-10.567572,0.007720704,-0.00014456455,-0.04662423,65.950134,156.9064,0.0047884034,1442826,1754,-356,1198,11173
75507707,4013,0,0.13831271,-0.53034925,-9.911891,-0.004344449,0.0036110182,-0.04743507,65.950134,156.9064,0.0047884034,1442826,-187,491,2139,11173
75607745,4051,0,-0.22656433,0.31283468,-8.917264,-0.0039558494,0.0123064695,-0.03329632,65.96953,156.9064,0.0047884034,1442826,151,542,4912,11180
75711694,4000,0,0.27460843,0.9286032,-9.024423,0.007131664,-0.004774997,-0.037593618,65.980606,156.9064,0.0047884034,1442826,179,112,3938,11184
75809294,3980,0,-0.052967623,0.81311536,-9.996484,0.0061301,-0.0015512465,-0.05431711,65.98892,156.9064,0.0047884034,1442826,-658,-311,1318,11187
75913300,4007,0,0.33058587,-0.9436012,-10.353456,0.0034712832,-0.0049658953,-0.034911964,65.99169,156.9064,0.0047884034,1442826,-535,-148,722,11188
76013293,4000,0,0.01997346,-0.5506313,-10.060977,-0.006615926,-9.258045e-06,-0.050756566,65.96399,156.9064,0.0047884034,1442826,-1116,-353,244,11178
76113308,4014,0,0.17973453,0.44687825,-9.253556,-0.0015632465,0.008829276,-0.026625011,65.96953,156.9064,0.0047884034,1442826,-204,531,2300,11180
76217336,4002,0,0.12483537,1.1723881,-8.974303,0.0014773759,-0.002992173,-0.05242365,65.99169,156.9064,0.0047884034,1442826,233,-842,2759,11188
76317294,4000,0,0.37118492,-0.07062385,-9.866353,-0.005870762,-0.002202061,-0.0448919,65.99446,156.9064,0.0047884034,1442826,-332,-222,2139,11189
76421300,4003,0,0.2232938,-0.78132814,-10.058977,0.0076457746,0.0014841403,-0.019739129,66.01939,156.9064,0.0047884034,1442826,989,130,2067,11198
76521293,3999,0,0.18831411,0.051117208,-10.193772,0.00749421,0.0059330845,-0.030061608,66.03878,156.9064,0.0047884034,1442826,476,28,576,11205
76626913,3993,0,-0.00483291,1.0641619,-8.808571,-0.010288936,0.00017062551,-0.04124065,66.00554,156.9064,0.0047884034,1442826,-770,268,3118,11193
76726893,4000,0,0.4916403,0.48896128,-9.274051,-0.0023439617,-0.003900789,-0.027129054,66.01939,156.9064,0.0047884034,1442826,-151,129,2240,11198
