timestamp,integral_dt,error_count,x,y,z,x_integral,y_integral,z_integral,temperature,range_m_s2,scaling,device_id,x_raw,y_raw,z_raw,temperature_raw
32343629,3999,0,-0.26270482,-0.5894354,-9.904069,-0.0039427504,0.0008625448,-0.041901946,59.03601,156.9064,0.0047884034,1442850,256,-174,-2083,8677
32447623,4000,0,-0.052307546,0.406304,-10.108027,0.004342875,-0.0012348501,-0.044194728,59.011078,156.9064,0.0047884034,1442850,-150,216,-2482,8668
32551629,3966,0,-0.6254976,-0.6859921,-9.653382,-0.0030911684,-8.2999e-05,-0.038814466,59.07756,156.9064,0.0047884034,1442850,-4,-143,-2374,8692
32651629,4001,0,-0.021049162,0.8129464,-9.705726,0.0010342348,-0.0023210593,-0.039870713,59.02493,156.9064,0.0047884034,1442850,154,263,-2610,8673
32751622,4000,0,-0.11730449,1.1988907,-10.720939,0.0017971458,0.00531134,-0.039888546,59.01939,156.9064,0.0047884034,1442850,-117,-260,-1947,8671
32856457,4034,0,0.09481868,1.2706125,-10.5491085,-0.0001520316,0.017023014,-0.044005178,59.03878,156.9064,0.0047884034,1442850,127,-544,-2618,8678
32960423,4000,0,0.1189697,1.8168776,-10.108586,-0.009994386,0.011405479,-0.03236999,59.04432,156.9064,0.0047884034,1442850,515,-76,-1677,8680
33060423,4000,0,-0.060419112,1.6766535,-9.900835,-0.0073923366,0.006713453,-0.044154964,59.01385,156.9064,0.0047884034,1442850,109,59,-1990,8669
33164422,3999,0,-0.04304533,1.1381556,-9.886934,0.0026210975,-0.015259616,-0.040352903,59.0277,156.9064,0.0047884034,1442850,-96,952,-1836,8674
33264423,4000,0,-0.30304787,-0.33970502,-9.96155,-0.010433306,-0.013938586,-0.035879355,59.011078,156.9064,0.0047884034,1442850,341,742,-2398,8668
33364475,4052,0,-0.98751414,-1.6560928,-9.649418,0.0020341985,-0.005637876,-0.03175402,59.05817,156.9064,0.0047884034,1442850,8,-207,-2391,8685
33468473,4044,0,0.09084854,0.62031364,-10.01226,0.00085134374,0.014341033,-0.047194064,59.03324,156.9064,0.0047884034,1442850,-59,-327,-2515,8676
33568422,3993,0,0.5950429,1.5957619,-9.989861,-0.008093862,0.002751698,-0.03644061,59.047092,156.9064,0.0047884034,1442850,263,282,-2206,8681
33672429,4007,0,-0.9809505,-0.73369944,-9.811915,-0.008382786,-0.0046065697,-0.042020105,59.047092,156.9064,0.0047884034,1442850,775,80,-1809,8681
33776422,3993,0,0.063758776,0.585774,-9.943205,0.008827049,0.012975811,-0.038060784,59.03047,156.9064,0.0047884034,1442850,-533,-586,-2091,8675
33876427,3956,0,0.45714495,1.2985228,-9.370925,0.007581734,-0.0022841592,-0.035992593,59.047092,156.9064,0.0047884034,1442850,-225,335,-2791,8681
33980429,4007,0,-0.5249802,-1.0573393,-10.188001,-0.014753103,-0.002794379,-0.037503168,59.063713,156.9064,0.0047884034,1442850,895,59,-1527,8687
34080429,4006,0,-0.6020401,-0.26659918,-9.955624,0.002617571,0.011315491,-0.04177808,59.069252,156.9064,0.0047884034,1442850,-238,-623,-1870,8689
34180423,4000,0,-0.10780404,1.2248913,-9.587968,0.0025650023,0.004221851,-0.038932476,59.049862,156.9064,0.0047884034,1442850,179,144,-1882,8682
34284423,4001,0,-0.19224739,-0.6373854,-10.072095,-0.003808931,-0.0071003484,-0.033615366,59.07479,156.9064,0.0047884034,1442850,484,47,-1778,8691
34384423,4001,0,-1.137213,-0.946343,-9.864491,0.0013103823,0.005128082,-0.0332103,59.07756,156.9064,0.0047884034,1442850,-711,-765,-1742,8692
34484459,4036,0,0.34147957,0.8345973,-9.869131,0.009196929,0.0072868513,-0.03948494,59.063713,156.9064,0.0047884034,1442850,-20,-292,-1604,8687
34588422,4000,0,-0.57568073,0.036832992,-9.888182,-0.01065625,-0.0095408745,-0.044627883,59.07202,156.9064,0.0047884034,1442850,280,594,-2507,8690
34688423,3994,0,-1.5996428,-0.7220575,-9.912158,0.0098422775,0.0063254414,-0.042711385,59.07479,156.9064,0.0047884034,1442850,-1095,-370,-1786,8691
34792430,4008,0,0.7267302,1.0881166,-9.922629,-0.007855101,-0.0020711003,-0.0417068,59.05817,156.9064,0.0047884034,1442850,639,536,-2560,8685
34896439,4010,0,-0.17162053,0.3378387,-9.795408,0.019023713,0.013191674,-0.046641253,59.07479,156.9064,0.0047884034,1442850,-737,-470,-2623,8691
34996438,4009,0,-1.1786437,-0.37469527,-9.875258,-0.021101354,-0.010589898,-0.030847883,59.07202,156.9064,0.0047884034,1442850,1170,13,-2325,8690
35100422,4000,0,0.8974391,0.30598155,-10.165107,-0.013462808,-0.019018084,-0.040108223,59.08033,156.9064,0.0047884034,1442850,1050,637,-919,8693
35200428,4005,0,1.2391266,1.3758134,-9.881809,-0.0038682842,0.00039820082,-0.045928765,59.105263,156.9064,0.0047884034,1442850,199,154,-2396,8702
35300429,3960,0,1.273761,1.2709484,-10.01291,-0.0026948284,-0.011357244,-0.042411987,59.069252,156.9064,0.0047884034,1442850,230,1208,-2089,8689
35401223,3993,0,-1.5400096,-0.5792508,-9.731196,-0.010465687,-0.006777104,-0.03620689,59.09695,156.9064,0.0047884034,1442850,-216,316,-2082,8699
35505231,3984,0,1.289835,1.1361868,-10.34589,-0.018139238,-0.005562901,-0.04126902,59.102493,156.9064,0.0047884034,1442850,1275,770,-1012,8701
35605223,4000,0,0.32846215,-0.3778738,-9.465574,0.015038324,0.012066308,-0.030078495,59.07202,156.9064,0.0047884034,1442850,-529,-1336,-1898,8690
35709242,4019,0,1.4272538,0.0036626002,-9.702111,0.007584042,0.019103797,-0.029324114,59.085873,156.9064,0.0047884034,1442850,1042,-579,-2639,8695
35809223,3995,0,1.3280234,0.20247996,-9.732467,0.001347352,0.010847009,-0.0457815,59.09141,156.9064,0.0047884034,1442850,1028,-125,-2379,8697
35909222,3999,0,0.3313397,0.89301676,-9.973009,-0.026256163,-0.0037397984,-0.0429516,59.116344,156.9064,0.0047884034,1442850,1226,596,-2607,8706
36013229,4007,0,0.11224342,-0.29024476,-9.874984,0.03282181,0.0023608138,-0.037059948,59.124653,156.9064,0.0047884034,1442850,-976,-395,-1931,8709
36113274,4052,0,-0.048195686,0.546161,-10.082653,-0.031112036,0.002989606,-0.046724085,59.127422,156.9064,0.0047884034,1442850,1322,236,-1661,8710
36213229,4007,0,-0.19010852,-0.34342498,-9.138085,0.03809154,-0.0050331987,-0.036828354,59.13019,156.9064,0.0047884034,1442850,-965,140,-2479,8711
36317241,4019,0,-1.1524367,-0.5267823,-8.9158945,0.044478383,-0.005193119,-0.04594353,59.083103,156.9064,0.0047884034,1442850,-2171,-409,-3350,8694
36417222,3999,0,-0.1365176,0.011897024,-9.453306,0.03344766,0.010680646,-0.042740785,59.127422,156.9064,0.0047884034,1442850,-943,-300,-2743,8710
36521222,4000,0,1.7702018,1.354636,-11.6431875,-0.04634608,-0.0033940712,-0.020759787,59.105263,156.9064,0.0047884034,1442850,3867,715,295,8702
36621222,4000,0,-1.8098966,0.3535947,-9.356948,-0.014028668,-0.026048614,0.02194422,59.135735,156.9064,0.0047884034,1442850,-1575,1044,-411,8713
36721222,4000,0,2.3448033,-0.095549054,-9.291455,-0.0141053675,0.0047725695,-0.06336922,59.1108,156.9064,0.0047884034,1442850,3232,187,-3150,8704
36825269,4047,0,1.4790801,0.492687,-10.062232,0.050623078,0.011129336,-0.05999218,59.141273,156.9064,0.0047884034,1442850,79,-594,-2984,8715
36925222,4000,0,0.33526224,-0.39384255,-8.529437,0.04660006,-0.014464641,-0.03746833,59.124653,156.9064,0.0047884034,1442850,-357,198,-4603,8709
37025222,3999,0,1.4106196,0.16850822,-10.528443,0.021897098,-0.0036917282,-0.04670097,59.152355,156.9064,0.0047884034,1442850,1531,-272,-1518,8719
37129278,4049,0,-1.8128753,0.92535853,-8.682449,0.021531295,-0.0071824007,-0.053456537,59.135735,156.9064,0.0047884034,1442850,-2894,-4,-4304,8713
37229222,3993,0,1.3114554,0.11663421,-10.52525,0.003204286,0.0033898405,-0.04861758,59.116344,156.9064,0.0047884034,1442850,1887,-463,-454,8706
37333229,3999,0,-0.5013287,0.4913874,-8.564885,0.038048737,-0.0011251728,-0.05943311,59.141273,156.9064,0.0047884034,1442850,-1596,-32,-3969,8715
37433260,4038,0,1.0041443,0.870569,-10.975738,-0.013570208,0.010996811,-0.06614901,59.132965,156.9064,0.0047884034,1442850,2734,-78,-1957,8712
38346023,4000,0,1.7160285,0.2127816,-10.6106205,0.004941274,-0.014457036,-0.018109394,59.193905,156.9064,0.0047884034,1442850,1963,363,-880,8734
38450068,4045,0,-0.5015517,-0.7987556,-11.4521,0.022492982,-0.00660124,-0.078039646,59.163433,156.9064,0.0047884034,1442850,-954,742,-3772,8723
38554023,4000,0,-0.3929088,1.0129755,-10.886135,-0.027154595,0.01623414,-0.018188624,59.213295,156.9064,0.0047884034,1442850,842,-529,-1973,8741
38654029,3980,0,-0.22577591,1.537079,-10.996619,-0.025585212,0.0046950122,-0.040003024,59.174515,156.9064,0.0047884034,1442850,341,402,-1921,8727
38758066,4043,0,0.79812056,-0.16923885,-11.079238,0.023295097,-0.01196949,-0.02220254,59.207756,156.9064,0.0047884034,1442850,-71,417,-778,8739
38858029,4006,0,1.3055301,-1.3083967,-10.416875,-0.025793701,-0.0087133795,-0.016262293,59.182823,156.9064,0.0047884034,1442850,2372,-117,-1583,8730
38958023,3955,0,0.55252165,-0.6109619,-9.585718,-0.03554696,0.005025868,-0.03277255,59.182823,156.9064,0.0047884034,1442850,1890,-898,-3108,8730
39062023,4000,0,-1.184706,1.4021437,-10.259358,0.030947236,0.0023935304,-0.060541213,59.160664,156.9064,0.0047884034,1442850,-2223,583,-2181,8722
39162029,4006,0,-0.77617335,1.7229103,-10.436194,0.028207831,0.003476326,-0.05041951,59.180054,156.9064,0.0047884034,1442850,-2140,522,-2105,8729
39262070,4041,0,-1.29423,0.56736416,-10.832496,0.01834305,-0.00069400866,-0.05029303,59.188366,156.9064,0.0047884034,1442850,-2479,376,-811,8732
39366023,3955,0,1.1573579,-0.9170064,-10.233217,-0.0052624964,-0.0088954875,-0.01688008,59.13019,156.9064,0.0047884034,1442850,1891,-68,-2043,8711
39466041,4019,0,0.13210386,-0.3605328,-9.512144,-0.033133753,0.014374994,-0.028780622,59.171745,156.9064,0.0047884034,1442850,2082,-1145,-2723,8726
39570068,4039,0,-1.1461655,2.0401697,-10.330055,0.020715468,0.007893126,-0.06891643,59.168976,156.9064,0.0047884034,1442850,-2024,-42,-1443,8725
39670023,3995,0,-1.3862019,1.4512072,-10.600875,0.0028853277,0.015606193,-0.05859025,59.160664,156.9064,0.0047884034,1442850,-2231,-155,-1031,8722
39770023,3955,0,-0.81301343,0.014349246,-10.617657,-0.017003598,0.0073728897,-0.06123726,59.221607,156.9064,0.0047884034,1442850,-871,-50,-1831,8744
39874029,4006,0,-0.35309938,-1.1186213,-10.869844,0.027046332,-0.0078019453,-0.033611517,59.152355,156.9064,0.0047884034,1442850,-947,416,-1603,8719
39974022,3955,0,-1.5352865,0.25139818,-10.506859,0.037002143,0.008087611,-0.032644,59.193905,156.9064,0.0047884034,1442850,-2517,772,-769,8734
40074068,4041,0,-1.4746246,1.7018492,-8.943727,0.0064091682,0.019567791,-0.06351636,59.163433,156.9064,0.0047884034,1442850,-1731,-434,-3570,8723
40178043,4020,0,-0.94685835,1.1329145,-9.388078,0.031061541,0.00069793453,-0.05482033,59.121883,156.9064,0.0047884034,1442850,-3060,745,-1764,8708
40278023,4001,0,-0.28783494,-0.80665416,-8.8278885,-0.035111085,-0.0016250876,-0.037932258,59.152355,156.9064,0.0047884034,1442850,914,51,-3081,8719
40382068,4046,0,-1.4868274,-0.08195657,-8.542907,0.010923043,0.014737068,-0.042823665,59.157894,156.9064,0.0047884034,1442850,-2584,-73,-3304,8721
40482022,3993,0,-0.37105146,1.1486359,-8.605173,-0.038493425,0.02127324,-0.017424718,59.188366,156.9064,0.0047884034,1442850,929,-1094,-1771,8732
40582031,3957,0,0.9761202,2.0508225,-10.20563,0.005148341,-0.0035247807,-0.026069477,59.191135,156.9064,0.0047884034,1442850,1918,505,-842,8733
40686022,3999,0,1.791022,0.37768728,-10.291012,0.024197225,-0.026460426,-0.030100873,59.207756,156.9064,0.0047884034,1442850,1186,1649,-1592,8739
40786822,3999,0,-1.3937036,-0.7857191,-10.739408,0.028074909,-0.0058185593,-0.016440025,59.166203,156.9064,0.0047884034,1442850,-2457,1587,-178,8724
40886823,4001,0,-1.316555,-0.22267474,-9.819793,0.017204423,0.011041216,-0.02314723,59.174515,156.9064,0.0047884034,1442850,-2071,-366,-1811,8727
40990823,4000,0,-1.4126316,2.03349,-8.796706,0.0097541455,0.011889558,-0.024764474,59.163433,156.9064,0.0047884034,1442850,-1762,-68,-2326,8723
41090823,4000,0,0.7878017,0.8095564,-9.396723,-0.036879793,-0.0019028086,-0.00862841,59.157894,156.9064,0.0047884034,1442850,2432,83,-891,8721
41190822,3999,0,-0.30779475,0.5637361,-9.988963,0.044471763,-0.020472439,-0.017279303,59.193905,156.9064,0.0047884034,1442850,-1878,2023,-1847,8734
41294821,3998,0,-1.8390483,-1.366676,-9.459881,0.023099482,-0.003486688,-0.016139053,59.191135,156.9064,0.0047884034,1442850,-2573,445,-1922,8733
41394833,4004,0,0.56080586,-0.3645697,-9.92835,-0.033988103,0.012078058,-0.022251254,59.188366,156.9064,0.0047884034,1442850,2908,-1300,252,8732
41494822,3993,0,-1.4303023,1.7844443,-9.391837,0.041939214,-0.0019574002,-0.017792225,59.191135,156.9064,0.0047884034,1442850,-2501,302,308,8733
41598829,4007,0,-0.08551022,1.786951,-9.2842455,0.03632956,-0.0052931,-0.06698313,59.168976,156.9064,0.0047884034,1442850,-1991,1244,-3835,8725
41698867,4045,0,-0.23011754,-0.78381324,-10.695232,-0.04106641,0.00094860024,-0.04569947,59.199444,156.9064,0.0047884034,1442850,1061,-355,-1100,8736
41802823,3994,0,0.6274437,-1.8305767,-9.7461,-0.047513515,0.009373154,-0.023386605,59.218838,156.9064,0.0047884034,1442850,3039,-1083,-2393,8743
41902823,3993,0,-1.3624463,0.38543755,-9.086915,0.03882926,0.0046291985,-0.06456387,59.180054,156.9064,0.0047884034,1442850,-2573,-156,-3550,8729
42002846,4024,0,0.58196145,1.1059271,-9.989162,-0.037043344,0.023105036,-0.03658291,59.207756,156.9064,0.0047884034,1442850,1951,-1017,-190,8739
42106822,3986,0,1.0953752,-0.44276515,-9.094371,-0.030891195,-0.005628039,-0.0725504,59.166203,156.9064,0.0047884034,1442850,2693,-986,-4171,8724
42206822,4000,0,-0.96646374,-0.2851648,-11.039279,0.03601981,-0.0025206832,-0.052154686,59.202217,156.9064,0.0047884034,1442850,-2541,1057,-678,8737
42306822,4000,0,-0.15661101,-1.6608293,-9.984924,-0.049930435,0.0027616452,-0.03047626,59.199444,156.9064,0.0047884034,1442850,1501,-720,-2934,8736
42410833,4011,0,-0.8735498,0.9215145,-9.976286,-0.023476323,0.011716371,-0.026701013,59.232685,156.9064,0.0047884034,1442850,-227,-1372,-1733,8748
42514822,4000,0,-1.8306599,1.2115214,-10.272096,0.0064429017,-0.0017244685,-0.02794203,59.191135,156.9064,0.0047884034,1442850,-2910,555,-420,8733
42614823,3994,0,0.70340544,-0.5612154,-9.599658,-0.038382277,-0.0033464883,-0.016510582,59.188366,156.9064,0.0047884034,1442850,2552,-51,-2336,8732
42718822,3998,0,0.55204993,-1.0682538,-11.348305,-0.04115036,-0.0010368181,-0.019632548,59.171745,156.9064,0.0047884034,1442850,2599,-43,-1140,8726
42818829,4007,0,0.35266656,-0.65402526,-10.16963,-0.015215294,0.014594702,-0.060190562,59.207756,156.9064,0.0047884034,1442850,2909,-1367,-2407,8739
42922822,3993,0,0.22737442,1.1310263,-9.334953,-0.032534905,0.016325375,-0.048153855,59.213295,156.9064,0.0047884034,1442850,1390,-1523,-3478,8741
43022822,3993,0,1.4041404,1.3123701,-10.711647,0.0066295993,-0.019655095,-0.035443626,59.188366,156.9064,0.0047884034,1442850,2137,683,-664,8732
43122823,3985,0,-0.20005041,0.26863497,-9.626992,0.034653902,-0.016393322,-0.02872867,59.166203,156.9064,0.0047884034,1442850,-1960,1245,-3030,8724
43226829,4007,0,0.6053359,-1.5469756,-10.519467,0.018238343,-0.019629464,-0.018110026,59.202217,156.9064,0.0047884034,1442850,1296,305,-2891,8737
43326829,4006,0,-1.413139,-0.105587706,-9.324182,0.026426096,-0.0036075283,-0.047046244,59.168976,156.9064,0.0047884034,1442850,-1762,627,-4938,8725
43426822,3999,0,-1.7635458,1.1610141,-9.356658,-0.02137237,0.011960696,-0.06484841,59.202217,156.9064,0.0047884034,1442850,-1170,-614,-2985,8737
43531624,4001,0,-0.988763,1.0708034,-10.149654,0.0027072695,0.011518711,-0.022012128,59.216064,156.9064,0.0047884034,1442850,-2181,38,-828,8742
43631623,4000,0,1.020975,-0.65103656,-10.389989,-0.014973676,-0.010019498,-0.040582266,59.246536,156.9064,0.0047884034,1442850,2393,181,-233,8753
43731672,4049,0,-0.21125993,-0.7346282,-10.504001,0.034676325,0.0037466371,-0.051481124,59.204987,156.9064,0.0047884034,1442850,-1308,690,37,8738
43835622,3968,0,-1.2275286,1.3111559,-9.308085,0.049294196,0.004511178,-0.021041375,59.207756,156.9064,0.0047884034,1442850,-2399,517,-2231,8739
43935622,3986,0,-0.23596153,1.6750314,-10.038104,-0.03810462,0.01598116,-0.028298717,59.207756,156.9064,0.0047884034,1442850,877,-765,-429,8739
44039629,3998,0,-0.81814986,0.06617792,-8.944179,-0.039124373,-0.0036961043,-0.049602836,59.213295,156.9064,0.0047884034,1442850,39,-202,-3479,8741
44139628,4006,0,1.7398254,-0.821314,-9.269969,0.0052854475,-0.007387644,-0.05108326,59.232685,156.9064,0.0047884034,1442850,2549,-289,-3066,8748
44239622,3953,0,-2.107461,-1.2148567,-9.108832,-0.0026636021,-0.0026239504,-0.033055317,59.224377,156.9064,0.0047884034,1442850,-1565,354,-2443,8745
44343633,4011,0,-1.5937333,1.2538832,-9.028551,-0.007509217,0.020895528,-0.04627369,59.224377,156.9064,0.0047884034,1442850,-1481,-379,-2318,8745
44443622,4000,0,1.2758536,1.3085763,-8.755402,0.01954791,0.0021457402,-0.061016537,59.216064,156.9064,0.0047884034,1442850,1541,-425,-2939,8742
44543623,3971,0,-0.8836368,1.6006336,-8.198973,-0.0049514025,0.0051920493,-0.05756115,59.229916,156.9064,0.0047884034,1442850,-1512,-189,-4784,8747
44647622,4000,0,-1.011144,-1.0330485,-10.951389,-0.035203345,-0.00011195999,-0.035930574,59.216064,156.9064,0.0047884034,1442850,164,283,722,8742
44747623,3995,0,-1.2132908,-1.2030476,-9.9136505,0.051756267,-9.3657756e-05,-0.038408153,59.227146,156.9064,0.0047884034,1442850,-2580,404,-2155,8746
44851623,4001,0,-2.0000622,1.5006361,-9.201239,0.013474697,0.010565212,-0.032983895,59.279778,156.9064,0.0047884034,1442850,-2276,-593,-1534,8765
44955621,3992,0,-0.1588411,1.8375963,-10.519581,0.026308557,-7.3588453e-06,-0.039747432,59.268696,156.9064,0.0047884034,1442850,-2165,611,-1456,8761
45055622,3993,0,-0.67413896,-0.008142408,-9.544191,-0.034820974,0.0014945387,-0.03174406,59.268696,156.9064,0.0047884034,1442850,652,213,-3611,8761
45159623,4001,0,0.28310347,-1.2519003,-11.584745,-0.04805471,0.0025656482,-0.026795855,59.265926,156.9064,0.0047884034,1442850,2243,-563,-1266,8760
45259629,4007,0,0.610012,-1.2450602,-10.339949,0.016491363,-0.0025796469,-0.024406228,59.25485,156.9064,0.0047884034,1442850,890,-646,-1547,8756
45359656,4033,0,-2.3308573,1.4877918,-9.637216,0.012080492,0.013326062,-0.06998156,59.224377,156.9064,0.0047884034,1442850,-2275,-262,-3035,8745
45463622,3994,0,-1.142866,2.179867,-9.091353,0.008030884,0.00954336,-0.03259784,59.268696,156.9064,0.0047884034,1442850,-2451,68,-2705,8761
45563623,4001,0,0.472818,0.4352837,-10.044815,-0.034704775,-0.0012390185,-0.08001141,59.279778,156.9064,0.0047884034,1442850,2039,-889,-2683,8765
45663640,4017,0,0.0012846986,-0.02246723,-9.477478,0.040339693,-0.008466043,-0.0520099,59.27424,156.9064,0.0047884034,1442850,-1950,1118,-529,8763
45767622,3976,0,-0.74615496,0.15626353,-9.928053,-0.047698215,0.01821405,-0.03180011,59.260387,156.9064,0.0047884034,1442850,1172,-156,-1251,8758
45867622,3993,0,-1.9149511,1.3547432,-8.797023,-0.028390087,0.0008749349,-0.007681757,59.252075,156.9064,0.0047884034,1442850,-489,-86,-1789,8755
45971637,4006,0,0.87919897,0.2716086,-9.558605,0.009678552,-0.0027602795,-0.09228107,59.282547,156.9064,0.0047884034,1442850,1335,-735,-1901,8766
46075622,3999,0,-0.54651934,-1.1364108,-7.8613696,0.034625746,-0.009662768,-0.039479233,59.27147,156.9064,0.0047884034,1442850,-1798,449,-5308,8762
46175622,4000,0,0.83382964,-0.6664175,-10.303195,-0.007183112,0.005943026,-0.019214675,59.268696,156.9064,0.0047884034,1442850,2518,-1034,-1708,8761
46279626,4004,0,0.4708458,1.5346377,-8.664717,0.043187734,-0.005895307,-0.026506925,59.252075,156.9064,0.0047884034,1442850,-123,624,-3194,8755
46379623,3999,0,-1.2323232,1.7837923,-9.576666,-0.026084589,0.010273703,-0.026083052,59.301937,156.9064,0.0047884034,1442850,-560,-930,-6,8773
46480429,3985,0,1.5569762,0.45494103,-9.496136,-0.008470053,-0.019089004,-0.00811525,59.321327,156.9064,0.0047884034,1442850,2775,558,-1330,8780
46580423,4000,0,-1.6849303,-0.19705126,-10.3367605,-0.023837972,0.005040284,-0.0056830356,59.31302,156.9064,0.0047884034,1442850,-1316,595,-102,8777
46684423,4000,0,0.41129962,-0.86052,-9.8558,-0.050965413,0.013754802,-0.0063204784,59.29363,156.9064,0.0047884034,1442850,3478,-717,-943,8770
46784440,4017,0,-0.86844015,0.40724972,-9.941683,0.04265176,0.004082049,-0.016451033,59.27147,156.9064,0.0047884034,1442850,-1554,91,-427,8762
46888469,4046,0,0.94684833,1.7264448,-9.541003,0.0007685004,0.0014067532,-0.048486955,59.249306,156.9064,0.0047884034,1442850,1859,-330,-3709,8754
46988423,4001,0,1.099898,0.84222686,-11.147812,0.0026899092,-0.00030387426,-0.044590943,59.279778,156.9064,0.0047884034,1442850,1590,579,-344,8765
47088422,3999,0,1.6548849,-0.63018084,-11.766554,0.005933659,-0.013276721,-0.033360563,59.32964,156.9064,0.0047884034,1442850,1968,95,423,8783
47192422,4000,0,-0.9557783,-1.0863079,-10.325086,-0.03325628,0.0116477,-0.06344048,59.282547,156.9064,0.0047884034,1442850,928,-966,-5294,8766
47292422,3999,0,-1.5310853,0.5062775,-11.566056,-0.00872435,0.02148487,-0.05315361,59.30748,156.9064,0.0047884034,1442850,-1287,-879,-1180,8775
47392437,4014,0,-0.86130226,2.075989,-11.017572,0.027572447,0.004594737,-0.017622417,59.32687,156.9064,0.0047884034,1442850,-1571,920,-489,8782
47496423,3959,0,-0.9491134,1.0513488,-10.92925,-0.013945879,0.014586957,-0.047927544,59.301937,156.9064,0.0047884034,1442850,-502,-445,-1769,8773
47596422,4000,0,-0.75921434,1.0742098,-10.951261,0.017077718,-0.0005517765,-0.034732696,59.32687,156.9064,0.0047884034,1442850,-2013,1064,-1905,8782
47700429,4006,0,0.49005744,-1.4975023,-10.171439,-0.019350465,0.00046752486,-0.045970544,59.337948,156.9064,0.0047884034,1442850,2251,-1506,-2632,8786
47800429,4006,0,-0.6119079,-0.6869004,-9.7075815,-0.029306646,0.027698189,-0.044216357,59.299168,156.9064,0.0047884034,1442850,429,-2117,-2785,8772
47900422,3956,0,-1.0603192,1.541063,-8.760126,-0.004208966,0.013484939,-0.042718142,59.32964,156.9064,0.0047884034,1442850,-1486,-11,-4044,8783
48004433,4002,0,0.58743536,0.25544217,-9.492821,0.01958672,-0.012866069,-0.05399193,59.34349,156.9064,0.0047884034,1442850,309,-114,-2268,8788
48104422,4000,0,0.46527058,0.047297105,-10.280884,0.036472425,-0.018445723,-0.021636205,59.3241,156.9064,0.0047884034,1442850,-895,619,731,8781
48204422,3983,0,-0.4951269,-1.0183756,-8.835181,0.03238122,-0.006225425,-0.04864219,59.35734,156.9064,0.0047884034,1442850,-1318,501,-3384,8793
48308422,4000,0,0.8034201,0.32499623,-9.230015,0.013683378,-0.0033024957,-0.016434876,59.33241,156.9064,0.0047884034,1442850,1544,-100,-2200,8784
48408422,3993,0,0.68489987,1.6161548,-10.107516,0.02110491,-0.0040173074,-0.05466077,59.31579,156.9064,0.0047884034,1442850,822,-33,-1413,8778
48512422,4000,0,-0.4009492,0.5556147,-10.489024,-0.027528947,0.0011980404,-0.04058941,59.32687,156.9064,0.0047884034,1442850,50,201,-1527,8782
48612429,4006,0,-0.63157505,-1.2085662,-9.95073,-0.023440853,0.012853788,-0.050687164,59.34626,156.9064,0.0047884034,1442850,-224,-56,-3366,8789
48712429,4007,0,-1.1653525,-0.9146465,-9.180431,-0.02551272,0.0155197205,-0.047885414,59.31025,156.9064,0.0047884034,1442850,-332,-907,-4235,8776
48816423,3994,0,-1.9325317,1.6037201,-10.544229,0.022634324,0.009121873,-0.056493957,59.3241,156.9064,0.0047884034,1442850,-2350,454,-172,8781
48916422,3978,0,-1.041423,1.8075651,-9.395762,-0.00036477158,0.014444911,-0.07457149,59.3518,156.9064,0.0047884034,1442850,-1439,-258,-3714,8791
49016422,4000,0,-0.5273403,0.71456635,-9.245367,-0.03810478,0.0055950023,-0.058633786,59.30748,156.9064,0.0047884034,1442850,1050,-76,-4256,8775
49121268,4045,0,-1.9044086,-1.2952249,-11.2781105,0.0048014293,-0.0001986449,-0.042800166,59.35457,156.9064,0.0047884034,1442850,-2839,164,-78,8792
49221223,4001,0,-0.7888083,-0.45650908,-10.59403,-0.027336683,0.006162466,-0.036150325,59.36011,156.9064,0.0047884034,1442850,-122,334,-1517,8794
49321234,4003,0,-0.8765963,0.4436992,-10.679154,-0.039464954,0.024678009,-0.017178785,59.35734,156.9064,0.0047884034,1442850,1028,-468,-507,8793
49425231,4008,0,-0.8784941,1.6659831,-9.101154,-0.03251964,0.017430766,-0.017784273,59.34626,156.9064,0.0047884034,1442850,-615,-518,-1628,8789
49525266,4043,0,0.9766013,0.6676605,-9.504778,-0.028829541,-0.0056606703,-0.050434098,59.37119,156.9064,0.0047884034,1442850,2257,-185,-3472,8798
49625229,4007,0,1.1945622,-0.36768445,-10.909808,0.01134207,-0.0072735376,-0.06613766,59.36288,156.9064,0.0047884034,1442850,1021,-216,-2328,8795
49729222,3999,0,-0.79079896,-0.7974848,-9.709804,-0.039527096,0.014288827,-0.038778327,59.37119,156.9064,0.0047884034,1442850,851,-489,-3658,8798
49829222,4000,0,-0.61066985,-0.055340115,-9.6524105,-0.043292634,0.02261351,-0.049223386,59.3518,156.9064,0.0047884034,1442850,1572,-1404,-4132,8791
49933228,3968,0,-1.828163,2.1698515,-10.017391,-0.0046827197,0.009267604,-0.023155708,59.34626,156.9064,0.0047884034,1442850,-2094,45,-504,8789
50037222,3951,0,-0.22651248,0.23703586,-8.758281,0.037644878,-0.011875149,-0.038446184,59.34072,156.9064,0.0047884034,1442850,-2343,1219,-4407,8787
50137226,4004,0,-0.97544783,-1.373486,-9.3787565,-0.044827335,-0.0012174958,-0.029019186,59.35734,156.9064,0.0047884034,1442850,963,-15,-1762,8793
50241222,4000,0,-0.6280437,-0.45651177,-9.250014,-0.036085192,0.028191209,-0.044688,59.36565,156.9064,0.0047884034,1442850,1494,-1874,-2331,8796
50341222,4000,0,1.0747442,0.8885096,-8.608521,-0.00018388499,-0.0038906932,-0.053676084,59.38227,156.9064,0.0047884034,1442850,1891,-766,-3729,8802
50441222,4000,0,0.3507311,2.513206,-8.534691,0.023471903,0.00027290033,-0.04693331,59.373962,156.9064,0.0047884034,1442850,-795,566,-2677,8799
50545222,3996,0,0.93598366,-0.17036551,-10.596735,0.01957983,-0.017835956,-0.063342914,59.38227,156.9064,0.0047884034,1442850,359,493,-1831,8802
50645222,4000,0,0.7588544,-0.74955845,-10.611838,0.02182785,-0.0143102985,-0.07466547,59.3518,156.9064,0.0047884034,1442850,-29,1075,-1570,8791
50749223,3994,0,1.1269543,-0.3889197,-10.2837105,-0.0017159479,0.004759943,-0.015798122,59.396122,156.9064,0.0047884034,1442850,2292,-773,-1194,8807
50853229,4007,0,-0.46055555,1.6192075,-8.74836,-0.02322723,0.010858922,-0.012816728,59.39058,156.9064,0.0047884034,1442850,-315,-614,-1032,8805
50957264,4041,0,-0.5260098,0.119621545,-9.078378,0.02363867,-0.0091828145,-0.06157849,59.38227,156.9064,0.0047884034,1442850,-2060,601,-3573,8802
51057222,3994,0,-1.0734597,-1.042118,-9.551601,-0.004810014,-0.008768069,-0.04692856,59.40166,156.9064,0.0047884034,1442850,-1685,73,-1998,8809
51161222,4000,0,-0.9782707,-0.040399566,-9.627784,0.029432932,-0.0013428533,-0.054079857,59.36565,156.9064,0.0047884034,1442850,-994,365,-3743,8796
51261228,4006,0,-1.7179915,1.0851939,-9.247427,0.027119128,0.010726189,-0.045007892,59.36565,156.9064,0.0047884034,1442850,-2459,379,-2319,8796
52378049,4026,0,0.16218376,1.7628499,-10.867491,0.04067119,-0.0051283203,-0.033547025,59.41828,156.9064,0.0047884034,1442850,-319,450,-831,8815
52478068,4045,0,-0.016835881,2.9482975,-9.432873,0.02993241,0.014515718,-0.053211488,59.44044,156.9064,0.0047884034,1442850,-2224,1050,-4193,8823
52582029,4006,0,-0.5088385,-0.46816862,-9.771643,0.036545545,-0.00877459,-0.07675932,59.432133,156.9064,0.0047884034,1442850,-2219,384,-4411,8820
52682023,4001,0,0.25736427,-1.1759768,-10.864118,-0.04238645,-0.005651948,-0.0016072809,59.434902,156.9064,0.0047884034,1442850,1986,586,-872,8821
52886029,4006,0,-1.4457023,1.5797191,-10.527917,0.041153032,-0.0005728868,-0.034536418,59.42382,156.9064,0.0047884034,1442850,-2151,995,330,8817
52986023,3955,0,-0.82857734,2.256744,-9.522475,-0.023223944,0.008998545,-0.014826352,59.434902,156.9064,0.0047884034,1442850,-208,-265,-2332,8821
53090022,4000,0,-0.750636,-0.039906524,-9.265301,-0.028546765,0.0043126335,-0.062240664,59.45983,156.9064,0.0047884034,1442850,-321,-721,-4880,8830
53194023,4001,0,-1.38939,-1.2831522,-10.755036,-0.01724688,0.009459053,-0.0402358,59.434902,156.9064,0.0047884034,1442850,-1000,-84,-499,8821
53294023,3955,0,-0.6493032,-0.7164167,-10.828715,-0.03245782,0.027835827,-0.025979947,59.454292,156.9064,0.0047884034,1442850,1517,-914,-508,8828
53398023,3994,0,-0.73693806,1.2573191,-8.881932,-0.028448297,0.011416145,-0.009844286,59.434902,156.9064,0.0047884034,1442850,226,-273,-1882,8821
53498023,3986,0,0.21894562,1.4881216,-9.059229,-0.029401742,-0.0032024914,-0.012804044,59.465374,156.9064,0.0047884034,1442850,1555,511,-1551,8832
53598068,4039,0,-0.19746594,0.46648335,-10.488429,-0.026456345,0.0010267734,-0.028766949,59.45706,156.9064,0.0047884034,1442850,340,501,-1095,8829
53702029,4006,0,-1.251713,-0.76521844,-11.016993,0.021872912,0.00047168415,-0.034948684,59.462605,156.9064,0.0047884034,1442850,-2165,17,-761,8831
53802029,4002,0,-1.4345665,-0.045284074,-10.074527,0.025958672,0.008361163,-0.06920786,59.45706,156.9064,0.0047884034,1442850,-1996,-194,-2317,8829
53906055,4032,0,-0.2686496,0.7121265,-9.7485485,-0.036289718,0.012772983,-0.05964504,59.47645,156.9064,0.0047884034,1442850,1085,-1427,-1351,8836
54006022,4000,0,-1.3183682,0.3426959,-8.520897,0.0050477693,0.0007693644,-0.039490983,59.465374,156.9064,0.0047884034,1442850,-1634,-734,-3292,8832
54106022,3954,0,-0.43745032,0.25252914,-10.402852,-0.007026187,-0.003789445,-0.037791274,59.45706,156.9064,0.0047884034,1442850,-317,633,-1843,8829
54210023,4000,0,0.88565546,-1.058065,-9.599066,-0.014802264,-0.0029587513,-0.014340496,59.47645,156.9064,0.0047884034,1442850,2003,-944,-1480,8836
54310031,4008,0,-1.3086785,0.49551588,-10.62434,-0.009957364,0.023502542,-0.05596921,59.504154,156.9064,0.0047884034,1442850,-1250,-853,-1058,8846
54410068,4039,0,-0.8652933,1.7241302,-9.000833,0.026240282,0.0031493236,-0.060070436,59.470913,156.9064,0.0047884034,1442850,-1755,619,-3441,8834
54514022,4000,0,-0.29832512,-0.028519653,-9.228902,-0.03287126,0.01217347,-0.0470635,59.468143,156.9064,0.0047884034,1442850,1160,-1237,-3961,8833
54614023,4001,0,-0.7375014,-0.29236254,-10.138869,-0.011775525,-0.0045531355,-0.031630836,59.495846,156.9064,0.0047884034,1442850,-1038,688,-1966,8843
54718068,4039,0,0.5396346,-0.67006534,-11.078649,-0.005842219,-0.0033125787,-0.009508092,59.470913,156.9064,0.0047884034,1442850,1800,-361,437,8834
54818030,3982,0,-0.81208134,-0.09920144,-8.816107,-0.016217066,0.018032894,-0.054460157,59.481995,156.9064,0.0047884034,1442850,409,-1398,-4818,8838
54918022,3954,0,-1.2455332,1.6645005,-9.959876,0.013953819,-0.0015902794,-0.027188428,59.506924,156.9064,0.0047884034,1442850,-1914,554,-1477,8847
55022029,4007,0,1.1333281,0.3479921,-9.678032,-0.033295214,-0.009351971,-0.03038308,59.490303,156.9064,0.0047884034,1442850,2430,496,-3300,8841
55126022,3993,0,0.06695081,-0.032858305,-11.360071,0.029958293,-0.009533915,-0.013286107,59.506924,156.9064,0.0047884034,1442850,-702,1117,852,8847
55226823,3998,0,-0.65280676,-0.2634007,-8.932818,-0.01998745,0.008911101,-0.07696891,59.481995,156.9064,0.0047884034,1442850,-57,-1978,-4386,8838
55326822,3999,0,0.51128954,1.508126,-9.908367,0.024759244,-0.0005023719,-0.0182942,59.504154,156.9064,0.0047884034,1442850,115,769,-1358,8846
55430823,3958,0,-1.3910766,0.8403138,-10.621917,0.009647819,0.0001250065,-0.036640957,59.487534,156.9064,0.0047884034,1442850,-2048,187,-378,8840
55530823,3984,0,0.04326299,-0.8456485,-9.955448,0.00024439837,0.0020670223,-0.046113327,59.506924,156.9064,0.0047884034,1442850,748,-441,-2741,8847
55634823,4000,0,0.5756928,-1.0993598,-9.407176,-0.015748631,-0.0015834016,-0.0338875,59.498615,156.9064,0.0047884034,1442850,2509,-755,-2131,8844
55734823,4001,0,-0.6586088,0.90406954,-10.520933,-0.0061452026,0.007960149,-0.04210719,59.501385,156.9064,0.0047884034,1442850,-451,292,-1406,8845
55834829,3993,0,-0.6051172,1.0060142,-9.465477,-0.018793428,0.007885143,-0.063424736,59.506924,156.9064,0.0047884034,1442850,-21,-1225,-2454,8847
55938823,3995,0,0.26927072,0.22349548,-9.52267,-0.0036510134,0.007804056,-0.052364036,59.512466,156.9064,0.0047884034,1442850,-288,-449,-2886,8849
56038853,4020,0,0.53416246,-1.0428325,-10.047912,0.016461544,-0.021943139,-0.027500987,59.529087,156.9064,0.0047884034,1442850,298,286,-1534,8855
56138822,3999,0,-0.5711056,-0.6044959,-10.611017,-0.010573347,0.014990427,-0.0401656,59.531857,156.9064,0.0047884034,1442850,191,-195,-1185,8856
56242829,4007,0,-0.7805554,0.8761186,-10.069362,-0.018755931,0.017422322,-0.045858607,59.498615,156.9064,0.0047884034,1442850,145,-662,-794,8844
56342822,4000,0,-0.73721755,1.4407119,-9.324032,0.025380442,0.0006737511,-0.050035145,59.526314,156.9064,0.0047884034,1442850,-2127,327,-3303,8854
56446822,3998,0,-0.031520776,-0.83177406,-8.713498,-0.020041378,-0.011188602,-0.053355478,59.523544,156.9064,0.0047884034,1442850,367,527,-5320,8853
56550828,4006,0,-0.5868863,-0.7188785,-9.435885,-0.025715504,0.010592929,-0.013516763,59.515236,156.9064,0.0047884034,1442850,692,-158,-2363,8850
56650822,3999,0,-1.2240404,1.4113723,-10.076494,0.02938486,0.008782713,-0.03817615,59.542934,156.9064,0.0047884034,1442850,-2359,856,-1920,8860
56754823,3986,0,0.32069817,1.1296554,-9.950481,-0.02097316,0.009697868,-0.02828627,59.518005,156.9064,0.0047884034,1442850,1400,-13,-2186,8851
56854822,3993,0,-0.43241495,0.5377719,-9.652982,-0.02389683,0.010381887,-0.075558476,59.540165,156.9064,0.0047884034,1442850,-411,-1075,-2568,8859
56954841,4018,0,-0.9948407,-0.21630968,-9.661617,0.021421427,-0.008364809,-0.027851362,59.537395,156.9064,0.0047884034,1442850,-2242,1519,-2386,8858
57058823,3994,0,0.90609246,-1.0916998,-9.06704,-0.013853183,0.0022195743,-0.027784314,59.518005,156.9064,0.0047884034,1442850,2613,-596,-3008,8851
57158822,3993,0,0.23645894,0.18681967,-9.902998,-0.033371605,0.008909502,-0.021581894,59.554016,156.9064,0.0047884034,1442850,2069,-1394,-755,8864
57258823,3995,0,-0.72440666,0.89051104,-10.0008745,-0.025982445,0.025482055,-0.04234431,59.537395,156.9064,0.0047884034,1442850,97,-1150,-841,8858
57362829,4006,0,0.3580673,0.24133234,-10.459909,0.03762368,-0.013182782,-0.050162815,59.587257,156.9064,0.0047884034,1442850,-877,1880,-1308,8876
57462829,3956,0,1.1029055,-0.82958955,-9.258238,-0.007940384,-0.02366833,-0.054565888,59.559555,156.9064,0.0047884034,1442850,2188,671,-4561,8866
57566843,4020,0,-1.145534,0.12590125,-9.084611,0.010831427,0.009630121,-0.06766053,59.567867,156.9064,0.0047884034,1442850,-2005,-860,-3887,8869
57666823,4000,0,0.2758191,1.3858409,-9.442615,0.031379502,0.003486177,-0.016897237,59.545704,156.9064,0.0047884034,1442850,-260,-250,-538,8861
57766822,4000,0,0.8271853,1.0279052,-9.619417,-0.025391202,-0.0025026463,-0.011362627,59.58172,156.9064,0.0047884034,1442850,2277,305,-1608,8874
57870822,4000,0,0.64588386,-0.14194417,-9.873508,0.027474217,-0.027093753,-0.022988446,59.584488,156.9064,0.0047884034,1442850,-234,1423,-1431,8875
57974822,3999,0,-1.0971748,-0.8610174,-9.9195,-0.019191278,0.0065976875,-0.072034076,59.590027,156.9064,0.0047884034,1442850,-515,-747,-3207,8877
58074822,4000,0,-0.5264577,-0.4114572,-10.081341,0.012369125,0.004093503,-0.035680067,59.590027,156.9064,0.0047884034,1442850,132,-621,-1796,8877
58178831,4008,0,-0.15191267,1.5897169,-10.414481,0.0034016587,0.009835825,-0.06867235,59.562325,156.9064,0.0047884034,1442850,-926,505,-1041,8867
58278829,4000,0,0.2717186,0.5457046,-10.688781,0.025558388,-0.008027529,-0.04942758,59.59834,156.9064,0.0047884034,1442850,-532,1243,-1675,8880
58378823,3994,0,1.6786219,-0.5444879,-10.736134,0.005509286,-0.004036543,-0.022176303,59.590027,156.9064,0.0047884034,1442850,1933,62,-132,8877
58483637,4014,0,-1.3839865,-0.55097854,-9.376567,0.024128858,-0.010595436,-0.04790584,59.614956,156.9064,0.0047884034,1442850,-1638,588,-3954,8886
58583628,4005,0,0.34854317,0.5477186,-9.100242,0.013385341,-0.013000207,-0.04090005,59.603878,156.9064,0.0047884034,1442850,1302,816,-2937,8882
58683622,4000,0,0.5948643,1.1563951,-8.978815,-0.0054167076,-0.000554599,-0.032201905,59.62327,156.9064,0.0047884034,1442850,2006,109,-3664,8889
58787623,4000,0,-0.4127202,0.25122574,-10.672871,-0.015988749,-0.008019495,-0.07025406,59.606647,156.9064,0.0047884034,1442850,-1039,415,-1578,8883
58887622,4000,0,-0.7623296,-0.60619533,-10.955301,0.014545114,-0.007552835,-0.044932924,59.592796,156.9064,0.0047884034,1442850,-1788,1515,-1132,8878
58991624,3987,0,0.50343627,-0.9433125,-9.682074,-0.02164706,-0.0019855853,-0.043792773,59.595566,156.9064,0.0047884034,1442850,1862,-1829,-1899,8879
59091646,3998,0,0.27033103,0.31520846,-8.790318,-0.017089838,0.00084546255,-0.052055698,59.63989,156.9064,0.0047884034,1442850,1481,-1416,-3278,8895
59191622,3993,0,0.14009547,1.1732352,-8.53467,-0.02901294,0.0019549143,-0.075730145,59.592796,156.9064,0.0047884034,1442850,1691,-698,-4559,8878
59295623,3994,0,-1.0669585,-0.08031057,-10.5983515,0.031370744,-0.008371519,-0.038462177,59.63989,156.9064,0.0047884034,1442850,-2797,153,-734,8895
59395622,4000,0,-0.5708058,-0.79354596,-10.481826,0.006914506,-0.01003056,-0.038062163,59.63435,156.9064,0.0047884034,1442850,-1203,1294,-2240,8893
59495629,3968,0,-1.3002229,-1.1122439,-10.740884,0.007811971,0.005395922,-0.020145088,59.63989,156.9064,0.0047884034,1442850,-1712,498,-1315,8895
59599623,3994,0,0.5714514,0.97148657,-8.930696,0.012661113,-0.008584044,-0.043647923,59.606647,156.9064,0.0047884034,1442850,1101,93,-4008,8883
59699636,4014,0,0.5784987,1.5450292,-9.047042,0.017860886,-0.007531722,-0.048192322,59.6205,156.9064,0.0047884034,1442850,418,183,-3383,8888
59799622,4000,0,0.23828316,0.5343869,-9.71928,0.028951075,-0.0083071105,-0.05815862,59.626038,156.9064,0.0047884034,1442850,-391,234,-3061,8890
59903667,4045,0,1.2697877,-1.4520601,-10.338948,-0.029013751,-0.004055205,-0.014262779,59.6205,156.9064,0.0047884034,1442850,2706,122,-589,8888
60003622,3999,0,0.27905592,-1.5684882,-10.079621,-0.017140374,0.012892846,-0.018117078,59.63989,156.9064,0.0047884034,1442850,2463,-1041,-1359,8895
60107622,3998,0,-0.39519125,0.86637056,-10.521009,-0.033386838,0.020629598,-0.030081935,59.626038,156.9064,0.0047884034,1442850,728,-1031,-1092,8890
60207623,4001,0,0.3379602,1.0915452,-9.537241,-0.015938098,0.00793811,-0.0086527085,59.67313,156.9064,0.0047884034,1442850,629,-570,-1789,8907
60307623,4000,0,-0.45014405,-0.05889599,-9.226675,-0.028904768,0.00081914524,-0.04419291,59.63712,156.9064,0.0047884034,1442850,274,-591,-4233,8894
60411622,4000,0,-0.6311548,-1.0345215,-10.641527,0.011159549,-0.008008459,-0.031231329,59.65928,156.9064,0.0047884034,1442850,-1842,-40,17,8902
60511622,3965,0,-1.7254764,-0.24622068,-9.405656,0.018739793,0.0011828515,-0.020477634,59.66205,156.9064,0.0047884034,1442850,-2347,-175,-1532,8903
60615641,4019,0,0.75131714,1.9134961,-10.475578,0.021840602,-0.014178266,-0.053940885,59.648197,156.9064,0.0047884034,1442850,709,316,-475,8898
60715629,4007,0,0.64226246,1.4651297,-9.661788,0.025386304,-0.0118237585,-0.019439563,59.63712,156.9064,0.0047884034,1442850,-95,894,-1018,8894
60815675,4052,0,-0.112521805,0.05279683,-9.243549,0.028515764,-0.0042591677,-0.07674243,59.63435,156.9064,0.0047884034,1442850,-1234,962,-4830,8893
60919630,4008,0,1.369665,-1.4091073,-10.074487,-0.010349686,-0.006664755,-0.021965612,59.69252,156.9064,0.0047884034,1442850,2625,-58,-1877,8914
61023629,4006,0,-0.70484143,0.72367793,-10.305213,-0.024479948,0.01211228,-0.019336186,59.65651,156.9064,0.0047884034,1442850,282,-210,-1138,8901
61123628,3989,0,1.1401429,0.58487433,-9.051069,-0.025341429,0.00996973,-0.023817237,59.68975,156.9064,0.0047884034,1442850,2388,-1386,-2011,8913
61227643,4021,0,0.96036065,-0.24324748,-10.224459,-0.03538829,-0.009773392,-0.01813892,59.648197,156.9064,0.0047884034,1442850,2101,-322,427,8898
61327623,4001,0,-1.1663384,-1.0021745,-9.225073,0.018597288,-0.0060279667,-0.021948533,59.68144,156.9064,0.0047884034,1442850,-1397,749,-2051,8910
61427623,3999,0,1.751503,-1.3090734,-9.810803,0.0025101043,-4.978967e-05,-0.024894888,59.69529,156.9064,0.0047884034,1442850,2335,-722,-748,8915
61531629,4007,0,-0.19975492,1.1842923,-9.706204,0.050563365,-0.0012378441,-0.05641696,59.69529,156.9064,0.0047884034,1442850,-1379,542,-2176,8915
61631654,4032,0,-1.0910281,1.833689,-9.6467085,-0.015936626,0.004064067,-0.016946182,59.67867,156.9064,0.0047884034,1442850,-805,79,-1403,8909
61735623,4001,0,-0.8853582,-0.2032021,-10.604851,0.0025581755,0.001595262,-0.03890531,59.70083,156.9064,0.0047884034,1442850,-2163,188,-1003,8917
61839656,4034,0,-1.8775929,-0.8072962,-10.467781,-0.017319573,0.0060112355,-0.060003623,59.67867,156.9064,0.0047884034,1442850,-1839,72,-1450,8909
61939622,4000,0,0.71191937,-1.059696,-9.932637,-0.029633222,0.012778561,-0.016781524,59.69806,156.9064,0.0047884034,1442850,2315,-1569,-1200,8916
62040423,4000,0,0.5371513,1.4678351,-10.108859,0.03357645,-0.0022903574,-0.050875608,59.66759,156.9064,0.0047884034,1442850,398,748,-1145,8905
62144429,4006,0,0.911142,1.4339362,-9.850674,0.03352321,-0.016828189,-0.057870507,59.71191,156.9064,0.0047884034,1442850,-76,1510,-2815,8921
62244423,4000,0,-1.4167786,-0.7554492,-10.193362,0.014354708,-0.0051455097,-0.03129169,59.71191,156.9064,0.0047884034,1442850,-2824,401,-1066,8921
62344456,4033,0,-0.12548846,-1.6232573,-9.86577,-0.054203603,0.0030236053,-0.06786885,59.71191,156.9064,0.0047884034,1442850,1944,-837,-3667,8921
62448431,4008,0,-0.43268386,0.0062270886,-9.187788,-0.035435665,0.016381012,-0.030665515,59.70637,156.9064,0.0047884034,1442850,52,-1519,-2738,8919
62548423,4000,0,0.69948095,0.9062062,-9.882943,-0.033704974,0.008479493,-0.0536225,59.720222,156.9064,0.0047884034,1442850,2354,-969,-1347,8924
62648423,4000,0,0.84907967,1.3787432,-10.02288,0.01027835,-0.012163306,-0.014196456,59.72853,156.9064,0.0047884034,1442850,1799,542,-583,8927
62752422,3974,0,1.1388217,-1.5328962,-9.859954,-0.03030017,0.0035698512,-0.05704438,59.70914,156.9064,0.0047884034,1442850,2328,-1118,-2679,8920
62852422,3986,0,1.3264421,-1.2109394,-10.905254,-0.023809087,-0.00862737,-0.042118803,59.68975,156.9064,0.0047884034,1442850,2815,28,-508,8913
62956422,3991,0,-0.2554012,0.77768654,-8.494043,-0.015085154,0.016084746,-0.049470015,59.742382,156.9064,0.0047884034,1442850,189,-924,-4630,8932
63056423,4000,0,-0.49926233,1.1998396,-9.508289,-0.0323286,0.0117234625,-0.0642785,59.69252,156.9064,0.0047884034,1442850,287,-426,-2832,8914
63156429,4005,0,-0.25634924,0.83316994,-10.16109,-0.028715502,0.0068921302,-0.038565468,59.7313,156.9064,0.0047884034,1442850,1060,270,-1718,8928
63260423,3995,0,-0.25856698,-0.6533139,-9.877656,0.016537271,-0.005969399,-0.035493374,59.756233,156.9064,0.0047884034,1442850,-1552,882,-2558,8937
63360436,4014,0,-0.9960501,-1.2876984,-9.687447,0.018122673,0.00093014026,-0.04142058,59.739613,156.9064,0.0047884034,1442850,-1897,355,-2771,8931
63464429,4007,0,0.025513198,0.08826767,-10.98063,-0.007966842,0.0051140776,-0.03306868,59.739613,156.9064,0.0047884034,1442850,1268,-999,1163,8931
63564429,4006,0,0.6557514,1.2934109,-10.141683,-0.00026143622,-0.015045974,-0.025020082,59.72853,156.9064,0.0047884034,1442850,1658,41,-28,8927
63664423,4001,0,0.6196881,1.5543878,-9.400767,0.034522526,-0.023269063,-0.014235508,59.72853,156.9064,0.0047884034,1442850,230,1995,-2350,8927
63768423,3960,0,1.6063687,-1.3609056,-10.41048,-0.008351892,-0.0096399095,-0.060204096,59.76731,156.9064,0.0047884034,1442850,2399,631,-2688,8941
63868422,4000,0,1.0796013,-1.279722,-10.651172,0.015014887,-0.010494696,-0.012843317,59.756233,156.9064,0.0047884034,1442850,1480,495,-1481,8937
63968423,4000,0,-2.0153294,-0.48917094,-9.108136,0.018928574,0.00976475,-0.049280345,59.761772,156.9064,0.0047884034,1442850,-2125,165,-4172,8939
64072422,3999,0,-1.0038694,1.9465804,-9.066527,0.013596667,0.009704117,-0.023263533,59.736843,156.9064,0.0047884034,1442850,-1578,475,-2663,8930
64172422,3961,0,0.67953706,1.1367475,-9.58635,-0.04173425,0.0014566637,-0.06210857,59.756233,156.9064,0.0047884034,1442850,2357,-265,-2203,8937
64276440,4018,0,1.5454977,-1.2541986,-10.206087,-0.024739075,-0.008147032,-0.0650112,59.759003,156.9064,0.0047884034,1442850,2893,755,-3233,8938
64376424,4001,0,0.73061126,-1.9299479,-9.8013525,0.026763868,0.0005197814,-0.046327867,59.736843,156.9064,0.0047884034,1442850,-129,-774,-3395,8930
64476429,4007,0,-3.1846666,-0.32967374,-10.625637,-0.01978942,0.0022694482,-0.007643685,59.74792,156.9064,0.0047884034,1442850,-1562,-51,-749,8934
64580423,3994,0,-0.18237332,0.78080815,-10.462658,-0.033303376,0.016593324,-0.022189109,59.7867,156.9064,0.0047884034,1442850,1432,-1071,34,8948
64680423,4001,0,-0.35312435,1.8513582,-8.492664,0.041998442,-0.004170048,-0.036499336,59.778393,156.9064,0.0047884034,1442850,-1548,744,-4376,8945
64780472,4049,0,1.370387,0.46093434,-10.879167,-0.0395651,-0.0057368567,-0.039230496,59.742382,156.9064,0.0047884034,1442850,2853,618,-145,8932
64884423,4001,0,1.0672642,-1.5025997,-10.36417,0.022477442,-0.0027231397,-0.0646443,59.76454,156.9064,0.0047884034,1442850,892,484,-2749,8940
64984422,4000,0,-0.50934404,-0.414778,-10.1105995,-0.04624043,0.008668829,-0.0004865147,59.759003,156.9064,0.0047884034,1442850,1269,-700,-12,8938
65088422,3999,0,1.829532,1.0366673,-9.763806,0.007743692,-0.003926629,-0.04238777,59.778393,156.9064,0.0047884034,1442850,2299,-559,-1131,8945
65192423,4001,0,0.0057171807,0.70989776,-9.881476,0.039585844,-0.015051532,-0.07132816,59.76454,156.9064,0.0047884034,1442850,-2161,1450,-1497,8940
65292423,4001,0,1.5505309,-1.3849162,-10.031454,-0.026454534,-0.009656572,-0.051219456,59.775623,156.9064,0.0047884034,1442850,2821,-953,-1893,8944
65396422,4000,0,-0.43987632,-1.3190075,-8.712472,0.038398013,0.0017764696,-0.036007524,59.781162,156.9064,0.0047884034,1442850,-930,-618,-3825,8946
65496422,3994,0,-0.45115578,0.7133388,-10.46987,-0.043566614,0.015756171,-0.020742705,59.792244,156.9064,0.0047884034,1442850,2008,128,-440,8950
65596423,4001,0,-0.8086379,1.7767284,-8.537118,0.042595416,-0.002255742,-0.062695086,59.76731,156.9064,0.0047884034,1442850,-2023,434,-4755,8941
65697223,4000,0,0.5384054,0.56672347,-9.778239,-0.03996905,-0.003869017,-0.016013697,59.76454,156.9064,0.0047884034,1442850,1770,-1048,-1059,8940
65801223,4000,0,1.429904,-1.0549531,-10.081096,0.0389345,-0.02113188,-0.016471893,59.7867,156.9064,0.0047884034,1442850,799,449,-1429,8948
65901223,4000,0,-0.18284209,-0.99623466,-11.123466,-0.05191602,0.010100469,-0.05279447,59.74515,156.9064,0.0047884034,1442850,1149,-786,352,8933
66005234,4012,0,0.8943137,0.5700345,-9.566776,0.007388154,-0.003575823,-0.079605095,59.71468,156.9064,0.0047884034,1442850,2008,-579,-2858,8922
66105223,4001,0,-0.70029646,1.9436789,-9.010126,-0.05157674,0.0023867039,-0.02112614,59.789474,156.9064,0.0047884034,1442850,-102,-30,-2557,8949
66205223,4000,0,0.2805694,0.93469054,-10.174419,0.03951527,-0.017661849,-0.044509307,59.761772,156.9064,0.0047884034,1442850,-1853,1269,-426,8939
66309266,4043,0,-1.5000823,-1.3611088,-11.259772,-0.009375572,-0.0002995138,-0.020100972,59.775623,156.9064,0.0047884034,1442850,-2552,6,402,8944
66409261,4039,0,-0.9441107,-1.0889822,-9.070483,0.042511217,0.0014226295,-0.053547323,59.781162,156.9064,0.0047884034,1442850,-1761,208,-4372,8946
66509222,4000,0,1.3894583,-0.021940304,-10.307046,-0.029456621,0.0072022504,-0.02281225,59.76731,156.9064,0.0047884034,1442850,3294,-701,-1056,8941
66613235,4006,0,-0.26690778,2.0613692,-9.658964,0.046998452,-0.009639416,-0.03573373,59.756233,156.9064,0.0047884034,1442850,-1601,1543,-2838,8937
66713222,3994,0,1.8249778,0.22983861,-9.145373,-0.022983046,-0.0038510158,-0.047277227,59.75069,156.9064,0.0047884034,1442850,3091,-341,-2870,8935
66817229,3983,0,-0.13210578,-1.2783082,-9.509177,0.049472563,-0.008546721,-0.023694677,59.76731,156.9064,0.0047884034,1442850,-2143,-12,-2659,8941
66921222,3945,0,-3.203553,0.4947403,-9.7424,0.007079713,0.006193409,0.00064621284,59.772854,156.9064,0.0047884034,1442850,-3002,-149,-917,8943
67021261,4032,0,-0.07480776,1.1989552,-8.606012,0.03991209,1.6275328e-05,-0.061211128,59.75069,156.9064,0.0047884034,1442850,-658,603,-4082,8935
67125228,4006,0,-1.2300204,0.91188776,-9.012726,0.00027080625,0.0049828077,-0.034615293,59.742382,156.9064,0.0047884034,1442850,-2312,69,-4354,8932
67225229,4007,0,0.7488098,0.24163866,-10.517188,0.0389277,-0.018550698,-0.027349874,59.781162,156.9064,0.0047884034,1442850,-1436,1443,-386,8946
67325233,4010,0,1.4389067,-1.9192808,-10.026494,-0.047647793,-0.000403848,-0.06384817,59.78393,156.9064,0.0047884034,1442850,3598,-1044,-3141,8947
67429227,3964,0,-1.0045,0.051161084,-8.6604595,0.045848586,0.0024376083,-0.05327467,59.73407,156.9064,0.0047884034,1442850,-1404,-294,-4939,8929
67529222,4000,0,0.94694513,1.3347688,-10.02334,-0.03507149,0.019504156,-0.009870593,59.76731,156.9064,0.0047884034,1442850,3139,-871,-202,8941
67629222,4000,0,-0.6965595,2.4315007,-9.350237,0.025919614,-0.0010216315,-0.070646755,59.75069,156.9064,0.0047884034,1442850,-1870,1288,-3327,8935
67733222,4000,0,-1.1381183,-0.22514232,-10.570402,-0.020434251,0.0013360009,-0.051353432,59.76454,156.9064,0.0047884034,1442850,-868,442,-1707,8940
67833222,3955,0,-0.81230134,-1.3924109,-8.877441,0.04384096,-0.0045148823,-0.031466942,59.778393,156.9064,0.0047884034,1442850,-1965,328,-3706,8945
67937229,4007,0,-1.0401037,0.6393914,-9.493121,-0.049818996,0.012433928,-0.047100205,59.72853,156.9064,0.0047884034,1442850,852,-736,-3731,8927
68041222,4000,0,1.633769,1.3144377,-9.2965,0.0067242067,0.0013338112,-0.07208869,59.76731,156.9064,0.0047884034,1442850,2193,69,-3283,8941
68141222,3993,0,0.18515828,0.21300665,-9.559366,-0.04390248,0.004148835,-0.009623733,59.73407,156.9064,0.0047884034,1442850,1467,39,-1986,8929
68245222,3993,0,0.8195002,-1.2931031,-9.273324,0.037332222,-0.0046248888,-0.06490587,59.75069,156.9064,0.0047884034,1442850,-290,-312,-5395,8935
68345230,4008,0,2.0518913,-1.3587509,-10.035513,-0.010996497,0.013593666,-0.029968524,59.742382,156.9064,0.0047884034,1442850,3044,-1693,-1075,8932
68445229,4003,0,-1.0578723,0.56663096,-10.575627,-0.041776683,0.0070408047,-0.00754629,59.761772,156.9064,0.0047884034,1442850,695,-572,1040,8939
68549227,3998,0,0.34189484,1.5682514,-8.851094,0.048748046,-0.01320405,-0.020974262,59.761772,156.9064,0.0047884034,1442850,-1345,674,-2431,8939
68649222,4000,0,2.342587,0.14684297,-10.549042,0.010137678,-0.018246584,-0.052197933,59.76731,156.9064,0.0047884034,1442850,2310,23,-1602,8941
68749222,3971,0,1.1896157,-1.3534536,-11.327528,-0.05385115,-0.001677664,-0.066616245,59.76731,156.9064,0.0047884034,1442850,3733,319,-800,8941
68853235,3964,0,-1.7872561,-0.3144845,-10.26053,0.03925299,0.002651619,-0.024170548,59.775623,156.9064,0.0047884034,1442850,-2601,615,-1271,8944
68953262,4040,0,-0.6010458,0.7200825,-9.132926,0.040423386,0.008028975,-0.07647726,59.756233,156.9064,0.0047884034,1442850,-676,-415,-4283,8937
69057222,4000,0,-0.40231907,1.7257066,-9.921167,-0.04587977,0.0020109266,-0.04123763,59.761772,156.9064,0.0047884034,1442850,813,884,-2072,8939
69157222,3987,0,-2.3384159,-0.4139672,-8.803879,0.021749638,-0.0071864366,-0.04458186,59.781162,156.9064,0.0047884034,1442850,-3642,65,-3347,8946
69257222,4000,0,-0.83973825,-1.310549,-8.693568,0.03247983,-0.009504618,-0.02741324,59.772854,156.9064,0.0047884034,1442850,-2323,319,-4413,8943
69362068,4045,0,0.81973994,0.013578727,-10.739621,-0.050435945,0.024161711,-0.07654857,59.759003,156.9064,0.0047884034,1442850,2926,-1376,-924,8938
69466022,3999,0,-0.9835605,1.9860488,-9.589692,0.05223056,-0.0022941062,-0.027443204,59.753464,156.9064,0.0047884034,1442850,-3034,908,-1599,8936
69566029,4006,0,1.1000063,0.65455616,-9.899123,0.04902052,-0.016456403,-0.0890479,59.76731,156.9064,0.0047884034,1442850,-645,896,-3011,8941
69670068,4030,0,-0.1335497,-1.1210816,-11.619028,-0.04857153,-0.002919106,-0.037548605,59.78393,156.9064,0.0047884034,1442850,1140,-163,501,8947
69770033,4010,0,-2.429521,-0.098588556,-9.056762,-0.031574994,0.003998931,-0.04319249,59.781162,156.9064,0.0047884034,1442850,-1514,-174,-4603,8946
69870023,3955,0,-2.0525713,1.272563,-8.401449,0.03808955,0.0035465397,0.0095089935,59.80332,156.9064,0.0047884034,1442850,-2873,-205,-2616,8954
69974023,4000,0,0.37080324,-0.004741124,-9.1165905,-0.052214935,0.0031786736,-0.026197422,59.808865,156.9064,0.0047884034,1442850,1970,-111,-2263,8956
70074022,3961,0,-1.0510558,-0.09085207,-10.729555,0.024468146,-0.0119035095,-0.038148656,59.775623,156.9064,0.0047884034,1442850,-3368,1055,-1236,8944
70174068,4046,0,1.9762533,-1.6188684,-9.829806,0.010602708,-0.006610937,-0.06893592,59.76731,156.9064,0.0047884034,1442850,1958,-515,-2985,8941
70278022,3993,0,-2.8982,0.33380413,-8.695725,0.029959373,0.01414806,-0.0353982,59.772854,156.9064,0.0047884034,1442850,-3122,-116,-4232,8943
70378023,4001,0,1.4704874,0.8430996,-9.663848,0.011733425,-0.009141231,-0.022521151,59.761772,156.9064,0.0047884034,1442850,1869,284,-1416,8939
70482072,4049,0,0.028846115,1.0601944,-10.190219,0.037973937,-0.01469066,-0.040177733,59.7867,156.9064,0.0047884034,1442850,-1778,1366,-1069,8948
70582022,3993,0,1.2745087,-0.6967497,-9.817617,-0.036308274,-0.008962683,-0.03436311,59.781162,156.9064,0.0047884034,1442850,2985,219,-2094,8946
70682049,3975,0,-0.68157893,-1.2870655,-9.935371,0.042662196,-0.0035217311,-0.07313831,59.778393,156.9064,0.0047884034,1442850,-1902,-189,-3448,8945
70786028,4005,0,-2.0857441,-0.055433523,-8.822933,0.0106111895,-0.0010654476,-0.019347254,59.806095,156.9064,0.0047884034,1442850,-2389,297,-2753,8955
70886029,3998,0,1.1885116,1.3838426,-9.640752,-0.018033748,0.011342666,-0.06548914,59.797783,156.9064,0.0047884034,1442850,2781,-635,-2995,8952
70986069,4046,0,-0.1070674,2.7477226,-9.612576,0.040138774,-0.016468927,-0.023410458,59.814404,156.9064,0.0047884034,1442850,-1491,2254,-2396,8958
71090023,3995,0,0.22061019,-0.07500471,-10.432998,0.041845016,-0.021857359,-0.062287014,59.792244,156.9064,0.0047884034,1442850,-1176,2157,-1634,8950
71190022,4000,0,-0.8528953,-1.7999688,-10.579932,-0.015651215,-0.0025944272,-0.018081034,59.792244,156.9064,0.0047884034,1442850,-718,-162,-1208,8950
71294068,4045,0,-2.6237311,0.40173838,-10.854801,0.004473171,0.019598734,-0.028728321,59.825485,156.9064,0.0047884034,1442850,-2836,-617,838,8962
71394022,3999,0,0.9772664,0.5433901,-9.241166,-0.030872587,0.010119392,-0.007995235,59.833794,156.9064,0.0047884034,1442850,2699,-672,-1395,8965
71494022,3945,0,1.1202912,2.0284634,-8.44805,0.008985148,-0.004193625,-0.04991567,59.808865,156.9064,0.0047884034,1442850,1867,397,-5511,8956
71598023,4000,0,0.84271586,-0.20216112,-9.747322,-0.025002178,-0.010537318,-0.01713749,59.822716,156.9064,0.0047884034,1442850,2578,236,-2512,8961
71698023,4000,0,1.2505744,-1.4016643,-9.745801,0.024428891,-0.016441166,-0.047246903,59.844875,156.9064,0.0047884034,1442850,553,317,-3381,8969
71798074,4051,0,-0.9994115,-1.3326093,-10.64834,0.023735717,-0.010524423,-0.0706288,59.858727,156.9064,0.0047884034,1442850,-1449,871,-2803,8974
71902023,3994,0,0.6049133,0.70814776,-9.038417,0.027265305,-0.008979166,-0.0462482,59.850414,156.9064,0.0047884034,1442850,240,325,-2954,8971
72002022,4000,0,-1.2247293,2.2297122,-9.619741,0.027855938,-5.7081692e-05,-0.070666015,59.808865,156.9064,0.0047884034,1442850,-2000,609,-3380,8956
72106074,4048,0,1.5948066,0.26632887,-9.226006,0.008506408,-0.018941155,-0.033703845,59.806095,156.9064,0.0047884034,1442850,1401,-249,-1713,8955
72210043,4007,0,0.32659778,-1.2085304,-10.884785,-0.03993029,0.007867535,-0.014914909,59.825485,156.9064,0.0047884034,1442850,1610,-812,-496,8962
72310023,4000,0,0.83375514,-1.2464916,-10.285993,-0.024912782,4.8401766e-05,-0.016865348,59.822716,156.9064,0.0047884034,1442850,2276,-1762,455,8961
72414074,4051,0,0.4036546,0.990157,-9.133001,-0.041065022,0.019752398,-0.06229444,59.839333,156.9064,0.0047884034,1442850,1846,-1731,-3717,8967
72514023,4000,0,0.9734075,1.6702673,-9.788571,-0.020583572,0.0026961276,-0.056525983,59.839333,156.9064,0.0047884034,1442850,2417,-276,-2418,8967
72614031,3960,0,1.4058586,-0.092708625,-10.779716,0.0066816993,-0.011485841,-0.047248542,59.831024,156.9064,0.0047884034,1442850,1559,40,-566,8964
72718022,4000,0,0.5091699,-1.4201533,-9.797107,-0.03711108,0.008145161,-0.020382367,59.886425,156.9064,0.0047884034,1442850,2028,-1031,-1491,8984
72818023,3992,0,0.84780306,-1.0637069,-9.404059,-0.0038492633,0.0038265963,-0.021250151,59.842106,156.9064,0.0047884034,1442850,2325,-948,-2369,8968
72918068,4045,0,0.36260995,0.73393536,-9.614128,0.02287379,-0.0022519976,-0.012906237,59.900276,156.9064,0.0047884034,1442850,567,-172,-567,8989
73022023,3994,0,0.24651152,0.8372601,-9.067347,-0.035943996,0.005851875,-0.048776705,59.844875,156.9064,0.0047884034,1442850,1906,-678,-4398,8969
73122823,4000,0,0.4857423,-0.52330947,-8.772054,-0.02999704,-0.0013788207,-0.03598939,59.889194,156.9064,0.0047884034,1442850,2316,-199,-4950,8985
73222823,4001,0,1.1731195,-1.2097553,-10.033909,-0.02467873,-0.003933712,-0.010697627,59.864265,156.9064,0.0047884034,1442850,2685,-391,-443,8976
73326822,3999,0,-0.5571632,0.5528703,-8.568278,-0.033779625,0.010776839,-0.048938695,59.889194,156.9064,0.0047884034,1442850,596,-382,-5564,8985
73426823,4000,0,-0.7055892,1.0577555,-8.732034,-0.01888774,0.012966112,-0.018056644,59.883656,156.9064,0.0047884034,1442850,-880,-307,-3081,8983
73526823,4000,0,-0.89925647,1.3471678,-9.534401,-0.017829975,-0.0034831446,-0.027516926,59.858727,156.9064,0.0047884034,1442850,-715,-68,-868,8974
73630823,4000,0,-0.30877885,-0.2452219,-10.088267,0.032949246,-0.008889165,-0.0177886,59.889194,156.9064,0.0047884034,1442850,-1360,1056,-2264,8985
73730861,4039,0,0.7716984,-0.64394724,-10.802044,0.03510014,-0.007673411,-0.026726034,59.897507,156.9064,0.0047884034,1442850,470,653,-1197,8988
73834822,3999,0,-1.4264963,0.80165935,-10.137764,-0.015665045,0.010388274,-0.0222102,59.891968,156.9064,0.0047884034,1442850,-782,-340,-2150,8986
73938822,4000,0,0.2799702,1.1948723,-10.211298,0.023514934,-0.012583414,-0.01602644,59.905815,156.9064,0.0047884034,1442850,119,708,-1081,8991
75154826,3975,0,-0.210587,-0.91228735,-10.219589,-0.024183078,-0.008170712,-0.03566216,59.9446,156.9064,0.0047884034,1442850,259,-191,-2267,9005
75258823,4001,0,0.44943285,0.05222855,-10.06014,-0.004850388,-0.004919714,-0.011949817,59.916897,156.9064,0.0047884034,1442850,1934,-390,-319,8995
75358822,3999,0,-0.36775044,0.92009234,-9.690062,-0.008251673,0.0133379605,-0.04458232,59.925205,156.9064,0.0047884034,1442850,309,-315,-2158,8998
75458829,4006,0,-0.192763,0.88711584,-8.2969475,-0.018216379,0.0009952215,-0.050271474,59.939056,156.9064,0.0047884034,1442850,-194,-646,-4653,9003
75562822,3993,0,-0.017244512,-0.3642535,-9.493319,0.019595075,-0.010457854,-0.051388558,59.952908,156.9064,0.0047884034,1442850,-348,661,-3628,9008
75662822,3993,0,0.6045228,-0.69020694,-10.177641,0.028378366,-0.013394086,-0.007761837,59.98061,156.9064,0.0047884034,1442850,382,230,-377,9018
75766832,3993,0,-0.6428571,0.77892613,-9.687685,-0.014211617,0.00571376,-0.008899355,59.9446,156.9064,0.0047884034,1442850,-52,-297,-1846,9005
75866828,4006,0,-0.32532015,0.7731298,-9.786885,-0.02063115,0.01713537,-0.059097666,59.96122,156.9064,0.0047884034,1442850,-285,-1153,-1981,9011
75966822,4000,0,-0.7978636,0.49866638,-8.910082,-0.021678664,0.0049779583,-0.06576805,59.955677,156.9064,0.0047884034,1442850,-743,-484,-4071,9009
76070822,4000,0,0.640641,-0.8620407,-9.726552,0.03428769,-0.010841796,-0.046105668,59.94737,156.9064,0.0047884034,1442850,-346,-42,-3274,9006
76170830,3977,0,0.92493457,-0.6683974,-9.53788,0.01717275,-0.011705192,-0.024963751,59.975067,156.9064,0.0047884034,1442850,1473,748,-2095,9016
76270823,4001,0,0.32669953,1.0032762,-10.909159,0.0183037,-0.0015403915,-0.02231384,59.955677,156.9064,0.0047884034,1442850,417,366,510,9009
76374822,4000,0,-0.026356682,1.1202817,-10.033535,-0.011525203,0.0032557198,-0.02172954,59.92798,156.9064,0.0047884034,1442850,331,-451,-1152,8999
76474822,3993,0,0.7705181,0.0054396065,-10.419307,-0.027161185,0.0055828365,-0.052736197,59.930748,156.9064,0.0047884034,1442850,908,-1131,-547,9000
76578823,4001,0,-0.84416395,-0.39357084,-10.676606,-0.0074797473,0.005518294,-0.030094236,59.933517,156.9064,0.0047884034,1442850,-1154,1004,-1201,9001
76678823,3990,0,-1.92983,-0.1511582,-10.854235,-0.020577038,0.02708162,-0.05430386,59.925205,156.9064,0.0047884034,1442850,-1301,-621,-1343,8998
76779623,3954,0,-0.9236631,1.1446023,-10.3643,-0.019618407,0.028079584,-0.0638078,59.930748,156.9064,0.0047884034,1442850,-848,-548,-1657,9000
76883623,3992,0,-0.34020123,1.9301038,-9.4673605,0.038278222,-0.008245573,-0.024755964,59.950138,156.9064,0.0047884034,1442850,-1549,1556,-1822,9007
76983623,4000,0,-0.9827871,0.5642622,-10.314972,0.0144935995,-0.0026272878,-0.024139732,59.933517,156.9064,0.0047884034,1442850,-2263,1060,-1848,9001
