timestamp,integral_dt,error_count,x,y,z,x_integral,y_integral,z_integral,temperature,range_m_s2,scaling,device_id,x_raw,y_raw,z_raw,temperature_raw
32060305,4007,0,0.105345346,0.5938913,-9.887441,0.003198851,0.0014631996,-0.03936126,67.831024,156.9064,0.0047884034,1442850,33,-56,-2212,11852
32160298,3992,0,-0.109755576,-0.044808965,-9.7971945,-0.0011246252,0.0067191245,-0.040980756,67.8421,156.9064,0.0047884034,1442850,4,-484,-2302,11856
32264315,4017,0,-0.37397426,0.25662422,-9.989846,-0.004679514,-0.0012575956,-0.037150085,67.80055,156.9064,0.0047884034,1442850,-46,220,-2338,11841
32364267,3934,0,-0.5576545,0.59093696,-9.611648,0.0008029376,0.01168376,-0.03839131,67.83933,156.9064,0.0047884034,1442850,-424,-725,-2348,11855
32468267,3994,0,-0.83707523,-2.3239114,-9.139352,-0.014264099,0.0020925382,-0.04114938,67.864265,156.9064,0.0047884034,1442850,253,-772,-2834,11864
32568299,4026,0,0.25037578,-0.86478317,-9.384487,-0.012664037,-0.012439223,-0.03732281,67.83379,156.9064,0.0047884034,1442850,1321,351,-2072,11853
32668290,4000,0,-0.08632651,-0.25517464,-9.890156,-0.009850463,-0.010104924,-0.044866484,67.81995,156.9064,0.0047884034,1442850,817,328,-1835,11848
32772290,4000,0,-0.80767924,-1.41662,-10.171383,-0.0010777225,0.000613095,-0.037420426,67.83933,156.9064,0.0047884034,1442850,-825,-616,-1530,11855
32872289,3992,0,0.0010095121,-0.3009046,-10.075734,-0.0063253297,0.01253196,-0.034662664,67.85319,156.9064,0.0047884034,1442850,-436,-470,-1542,11860
32972294,4003,0,0.7679056,1.322248,-9.809391,0.013538053,0.012268972,-0.04562407,67.83933,156.9064,0.0047884034,1442850,-20,-152,-2477,11855
33076320,4029,0,-0.38493457,-0.100039996,-10.26537,0.0014250159,-0.009899257,-0.043224722,67.825485,156.9064,0.0047884034,1442850,108,496,-1732,11850
33176291,4001,0,-0.7585072,-1.0058441,-9.956459,0.0009811751,-0.0031536613,-0.036543097,67.872574,156.9064,0.0047884034,1442850,-237,-381,-1351,11867
33276291,3994,0,0.4127951,0.38032436,-9.710064,0.010177422,0.0058769854,-0.037674822,67.867035,156.9064,0.0047884034,1442850,-70,-409,-2286,11865
33381897,4007,0,-0.2313083,-0.122446224,-10.098557,-0.015563604,-0.0064518587,-0.043055914,67.84487,156.9064,0.0047884034,1442850,520,352,-1547,11857
33481890,3993,0,-1.3701931,-0.86241907,-10.089026,0.0057210773,0.002393879,-0.037965972,67.88366,156.9064,0.0047884034,1442850,-404,-538,-1343,11871
33581891,3963,0,0.9837081,0.7115564,-10.0170555,0.008176908,0.010845789,-0.037717074,67.864265,156.9064,0.0047884034,1442850,-55,-609,-1908,11864
33685908,4017,0,-0.7404073,-0.09648145,-10.205246,-0.0072701355,-0.012421796,-0.04205523,67.88643,156.9064,0.0047884034,1442850,173,447,-1511,11872
33785904,4013,0,-0.6638784,-1.5896624,-10.004466,0.0036953862,0.0061165504,-0.033294234,67.8892,156.9064,0.0047884034,1442850,-433,-827,-1779,11873
33885897,4006,0,0.78285444,0.9259068,-9.821619,0.012085669,0.012696243,-0.0465902,67.861496,156.9064,0.0047884034,1442850,-254,-425,-2180,11863
33989933,4042,0,-0.56910414,-0.3873282,-10.025806,0.0054255133,-0.0066975076,-0.033050068,67.85319,156.9064,0.0047884034,1442850,-13,341,-2243,11860
34089891,4000,0,-1.1166949,-0.24910113,-9.7559595,0.013083284,0.008811109,-0.041530687,67.822716,156.9064,0.0047884034,1442850,-1016,-238,-2147,11849
34193878,4011,0,0.9949457,0.4839722,-10.04198,-0.009075865,-0.0055729747,-0.039715677,67.85873,156.9064,0.0047884034,1442850,389,446,-2162,11862
34293873,4006,0,-1.1734464,-1.2094138,-9.848369,-0.004391553,-0.003588316,-0.043288246,67.872574,156.9064,0.0047884034,1442850,722,-98,-1750,11867
34393867,4000,0,0.357164,0.18981747,-9.875826,0.01750124,0.014473973,-0.037596624,67.85596,156.9064,0.0047884034,1442850,-867,-856,-2141,11861
34497898,4000,0,-0.47487617,0.6330688,-10.181842,-0.01069299,-0.014515523,-0.037635796,67.88088,156.9064,0.0047884034,1442850,377,561,-1838,11870
34597898,3968,0,-0.53673714,-1.4861765,-9.8168545,0.005174107,0.0016261166,-0.040855397,67.87811,156.9064,0.0047884034,1442850,-24,-541,-2252,11869
34697898,4000,0,1.0693129,0.82631314,-10.09479,0.0044934396,0.010059969,-0.04593131,67.88643,156.9064,0.0047884034,1442850,648,-212,-1572,11872
34801898,4000,0,-0.07109458,-0.65296286,-9.927147,-0.006484715,-0.0050849076,-0.042673543,67.869804,156.9064,0.0047884034,1442850,944,291,-2328,11866
34901898,4000,0,-0.7478406,-0.1581226,-9.996872,0.0058669997,0.011376991,-0.04476946,67.89197,156.9064,0.0047884034,1442850,-67,-380,-1462,11874
35005941,4043,0,1.2928057,0.93802893,-10.125696,-0.0028548448,-0.0065130526,-0.047028206,67.8892,156.9064,0.0047884034,1442850,535,801,-2045,11873
35105906,4008,0,-0.8851879,-1.2100581,-10.111752,-0.0049030753,-0.00736911,-0.041898467,67.872574,156.9064,0.0047884034,1442850,728,61,-1507,11867
35205898,4000,0,-0.18213081,-0.42314377,-9.748677,0.013733852,0.011915557,-0.03774924,67.867035,156.9064,0.0047884034,1442850,-1207,-884,-2204,11865
35309867,3963,0,-0.11416182,0.9585722,-10.256581,-0.01098121,-0.008984288,-0.04529565,67.88643,156.9064,0.0047884034,1442850,557,610,-1516,11872
35409867,4000,0,-0.75936633,-1.2512386,-9.934228,0.001144513,-0.0045720614,-0.036393855,67.88088,156.9064,0.0047884034,1442850,-318,-424,-2141,11870
35509883,4016,0,-0.15089327,0.45717698,-9.768696,0.00976353,0.010532576,-0.04085358,67.911354,156.9064,0.0047884034,1442850,-847,-417,-2178,11881
35613909,3970,0,0.36160305,-0.24347639,-10.029521,-0.00215447,-0.0059369137,-0.037071824,67.88366,156.9064,0.0047884034,1442850,492,109,-2500,11871
35713890,4000,0,-1.3525828,-0.62025034,-9.871275,-0.008199125,0.008411611,-0.039726216,67.89474,156.9064,0.0047884034,1442850,-441,-346,-2055,11875
35817891,4000,0,1.2640808,1.233674,-10.151272,-0.017180238,-0.0012146878,-0.04517816,67.911354,156.9064,0.0047884034,1442850,957,367,-2565,11881
35917891,4000,0,-1.0523331,-1.037768,-10.185169,0.0034481157,-0.006004674,-0.04228113,67.908585,156.9064,0.0047884034,1442850,-14,165,-1508,11880
36019468,4001,0,1.3034745,1.6346463,-10.0837345,-0.0027226503,-0.015288496,-0.037181616,67.8892,156.9064,0.0047884034,1442850,336,1113,-1460,11873
36119467,3987,0,1.5606858,1.8023369,-9.964705,0.008077248,0.011156609,-0.038173504,67.88366,156.9064,0.0047884034,1442850,292,317,-1996,11871
36223467,3977,0,1.3830961,1.687856,-10.0373535,-0.018899668,-0.011417654,-0.041938864,67.87534,156.9064,0.0047884034,1442850,1320,830,-2154,11868
36323503,4000,0,0.70483387,1.5519532,-10.24457,-0.017186502,-0.021310262,-0.040944707,67.87811,156.9064,0.0047884034,1442850,934,1203,-1635,11869
36423504,4007,0,-1.4793302,-0.3355691,-10.331739,-0.010177207,-0.027912006,-0.029013788,67.89751,156.9064,0.0047884034,1442850,64,1067,-1438,11876
36527492,4001,0,-0.08764197,-0.97552174,-9.450536,0.022119572,0.030477533,-0.04246083,67.92521,156.9064,0.0047884034,1442850,-1125,-1832,-2207,11886
36627497,4007,0,1.7925661,2.281356,-10.082936,-0.0042099566,0.010270839,-0.04687667,67.85596,156.9064,0.0047884034,1442850,804,600,-2024,11861
36731503,3990,0,-1.1574775,-1.811698,-9.713903,-0.014259294,-0.012106676,-0.031448938,67.900276,156.9064,0.0047884034,1442850,515,-93,-2146,11877
36831498,4007,0,-0.81941366,-0.48888698,-9.9123,0.014257854,0.017601937,-0.036309667,67.89474,156.9064,0.0047884034,1442850,-750,-1673,-2274,11875
36931491,3988,0,0.7910343,1.2856721,-9.896589,0.0107103055,-0.00086050085,-0.03384917,67.908585,156.9064,0.0047884034,1442850,-44,183,-2247,11880
37035491,4000,0,-0.93641067,-0.23404938,-9.825292,0.007941611,0.014087876,-0.03658647,67.941826,156.9064,0.0047884034,1442850,-984,-516,-1438,11892
37139534,4067,0,-1.4767493,-0.093115106,-10.060495,0.007661172,-0.0018387847,-0.035157118,67.908585,156.9064,0.0047884034,1442850,-1487,48,-1332,11880
37239467,3987,0,-1.0041372,1.3347126,-10.698814,-0.019024288,-0.005973967,-0.046720657,67.93352,156.9064,0.0047884034,1442850,106,1072,-625,11889
37343467,3977,0,-1.8134042,1.179181,-10.238092,-0.0052984473,-0.0322373,-0.032179255,67.91689,156.9064,0.0047884034,1442850,-978,1514,-1878,11883
37443497,4007,0,-1.9306651,0.9196521,-10.047882,-0.006231527,-0.020563249,-0.033669785,67.89474,156.9064,0.0047884034,1442850,-1049,1426,-1608,11875
37543504,4013,0,-1.0913388,0.19321398,-10.19975,-0.009195839,-0.015240287,-0.0433453,67.941826,156.9064,0.0047884034,1442850,-470,834,-1268,11892
37647491,3957,0,-1.2026229,-0.5498361,-10.145372,0.01656464,-0.011592186,-0.028201109,67.87534,156.9064,0.0047884034,1442850,-1681,48,-1488,11868
37747491,3950,0,-0.9226589,-0.69155234,-9.655526,0.035111383,-0.012154557,-0.027673116,67.92244,156.9064,0.0047884034,1442850,-2200,79,-1948,11885
37851526,4035,0,2.15062,0.105087526,-10.236156,-0.02016056,0.017988222,-0.050333876,67.92521,156.9064,0.0047884034,1442850,2256,-580,-2115,11886
37955491,4000,0,-2.3018172,0.18935043,-9.46765,0.01589253,-0.022077642,-0.032475013,67.91689,156.9064,0.0047884034,1442850,-2144,990,-2177,11883
38055491,4001,0,2.2049792,-0.45703167,-10.183969,0.023679694,0.01702966,-0.054016273,67.88088,156.9064,0.0047884034,1442850,1119,-1158,-2024,11870
38159503,4012,0,-2.1642048,-0.16378717,-9.631182,0.029024513,-0.0046159825,-0.045892753,67.941826,156.9064,0.0047884034,1442850,-2824,-434,-3223,11892
38259467,4000,0,0.48777264,0.55596364,-9.930621,-0.03692461,0.0071124844,-0.038176257,67.93352,156.9064,0.0047884034,1442850,1502,664,-2213,11889
38359467,3949,0,0.08000513,-0.16507804,-10.327187,0.038185757,0.002260398,-0.038959485,67.911354,156.9064,0.0047884034,1442850,-1643,-262,-1866,11881
38463470,4003,0,0.03139735,0.28330684,-9.653083,0.04067355,0.0052259373,-0.030468341,67.93352,156.9064,0.0047884034,1442850,-1480,201,-1975,11889
38563490,4000,0,-2.6987514,0.6155209,-10.094024,0.016715666,-0.00074386795,-0.038736656,67.950134,156.9064,0.0047884034,1442850,-3136,571,-1123,11895
38665145,4047,0,-1.4215225,-0.3552872,-10.047517,0.061098076,0.0006136466,-0.029556425,67.908585,156.9064,0.0047884034,1442850,-3602,531,-1612,11880
38765099,4001,0,2.2745724,1.056348,-10.119408,-0.046361364,-0.002510352,-0.02177302,67.908585,156.9064,0.0047884034,1442850,4012,620,-1278,11880
38869098,4000,0,2.6540775,-0.3023849,-9.664754,-0.0029463633,0.008319018,-0.066786274,67.93075,156.9064,0.0047884034,1442850,3268,-256,-3590,11888
38969067,4000,0,-3.011267,0.2629806,-10.870199,0.024566198,0.011866951,-0.031334173,67.89197,156.9064,0.0047884034,1442850,-4257,115,-323,11874
39073068,3993,0,-2.6515832,-0.14065398,-8.847633,-0.0245678,-0.013291124,-0.032056242,67.92798,156.9064,0.0047884034,1442850,-1679,695,-2774,11887
39173136,4039,0,2.060427,0.15050134,-10.356705,0.030523956,0.024065442,-0.08508172,67.93906,156.9064,0.0047884034,1442850,1333,-1084,-3211,11891
39273133,4043,0,-1.8442984,0.50303555,-10.591587,-0.038216796,-0.012107581,-0.0046682255,67.93352,156.9064,0.0047884034,1442850,-738,462,485,11889
39377091,4001,0,-1.1438003,0.34742472,-10.986294,-0.047609895,-0.00020900121,-0.022672541,67.95568,156.9064,0.0047884034,1442850,25,95,-409,11897
39477091,3972,0,1.789347,-0.40364984,-8.797856,-0.047030684,-0.0056141643,-0.051511165,67.96676,156.9064,0.0047884034,1442850,3524,-464,-3569,11901
39577091,4000,0,2.439398,0.19164138,-10.545797,0.005593802,-0.0069700517,-0.03545669,67.96953,156.9064,0.0047884034,1442850,2985,414,-542,11902
39681091,3994,0,-0.70090806,0.27670324,-9.564673,-0.048123457,-0.006990506,-0.033292662,67.93352,156.9064,0.0047884034,1442850,558,-303,-2557,11889
39781090,3952,0,0.11371158,-0.23113061,-9.11526,-0.054188464,0.00061115064,-0.013183275,67.983376,156.9064,0.0047884034,1442850,1979,-105,-2423,11907
39885092,4001,0,-1.8196077,0.15501167,-9.511104,0.026543137,0.008549489,-0.06456227,67.95291,156.9064,0.0047884034,1442850,-3465,-346,-2711,11896
39985144,4051,0,-1.227912,-0.29016283,-10.605711,0.032033715,0.014234552,-0.058808833,67.92521,156.9064,0.0047884034,1442850,-2915,-271,-1737,11886
40085090,4023,0,1.0559833,0.15970805,-9.348457,0.040288534,-0.0020878771,-0.024674231,67.941826,156.9064,0.0047884034,1442850,575,696,-2503,11892
40189067,4000,0,-1.8185487,0.36124524,-9.3099575,-0.030718675,-0.0070295003,-0.02185991,67.92521,156.9064,0.0047884034,1442850,-1900,-46,-2286,11886
40289098,4000,0,-0.234452,-0.036722288,-10.626298,0.044059247,0.007833254,-0.05322422,67.96399,156.9064,0.0047884034,1442850,-2571,323,-1211,11900
40389113,4015,0,1.2418326,0.4793637,-9.768264,0.040967695,0.008873802,-0.059996605,67.93906,156.9064,0.0047884034,1442850,545,-286,-3855,11891
40493098,3943,0,-1.6116079,0.11792008,-10.325371,-0.0054109083,0.00793347,-0.053011913,67.91412,156.9064,0.0047884034,1442850,-2371,-100,-1281,11882
40593098,4000,0,0.22921464,0.27226505,-9.959465,0.03786596,0.0042680325,-0.07840868,68.00277,156.9064,0.0047884034,1442850,-1113,-478,-2662,11914
40697098,4000,0,-0.8727167,0.006465764,-10.491963,-0.041705348,0.0047549815,-0.048091896,67.95291,156.9064,0.0047884034,1442850,-198,74,-1918,11896
40797137,4039,0,0.34859926,0.95947474,-11.609261,0.032117277,0.0072766226,-0.03290904,67.96399,156.9064,0.0047884034,1442850,436,275,-12,11900
40897098,3956,0,-0.6802429,0.0043965154,-10.148823,-0.029868,-0.0067748697,-0.021255795,67.983376,156.9064,0.0047884034,1442850,445,-137,-2015,11907
41001112,4014,0,0.64971876,-0.25869808,-9.931626,-0.031091731,-0.004967802,-0.040501907,67.96953,156.9064,0.0047884034,1442850,2080,133,-4000,11902
41101137,4039,0,-1.5736997,-2.3270605,-10.017126,0.023193419,-0.0046766694,-0.039386332,67.95845,156.9064,0.0047884034,1442850,-1979,-809,-3874,11898
41201890,3994,0,-0.57800424,-1.0740285,-9.226119,-0.035418317,-0.00045912992,-0.033806402,67.95845,156.9064,0.0047884034,1442850,1130,-693,-4288,11898
41302700,4002,0,0.27281904,0.90966636,-9.910371,0.006311751,0.0084863445,-0.047077354,67.97784,156.9064,0.0047884034,1442850,1269,-124,-3108,11905
41406742,4044,0,-0.60431194,0.40505514,-9.08495,-0.021055434,-0.012211312,-0.011479301,67.947365,156.9064,0.0047884034,1442850,308,370,-2137,11894
41506698,4000,0,-0.5132971,0.24934049,-10.035214,-0.016533697,-0.009580298,-0.054813076,67.986145,156.9064,0.0047884034,1442850,-706,-354,-1304,11908
41606698,3993,0,0.05866209,-0.42384857,-8.676633,-0.022552758,-0.005948967,-0.02599512,67.96399,156.9064,0.0047884034,1442850,788,124,-3808,11900
41710718,4020,0,-0.66300607,-0.7510431,-10.9809,0.025581032,0.005522734,-0.052902788,67.97507,156.9064,0.0047884034,1442850,-1558,-460,-154,11904
41810698,3986,0,-1.0487527,0.8990504,-9.6328125,0.010212723,0.009057557,-0.031032033,67.96676,156.9064,0.0047884034,1442850,-1256,-200,-1202,11901
41914667,3956,0,0.8910071,1.0317173,-10.081892,0.020540148,0.012851565,-0.05973304,68.0,156.9064,0.0047884034,1442850,832,-626,-1976,11913
42014680,4013,0,0.9124434,1.1286383,-10.474748,-0.010286976,-0.009574815,0.0010013307,68.00277,156.9064,0.0047884034,1442850,1259,647,375,11914
42114693,3979,0,0.90152633,-0.68063927,-9.275772,-0.024417657,-0.013317,-0.03184879,67.95568,156.9064,0.0047884034,1442850,2040,385,-2525,11897
42218714,4017,0,-0.15252578,-1.3406914,-9.189203,-0.04321583,0.0010469735,-0.038243473,67.96676,156.9064,0.0047884034,1442850,1553,-526,-3292,11901
42318690,3987,0,-0.18719757,-0.15242945,-9.304406,-0.011149946,0.012006632,-0.053852916,67.983376,156.9064,0.0047884034,1442850,-54,-734,-4286,11907
42422691,4000,0,-1.399727,1.2480325,-9.954392,0.008829137,0.011551128,-0.066049755,67.95291,156.9064,0.0047884034,1442850,-2388,-249,-2628,11896
42526691,4001,0,-0.5420609,0.29269576,-9.904012,0.017830517,0.0041348594,-0.07221884,67.97784,156.9064,0.0047884034,1442850,-2031,-2,-3444,11905
42626691,3999,0,-0.14876835,-0.637622,-8.841628,0.0150885135,-0.009759204,-0.05687713,67.95845,156.9064,0.0047884034,1442850,-1406,-31,-3292,11898
42726702,4011,0,-0.13872157,-0.95687205,-11.15512,0.005750554,-0.0012844342,-0.08329119,67.98892,156.9064,0.0047884034,1442850,-315,-322,-2206,11909
42830767,4070,0,-0.998292,0.15368658,-9.239047,-1.0820106e-05,0.0076394877,-0.06741585,67.96399,156.9064,0.0047884034,1442850,-610,-453,-4752,11900
42930691,4000,0,-0.20041004,1.5790939,-10.905552,-0.01016204,0.005702206,-0.0236686,67.944595,156.9064,0.0047884034,1442850,940,309,-343,11893
43034673,4007,0,0.18858494,0.89941174,-11.909608,0.00999636,0.0010946812,-0.06592129,68.00554,156.9064,0.0047884034,1442850,-23,-61,70,11915
43134674,4007,0,0.4553101,-0.16236918,-9.817917,-0.016917067,-0.008858689,-0.013697568,67.99169,156.9064,0.0047884034,1442850,1292,-39,-2458,11910
43234696,3991,0,-0.24288076,-1.2709919,-10.668299,-0.013690317,-0.015307594,-0.071157284,67.99169,156.9064,0.0047884034,1442850,-211,277,-2188,11910
43338744,4054,0,-0.3104175,-1.6302168,-10.850917,0.008156336,0.0110869985,-0.054625187,67.97784,156.9064,0.0047884034,1442850,423,-983,-2555,11905
43438690,3999,0,0.21137905,-0.7835673,-10.92394,0.011577775,0.0057216734,0.001182698,67.99446,156.9064,0.0047884034,1442850,696,-290,114,11911
43542691,4000,0,-0.6690491,1.2694603,-9.994633,-0.006435701,0.0062968144,-0.0592672,67.95845,156.9064,0.0047884034,1442850,-793,-446,-1629,11898
43646691,3974,0,0.43115646,0.5468222,-8.118916,0.03410376,-0.009499531,-0.041412205,67.99169,156.9064,0.0047884034,1442850,-600,274,-3103,11910
43746691,4000,0,2.1767933,-0.32354426,-8.783144,0.027935311,0.009518024,-0.0640753,67.98892,156.9064,0.0047884034,1442850,2034,-121,-994,11909
43846729,3995,0,2.132008,0.11636049,-8.894422,0.01646043,0.009240045,-0.027258253,68.00277,156.9064,0.0047884034,1442850,2817,649,-477,11914
43950726,4035,0,-1.4165769,0.11392374,-8.126015,0.0076052016,0.00045532384,-0.05011954,67.96122,156.9064,0.0047884034,1442850,-2502,-1256,-2526,11899
44052291,3994,0,0.6535406,1.4489633,-8.950253,-0.022816593,-0.0020336844,0.0018766788,67.97507,156.9064,0.0047884034,1442850,1913,448,-1990,11904
44152291,3990,0,0.31232828,1.572891,-10.269073,0.021977039,-0.0076023596,-0.028621178,67.95568,156.9064,0.0047884034,1442850,378,340,-1430,11897
44256291,4000,0,0.88882285,-0.5997151,-9.893316,-0.015107082,-0.00078016456,-0.0514379,67.99169,156.9064,0.0047884034,1442850,1408,372,-3524,11910
44360290,3993,0,-0.4705151,-2.2659266,-10.4785,0.014665874,-0.011323387,-0.04164887,67.96399,156.9064,0.0047884034,1442850,-274,142,-3360,11900
44460291,3994,0,-0.084333554,-1.3867582,-12.125362,-0.0010712219,0.004038892,-0.045739926,67.93352,156.9064,0.0047884034,1442850,849,-575,-479,11889
44564291,3985,0,-0.13974056,0.8420979,-10.939447,0.0062921825,0.01239689,-0.07906223,67.96122,156.9064,0.0047884034,1442850,159,-174,-3316,11899
44664297,4007,0,-0.025026228,1.4357755,-10.830509,-0.005191467,0.0050113797,-0.0017564304,67.93075,156.9064,0.0047884034,1442850,1489,-537,-788,11888
44764273,4006,0,-0.54857403,1.9367034,-9.678041,-0.0021007268,0.014906869,-0.07644194,67.947365,156.9064,0.0047884034,1442850,-676,-413,-4550,11894
44868267,4000,0,-0.014872215,0.872999,-10.49485,-0.011736521,-0.004584827,-0.009148679,67.96122,156.9064,0.0047884034,1442850,111,250,-1610,11899
44968268,3956,0,0.24457674,0.13711065,-11.974266,0.018860087,-0.0123142,-0.08778847,67.93629,156.9064,0.0047884034,1442850,-715,680,-2005,11890
45068290,3993,0,0.44363162,-0.80917764,-10.208295,-0.018826645,-0.004804837,0.0016229418,67.941826,156.9064,0.0047884034,1442850,1017,-75,-3218,11892
45172338,4048,0,0.16906555,-1.4538628,-11.06338,-0.008874566,-0.0008397554,-0.005990542,67.95291,156.9064,0.0047884034,1442850,1003,-203,579,11896
45272298,4000,0,0.3986967,-0.52168655,-9.438277,-0.014482314,0.0018295399,-0.0031905598,67.944595,156.9064,0.0047884034,1442850,1328,-878,-2643,11893
45376298,4000,0,0.22804107,1.5143807,-8.096804,0.019861666,0.005541173,-0.05085923,67.950134,156.9064,0.0047884034,1442850,-514,-256,-5417,11895
45476298,4000,0,-0.82177794,1.4992636,-9.328566,0.002261497,-0.0069134412,-0.043623403,67.96676,156.9064,0.0047884034,1442850,-1429,392,-1246,11901
45576332,4034,0,-1.7767794,1.2375951,-10.04839,-0.002938596,0.0036485004,-0.0570767,67.97507,156.9064,0.0047884034,1442850,-2158,434,-2248,11904
45680298,4000,0,0.72291064,-0.7704819,-10.824077,0.024660053,-0.0018592749,-0.08308729,67.91689,156.9064,0.0047884034,1442850,-526,247,-855,11883
45784298,4000,0,0.057956614,-0.7585188,-9.164481,-0.0033518428,0.013066584,-0.031322274,67.93075,156.9064,0.0047884034,1442850,645,-612,-2305,11888
45884267,3964,0,0.53326565,0.29907426,-9.132793,0.0032556546,0.006531317,0.0025918204,67.97507,156.9064,0.0047884034,1442850,2110,667,-836,11904
45988267,4000,0,-0.5737623,1.3858855,-8.813393,-0.004385324,-0.0013735313,-0.020456214,67.908585,156.9064,0.0047884034,1442850,-1198,-336,-2139,11880
46088308,4039,0,-0.010166641,1.6660961,-9.8408375,-0.0049229534,0.00042092288,-0.03139811,67.944595,156.9064,0.0047884034,1442850,-708,879,-2446,11893
46188297,4004,0,-0.7202563,0.7616915,-10.272776,-0.0069749877,-0.006129575,-0.07227321,67.95568,156.9064,0.0047884034,1442850,-1574,396,-2023,11897
46292324,4034,0,1.0518833,-1.0242524,-10.564963,-0.004301331,0.007704325,-0.051049195,67.92244,156.9064,0.0047884034,1442850,1958,-139,-821,11885
46392291,4000,0,0.18975417,-1.0990999,-9.050246,-0.013211096,0.005119254,-0.023402516,67.93906,156.9064,0.0047884034,1442850,1232,-1007,-3088,11891
46496291,3994,0,-0.28707945,1.0493397,-9.19515,0.003411214,0.012074901,-0.06986068,67.941826,156.9064,0.0047884034,1442850,-149,-503,-4009,11892
46600303,4012,0,0.123638734,1.7196939,-10.578885,-0.0017649115,0.004830499,-0.048258234,67.947365,156.9064,0.0047884034,1442850,785,-264,523,11894
46701876,4009,0,-0.27302778,0.2470477,-10.697666,-0.02507069,0.00033546216,-0.051136687,67.9723,156.9064,0.0047884034,1442850,337,29,-286,11903
46801890,4000,0,-0.3026034,-0.78666997,-10.057911,-0.013580007,-0.0061933235,-0.056247845,67.947365,156.9064,0.0047884034,1442850,-707,108,-2632,11894
46905890,3966,0,-0.70365524,-1.8389841,-11.064194,0.022202294,0.0010847453,-0.022436699,67.941826,156.9064,0.0047884034,1442850,-1628,-311,-74,11892
47009927,4030,0,0.32078025,0.02148814,-9.43314,0.0009369224,0.009744632,-0.032043986,67.97507,156.9064,0.0047884034,1442850,1315,-517,-2715,11904
47109891,4000,0,0.38096848,1.55485,-9.643755,0.024507653,0.017480742,-0.05767612,67.99169,156.9064,0.0047884034,1442850,361,-547,-2355,11910
47213891,4000,0,0.8547284,1.8813262,-10.050725,0.01645908,-0.01183976,-0.0021587126,67.89474,156.9064,0.0047884034,1442850,1332,1049,-242,11875
47313891,4000,0,-0.38577884,0.63872683,-9.793683,0.016698495,-0.006967989,-0.031328652,67.950134,156.9064,0.0047884034,1442850,-1968,533,-1341,11895
47413904,4006,0,-0.39762402,-0.44241965,-10.3706045,-0.027909689,-0.008037986,-0.0017421625,67.96399,156.9064,0.0047884034,1442850,667,1077,-1120,11900
47517897,4006,0,-0.35869446,-1.4675436,-8.81834,-0.03638209,-0.010507526,-0.03391375,67.95568,156.9064,0.0047884034,1442850,116,-12,-3586,11897
47617891,4000,0,-0.39676207,-0.8973809,-8.924409,-0.026000883,0.014471538,-0.0317033,67.903046,156.9064,0.0047884034,1442850,1331,-1027,-3266,11878
48637904,4006,0,-0.5983869,1.4842317,-8.936281,0.009153982,-0.0051984633,-0.041941784,67.92521,156.9064,0.0047884034,1442850,-2027,-379,-4503,11886
48737905,4007,0,0.9863154,0.84717315,-10.030336,-0.01222907,-0.0046950914,-0.04426851,67.905815,156.9064,0.0047884034,1442850,2236,710,-1865,11879
48837867,3998,0,-1.0084662,-0.6532043,-11.079519,0.008407622,-0.0012391072,-0.062527426,67.96122,156.9064,0.0047884034,1442850,-2745,-136,305,11899
48941867,4000,0,-1.009019,-1.8588895,-9.572711,-0.042912323,-0.006824802,-0.06589964,67.99723,156.9064,0.0047884034,1442850,90,-675,-4194,11912
49041919,4022,0,-0.3678174,-0.9997938,-10.7073765,0.038745385,0.010666795,-0.036132816,67.980606,156.9064,0.0047884034,1442850,-1042,478,387,11906
49145897,4007,0,-1.6410097,1.3238851,-10.071692,-0.014568169,0.013554459,-0.064897515,67.947365,156.9064,0.0047884034,1442850,-1974,-557,-2186,11894
49245891,4000,0,1.0881281,1.6419498,-9.876207,0.019988405,0.005065723,-0.016139004,67.950134,156.9064,0.0047884034,1442850,1486,-480,-535,11895
49347498,3994,0,-0.9095396,1.3298748,-9.516406,-0.017801613,0.0058859494,-0.085317165,67.95291,156.9064,0.0047884034,1442850,-1280,-428,-2491,11896
49447467,3980,0,0.98779917,1.94034,-10.524525,-0.0063974583,-0.008362098,-0.016706489,67.97784,156.9064,0.0047884034,1442850,2132,538,-1521,11905
49551467,4000,0,1.0267265,-0.51977605,-11.443931,0.038205046,-0.0030849634,-0.014928286,67.97784,156.9064,0.0047884034,1442850,-570,757,434,11905
49651496,3996,0,-0.20929486,-1.8543938,-10.327677,-0.03641571,-0.017757528,-0.057221644,67.97507,156.9064,0.0047884034,1442850,1076,384,-2715,11904
49751510,4013,0,-1.0025884,-2.4130852,-10.025656,0.029847834,-0.003215519,-0.015861379,67.983376,156.9064,0.0047884034,1442850,-1464,181,-1313,11907
49855497,4006,0,-1.4407909,-0.71595526,-10.45064,0.0024003785,0.0024134424,-0.04313707,67.95291,156.9064,0.0047884034,1442850,-1765,-886,-678,11896
49955491,4000,0,0.707498,0.29468313,-8.891488,-0.008839204,0.016150212,-0.07152192,67.97784,156.9064,0.0047884034,1442850,2513,-1084,-3769,11905
50059504,4013,0,0.58048326,1.901691,-9.5412035,0.017034726,-0.0004967125,-0.019180264,67.96953,156.9064,0.0047884034,1442850,812,-126,-1694,11902
50163491,3952,0,0.7820049,1.3329334,-10.523088,0.034708522,-0.00608662,-0.015350863,67.93629,156.9064,0.0047884034,1442850,-94,215,-1076,11890
50263491,3990,0,-1.7314965,-0.2825933,-9.23784,-0.0007070033,-0.019360976,-0.050218493,67.95291,156.9064,0.0047884034,1442850,-1753,-182,-4264,11896
50367549,4058,0,-0.4956719,-1.2853554,-11.311433,0.020463461,0.0030012748,-0.029093793,67.95291,156.9064,0.0047884034,1442850,-1827,-154,-1028,11896
50467490,3999,0,-0.46745816,-1.293211,-9.581493,-0.023315094,-0.0034602438,-0.027063228,67.96953,156.9064,0.0047884034,1442850,240,-416,-3029,11902
50567467,3987,0,-0.15908426,-0.9861974,-8.836101,-0.02550302,0.011402056,-0.0245367,67.93352,156.9064,0.0047884034,1442850,1452,-930,-2927,11889
50671467,4000,0,-0.28343254,1.066799,-9.914584,-0.019310448,0.012300027,-0.0443664,67.983376,156.9064,0.0047884034,1442850,12,-287,-644,11907
50771514,4024,0,0.19532152,1.9931887,-10.336345,-0.00857533,0.008696095,-0.011043357,67.99446,156.9064,0.0047884034,1442850,791,337,149,11911
50871510,4020,0,0.561166,2.43033,-9.902347,0.009146641,-0.0050461767,0.0018477561,67.986145,156.9064,0.0047884034,1442850,1593,946,-1401,11908
50975490,3999,0,-0.2792639,-0.2546026,-8.970191,-0.007390118,-0.010405237,-0.034734357,67.983376,156.9064,0.0047884034,1442850,-778,-85,-4913,11907
51075491,4001,0,0.71988547,-1.0937345,-8.826826,-0.021690607,-0.009550437,-0.025428742,67.96953,156.9064,0.0047884034,1442850,1658,287,-5240,11902
51179503,3979,0,-1.7573531,-0.78314376,-9.907964,-0.017489815,0.005772136,-0.061819404,67.93352,156.9064,0.0047884034,1442850,-1689,-370,-3235,11889
51279490,3999,0,-0.6327351,-0.04249164,-9.541622,-0.027237147,0.011462497,-0.06746268,67.97784,156.9064,0.0047884034,1442850,145,-757,-2997,11905
51379497,3993,0,-0.1962721,0.8736205,-9.787388,-0.029082958,0.012137979,-0.053414434,67.96953,156.9064,0.0047884034,1442850,1135,-974,-2518,11902
51483491,4000,0,-0.090741016,1.5178888,-9.429056,0.0015900718,0.0040027583,-0.03481359,68.01108,156.9064,0.0047884034,1442850,-809,47,-1814,11917
51583491,3998,0,-1.2050073,1.1766893,-9.233461,-0.0015130565,-0.005113218,-0.02748403,67.96953,156.9064,0.0047884034,1442850,-1667,61,-2739,11902
51683480,4013,0,-0.7690466,-0.2015342,-8.732533,-0.0061800973,-0.009997416,-0.043345153,68.00831,156.9064,0.0047884034,1442850,-749,-108,-5839,11916
51787495,4028,0,0.82777494,-1.3807844,-11.076,0.03340584,0.0021302388,-0.027178451,67.983376,156.9064,0.0047884034,1442850,-419,-126,-122,11907
51889091,4001,0,-0.99332917,-1.684838,-9.743159,0.0130741745,0.0056482283,-0.026422609,67.980606,156.9064,0.0047884034,1442850,-282,-706,-2324,11906
51989091,4000,0,-0.5948431,-0.7387391,-9.664375,0.019151973,0.012237976,-0.04405919,68.00554,156.9064,0.0047884034,1442850,269,-657,-3519,11915
52093098,4007,0,0.2847169,1.2412912,-9.291092,-0.011422572,-0.0029048254,-0.012181677,67.980606,156.9064,0.0047884034,1442850,576,104,-2260,11906
52197091,4000,0,0.04906908,0.372487,-10.046955,0.016785812,-0.0077736145,-0.038110055,68.00277,156.9064,0.0047884034,1442850,-583,131,-1787,11914
52297067,3962,0,1.309517,-0.20364264,-8.810524,-0.010129802,-0.0034006573,-0.026082821,68.01385,156.9064,0.0047884034,1442850,1632,752,-3698,11918
52401081,4014,0,-0.30655771,-1.8243893,-11.082734,0.017187256,0.004997464,-0.072002724,68.00831,156.9064,0.0047884034,1442850,-625,-808,-980,11916
52501113,4046,0,0.39636534,-1.1657046,-9.220534,-0.011671651,0.002352731,-0.03121734,67.99169,156.9064,0.0047884034,1442850,1535,-128,-3070,11910
52601090,3993,0,-0.7784492,-0.5298184,-9.574606,-0.021579131,0.0050002025,-0.027413085,67.98892,156.9064,0.0047884034,1442850,284,-1054,-2861,11909
52705097,4001,0,0.5685167,1.7081401,-8.739893,-0.005139222,0.00514998,-0.011436804,68.0277,156.9064,0.0047884034,1442850,627,-588,-2441,11923
52805091,3994,0,0.7032888,2.0236337,-10.56593,0.014265895,0.004053197,-0.043684218,68.0,156.9064,0.0047884034,1442850,736,1033,-454,11913
52905135,4038,0,-0.41681105,0.38581708,-9.014544,-0.026362605,0.0010845693,-0.07206415,68.01385,156.9064,0.0047884034,1442850,119,-750,-5127,11918
53009097,4006,0,0.3018769,-0.6786017,-8.669011,-0.026743721,-0.008284179,-0.027988221,68.0,156.9064,0.0047884034,1442850,780,498,-4513,11913
53109098,4007,0,-0.2855744,-0.80755264,-11.144342,0.013755207,-0.004776941,-0.055432275,68.01385,156.9064,0.0047884034,1442850,-1906,121,-502,11918
53213091,4000,0,0.18631749,0.14658079,-9.854304,-0.00756127,0.010695729,-0.040032573,68.04432,156.9064,0.0047884034,1442850,504,567,-2186,11929
53317097,4006,0,0.35277566,1.8086904,-10.74271,-0.004341614,0.017983887,-0.035383295,68.02216,156.9064,0.0047884034,1442850,745,-494,-853,11921
53417074,4007,0,-0.11572904,1.7425607,-8.543454,-0.016486352,0.00595667,-0.017550524,68.00554,156.9064,0.0047884034,1442850,330,-95,-3128,11915
53521067,3986,0,-0.39366284,-0.03436288,-10.017987,0.018900886,-0.009736167,-0.080981635,68.0277,156.9064,0.0047884034,1442850,-981,186,-4794,11923
53621098,4000,0,0.23725684,-1.0212138,-9.764357,0.025115533,-0.010416638,-0.06096391,68.01939,156.9064,0.0047884034,1442850,-221,149,-4213,11920
53721147,4047,0,-0.4839759,-1.9670683,-10.194785,0.018135348,-0.011890135,-0.059472043,68.0554,156.9064,0.0047884034,1442850,-763,-289,-2935,11933
53825098,4000,0,0.74253565,-0.35721916,-10.90315,0.0068257875,0.012078136,-0.0009719321,68.02493,156.9064,0.0047884034,1442850,1064,-936,-127,11922
53925098,3973,0,0.8893083,0.936249,-9.996657,0.011795813,0.0048865657,-0.020167485,68.01939,156.9064,0.0047884034,1442850,1473,-607,385,11920
54025105,4007,0,0.104845755,1.744721,-9.432001,0.02672644,0.0069586607,-0.038038734,68.01939,156.9064,0.0047884034,1442850,-95,-557,-3001,11920
54129098,4000,0,0.9142035,1.7040595,-11.103109,0.012303887,0.0011240124,-0.045308694,68.03324,156.9064,0.0047884034,1442850,1119,475,455,11925
54229098,3957,0,0.14630541,0.26923564,-10.801178,0.029413033,-0.008788031,-0.04070373,68.02493,156.9064,0.0047884034,1442850,-1208,693,59,11922
54333098,4000,0,0.1458421,-2.0449383,-10.469154,0.019434672,0.00060990476,-0.064098895,68.0,156.9064,0.0047884034,1442850,-176,-732,-1973,11913
54437098,4000,0,0.21080552,-0.34149912,-10.9437,0.020239783,0.012979039,-0.008525964,68.03878,156.9064,0.0047884034,1442850,428,-271,-125,11927
54538704,4003,0,0.006763828,1.1270483,-9.751653,0.017855683,0.007862798,-0.030360263,68.04709,156.9064,0.0047884034,1442850,214,21,-1354,11930
54638704,3965,0,0.24785608,1.8379084,-9.475507,0.014094342,0.019279461,-0.04490032,68.03047,156.9064,0.0047884034,1442850,-103,-856,-2664,11924
54742698,3993,0,0.5754883,1.639168,-10.979353,-0.01085002,-0.006236492,-0.022005718,68.04155,156.9064,0.0047884034,1442850,1522,1000,-371,11928
54846742,4021,0,-0.4970076,-1.2555594,-9.248666,-0.025851369,-0.008297982,-0.0317609,68.04432,156.9064,0.0047884034,1442850,80,-1,-3436,11929
54946708,4004,0,-0.20534897,-1.6957517,-9.001415,-0.018400464,0.0003471265,-0.018720962,68.03601,156.9064,0.0047884034,1442850,172,-315,-3414,11926
55046698,4000,0,-0.30102247,-1.5532917,-8.641132,-0.027676359,0.0012527942,-0.031966727,68.01939,156.9064,0.0047884034,1442850,579,-483,-4262,11920
55150723,4056,0,-0.5614672,1.0288118,-9.478267,0.020462686,0.014085677,-0.08221594,68.07479,156.9064,0.0047884034,1442850,-1421,-550,-3891,11940
55250670,3965,0,-0.3918836,1.3645699,-9.974297,0.0068784896,0.015212413,-0.089686416,68.03047,156.9064,0.0047884034,1442850,-707,-1003,-3000,11924
55354677,3962,0,0.55203235,1.3911189,-9.97557,-0.02510313,-0.0006320277,-0.0012398487,68.03878,156.9064,0.0047884034,1442850,1719,395,-976,11927
55454691,4001,0,-0.34253103,0.13746735,-10.029168,-0.01329722,-0.0061118035,-0.0001707779,68.04709,156.9064,0.0047884034,1442850,115,494,-1347,11930
55554697,4007,0,-0.2258664,-0.95990753,-10.363659,-0.01824508,-0.004416556,-0.016719688,68.058174,156.9064,0.0047884034,1442850,204,684,-1992,11934
55658691,3999,0,-0.42123747,-1.761903,-10.173782,0.0110962475,-0.007116264,-0.020491097,68.04155,156.9064,0.0047884034,1442850,-124,-209,-1475,11928
55758691,4000,0,0.18625677,-0.67802614,-8.87134,-0.0068398383,-0.00022487016,-0.0043480294,68.01662,156.9064,0.0047884034,1442850,709,-612,-2808,11919
55858729,3995,0,-0.22871374,0.38309535,-9.316149,-0.012010295,0.00026339444,-0.031427093,68.00554,156.9064,0.0047884034,1442850,242,-683,-2917,11915
55962725,4034,0,0.77262855,1.9084464,-9.876722,0.013268815,0.011792311,-0.056001056,68.04155,156.9064,0.0047884034,1442850,655,-907,-2486,11928
56062701,4010,0,0.47574273,1.4998066,-9.314211,-0.001187887,-0.0010832963,-0.05259322,68.01108,156.9064,0.0047884034,1442850,1801,283,-3026,11917
56166691,4000,0,-0.7061915,-0.5917122,-10.033427,-0.014756015,-0.008577365,-0.0694851,68.02216,156.9064,0.0047884034,1442850,-1143,-406,-2367,11921
56266667,3987,0,-0.5718012,-1.6154375,-8.845075,-0.008158476,-0.013047433,-0.056366216,68.01385,156.9064,0.0047884034,1442850,-392,-300,-4508,11918
56366675,4008,0,-0.46420318,-1.3007821,-9.175005,-0.018882439,-0.0072198133,-0.049287327,68.04986,156.9064,0.0047884034,1442850,-139,-336,-3525,11931
56470697,3993,0,0.594048,0.34312007,-9.114529,0.016144529,-0.00035749155,-0.039092604,68.03878,156.9064,0.0047884034,1442850,834,-437,-3384,11927
56570704,4006,0,0.66127956,1.8849455,-10.243631,0.019018393,0.0010969806,-0.025655221,68.06648,156.9064,0.0047884034,1442850,943,342,-680,11937
56674704,4006,0,-0.4210542,1.7126391,-8.814722,-0.0043731444,-0.007705141,-0.0050610406,68.07756,156.9064,0.0047884034,1442850,-687,770,-2786,11941
56774713,4015,0,-0.31973556,0.7644082,-9.835575,0.012929816,-0.012035601,-0.039197974,68.0554,156.9064,0.0047884034,1442850,-821,1124,-1950,11933
56874698,4000,0,1.2513897,-0.080529496,-11.51295,0.01275984,-0.0060439995,-0.02886891,68.1108,156.9064,0.0047884034,1442850,1426,930,507,11953
56978698,3981,0,0.6115714,-1.9168097,-10.510697,0.0047327485,-0.0049339477,-0.02885211,68.058174,156.9064,0.0047884034,1442850,1029,-947,-1811,11934
57078698,3992,0,-0.9634808,-0.9102942,-9.968885,-0.013118147,0.009328504,-0.07047676,68.04986,156.9064,0.0047884034,1442850,-794,-858,-3417,11931
57178698,4000,0,-0.16541128,-0.62241256,-9.727576,0.010988708,0.006687465,-0.03329325,68.06925,156.9064,0.0047884034,1442850,671,-751,-2582,11938
57280296,4006,0,-0.22050312,0.27744514,-8.686677,-0.014635561,0.0037869457,-0.08286011,68.058174,156.9064,0.0047884034,1442850,345,-1097,-4998,11934
57384291,3953,0,1.1130693,1.0711571,-10.280984,0.005323212,0.007720737,-0.05426706,68.094185,156.9064,0.0047884034,1442850,1395,27,-2343,11947
57484292,3995,0,0.8004905,-0.057692584,-9.477214,-0.021529503,-0.0051565794,-0.03870021,68.091415,156.9064,0.0047884034,1442850,2254,202,-3694,11946
57584291,4000,0,0.19123653,-0.8066204,-8.913789,-0.02460678,-0.014247196,-0.012458388,68.06648,156.9064,0.0047884034,1442850,1074,1017,-3435,11937
57688297,4000,0,0.14910156,-1.0073483,-10.02687,0.0055318917,0.0035765877,-0.047750965,68.0554,156.9064,0.0047884034,1442850,760,-251,-3140,11933
57788297,4006,0,-0.6895475,-0.35224208,-9.7198105,-0.010204985,0.012666995,-0.06670636,68.04432,156.9064,0.0047884034,1442850,-599,-507,-4674,11929
57892296,4005,0,-0.24647632,1.991778,-9.155245,-0.013136035,0.0026167608,-0.017374653,68.07756,156.9064,0.0047884034,1442850,-341,-410,-3669,11941
57992332,4061,0,-0.33464548,2.0443199,-9.780353,0.0007442096,0.005254144,-0.09002588,68.10249,156.9064,0.0047884034,1442850,-760,-104,-3764,11950
58092267,4000,0,-0.2800293,1.706891,-11.072279,0.034413982,0.0030383752,-0.048370846,68.10249,156.9064,0.0047884034,1442850,-1525,876,90,11950
58196298,4000,0,2.1890986,-1.0143963,-10.08173,-0.0007983027,-0.0076162056,-0.04210294,68.07479,156.9064,0.0047884034,1442850,2166,122,-3249,11940
58296297,4006,0,1.1720809,-1.1775411,-11.562728,-0.0037616163,0.004293655,-0.033204246,68.091415,156.9064,0.0047884034,1442850,1328,87,615,11946
58396331,4041,0,1.0184326,-1.5055362,-10.419768,-0.004580783,-0.0043950803,-0.0059269713,68.07479,156.9064,0.0047884034,1442850,1784,-261,122,11940
58500291,4000,0,-0.50184447,0.30244514,-10.159495,-0.024592582,0.012865135,-0.042455725,68.0554,156.9064,0.0047884034,1442850,99,-579,-1362,11933
58600291,3999,0,0.45499623,0.9392485,-9.22574,-0.013975322,0.005842738,-0.00038429722,68.099724,156.9064,0.0047884034,1442850,1385,-354,-1320,11949
58704291,3993,0,-0.14576736,2.215625,-10.415445,-0.030889079,-0.0001515348,-0.04084336,68.07479,156.9064,0.0047884034,1442850,277,475,-1021,11940
58804290,3999,0,0.8319971,1.5852973,-9.900521,-0.00479671,-0.0046682646,-0.019226942,68.08864,156.9064,0.0047884034,1442850,1912,528,-1778,11945
58904291,3994,0,1.0145475,0.09310908,-11.896943,0.031337023,-0.00039912236,-0.06567369,68.06094,156.9064,0.0047884034,1442850,149,519,-426,11935
59008304,4014,0,1.390307,-1.1901318,-11.312175,-0.0055539915,0.0036598183,-0.061377726,68.06094,156.9064,0.0047884034,1442850,2038,205,-849,11935
59108267,4000,0,0.74340606,-1.7556844,-10.505109,0.020732317,0.0010607175,-0.013098681,68.091415,156.9064,0.0047884034,1442850,1027,-1024,-139,11946
59208267,4000,0,-0.77455497,-1.1031321,-9.714642,0.015712377,0.0034634792,-0.05624133,68.07479,156.9064,0.0047884034,1442850,-1283,-499,-3727,11940
59312297,4007,0,-0.08291049,1.9569374,-10.470247,0.020286448,0.0061493535,-0.03342167,68.06094,156.9064,0.0047884034,1442850,-952,381,130,11935
59412330,4040,0,-0.46562302,1.7572795,-9.023524,0.013646897,-0.004942643,-0.034028932,68.06925,156.9064,0.0047884034,1442850,-1588,158,-3462,11938
59516291,4000,0,1.0837365,-0.47719365,-11.693948,0.026190083,-0.0020657522,-0.059155684,68.08033,156.9064,0.0047884034,1442850,294,-125,557,11942
59616291,4001,0,1.0895535,-0.9968189,-11.414909,0.015469308,-0.014759945,-0.039996553,68.07202,156.9064,0.0047884034,1442850,882,391,216,11939
59716290,3999,0,0.70752645,-1.2085433,-10.792647,0.012549351,-0.0049116835,-0.010013206,68.058174,156.9064,0.0047884034,1442850,1143,666,-389,11934
59817867,4000,0,1.0588818,-1.0082101,-9.508043,-0.005432281,0.000514036,-0.01044721,68.135735,156.9064,0.0047884034,1442850,2021,-85,-2289,11962
59921867,4000,0,-0.6958282,1.0917224,-9.938678,-0.0063761086,0.015186266,-0.07451874,68.1108,156.9064,0.0047884034,1442850,-1385,-665,-2155,11953
60021896,3961,0,-0.22296779,1.5674994,-10.031521,0.005275839,0.021180907,-0.067275085,68.10526,156.9064,0.0047884034,1442850,-998,-374,-1889,11951
60121933,4036,0,0.22064528,1.3269913,-10.726631,0.009400364,0.014874376,-0.060410123,68.094185,156.9064,0.0047884034,1442850,-881,-286,-881,11947
60225891,3994,0,1.842779,-0.071629405,-9.07277,-0.004947217,-0.010845973,-0.00480753,68.0831,156.9064,0.0047884034,1442850,2173,1073,-2231,11943
60325890,3992,0,1.4305258,-0.98920774,-9.199829,-0.022936879,-0.007987257,-0.029027013,68.091415,156.9064,0.0047884034,1442850,2108,628,-4100,11946
60429891,3994,0,-0.84098476,-1.5730455,-10.654565,-0.004665609,-0.004198185,-0.042019356,68.08033,156.9064,0.0047884034,1442850,-315,-473,-866,11942
60529897,4006,0,-0.67935175,-1.0778147,-9.92079,0.010827996,0.0035316185,-0.039251328,68.091415,156.9064,0.0047884034,1442850,-122,-1012,-1691,11946
60629928,3993,0,0.37716126,0.20978129,-9.8055315,-0.002607531,0.00772324,-0.056120247,68.10249,156.9064,0.0047884034,1442850,1091,-851,-2463,11950
60733891,4000,0,-0.91154313,1.132048,-10.163996,-0.013495762,-0.0105478335,-0.024537561,68.06371,156.9064,0.0047884034,1442850,-1225,251,-1786,11936
60833867,4000,0,-0.71299773,0.6091998,-9.165088,-0.015760733,-0.01731985,-0.0461926,68.096954,156.9064,0.0047884034,1442850,-705,69,-3966,11948
60933867,4000,0,-0.65316725,-0.77823734,-9.608385,-0.02621391,-0.010811799,-0.05388532,68.130196,156.9064,0.0047884034,1442850,-205,-123,-4198,11960
61037897,3994,0,-0.72428596,-2.040002,-10.381352,0.0026063286,-0.004986437,-0.022948507,68.04986,156.9064,0.0047884034,1442850,-1535,-322,-1305,11931
61137890,4000,0,-0.8056901,-1.2060652,-9.245806,-0.025489902,-0.0010289242,-0.037797663,68.058174,156.9064,0.0047884034,1442850,-134,-520,-3285,11934
61241891,4000,0,-1.0206745,1.7480321,-10.023225,0.008085496,0.015970375,-0.04583251,68.099724,156.9064,0.0047884034,1442850,-1740,-299,-1522,11949
61345891,4000,0,0.86337626,1.6398507,-9.2197485,0.015507918,-0.00017745157,-0.07100984,68.08033,156.9064,0.0047884034,1442850,132,-115,-4488,11942
61445891,3993,0,-0.23284107,0.41105774,-9.41769,0.01779915,-0.0052494686,-0.08134749,68.08033,156.9064,0.0047884034,1442850,-1504,-246,-4555,11942
61549940,4049,0,0.25054538,-1.3711655,-11.033151,0.038627807,-0.004034828,-0.011739775,68.06925,156.9064,0.0047884034,1442850,-619,-128,-627,11938
62867490,4000,0,1.6297514,0.63077945,-9.493205,0.011759818,-0.017184895,-0.034100886,68.094185,156.9064,0.0047884034,1442850,1520,727,-1573,11947
62967504,4013,0,-0.6972575,-0.81589514,-8.989748,0.019153908,-0.006860836,-0.052516792,68.11634,156.9064,0.0047884034,1442850,-2177,151,-4263,11955
63071498,4000,0,-1.1277567,-2.1090498,-10.469797,0.016402181,-0.0034804153,-0.03912513,68.08864,156.9064,0.0047884034,1442850,-1876,305,-1522,11945
63171498,3970,0,0.081850655,-1.0411326,-9.740883,-0.016794512,-0.0063449596,-0.0032925815,68.07479,156.9064,0.0047884034,1442850,728,145,-1516,11940
63275517,4013,0,-0.74587506,0.7870619,-9.389654,-0.022155348,0.013335708,-0.068846926,68.11357,156.9064,0.0047884034,1442850,-669,-1505,-2322,11954
63379498,3966,0,-0.8441289,1.7341111,-9.1120825,0.0054264297,0.002363769,-0.019535268,68.11634,156.9064,0.0047884034,1442850,-1611,-256,-3138,11955
63479498,4000,0,0.14173919,0.8932899,-8.982804,-0.030010995,-0.00781425,-0.013778167,68.127426,156.9064,0.0047884034,1442850,918,557,-2535,11959
63583511,4007,0,-0.19947097,-1.3496556,-9.807315,-0.029715577,-0.015986087,-0.06799744,68.094185,156.9064,0.0047884034,1442850,240,473,-3953,11947
63683514,4040,0,0.4653799,-1.4556932,-9.837923,-0.015113711,-0.004796456,-0.04527825,68.099724,156.9064,0.0047884034,1442850,1345,458,-2753,11949
63783467,3979,0,0.33847177,-0.8247768,-10.668614,-0.0042607095,0.002905797,-0.04116497,68.08033,156.9064,0.0047884034,1442850,1144,549,510,11942
63887515,4025,0,-0.124936305,0.5003395,-8.236165,-0.0069209426,0.0030528095,-0.043064483,68.094185,156.9064,0.0047884034,1442850,-361,-1065,-4580,11947
63987497,4007,0,-0.6837643,0.90203136,-8.63584,-0.018999927,0.0069098286,-0.045521177,68.10249,156.9064,0.0047884034,1442850,-760,-1024,-4538,11950
64087504,4013,0,0.4115594,1.9761149,-8.476447,-0.017375603,-7.103116e-05,-0.023106245,68.10803,156.9064,0.0047884034,1442850,761,358,-3995,11952
64191491,3953,0,-0.7730771,0.26213622,-10.553572,0.010150898,-0.0102488175,-0.079689994,68.135735,156.9064,0.0047884034,1442850,-2084,130,-2351,11962
64291517,4026,0,-0.89593667,-1.0376362,-10.880749,-0.007850608,-0.012994891,-0.09170322,68.12188,156.9064,0.0047884034,1442850,-1122,-252,-1966,11957
64395518,4027,0,0.4480484,-0.7661895,-10.697293,0.016802924,0.008272841,-0.009218754,68.094185,156.9064,0.0047884034,1442850,1103,306,-287,11947
64499504,4013,0,-0.18519959,0.39528567,-8.588578,-0.012548628,-0.00021587289,-0.043318648,68.11634,156.9064,0.0047884034,1442850,-231,-743,-3941,11955
64599491,4000,0,0.1722333,0.93297774,-8.670946,-0.009672108,0.003171152,-0.056875765,68.135735,156.9064,0.0047884034,1442850,-17,-618,-5174,11962
64703480,4013,0,0.60033494,1.0121838,-11.291372,0.022617085,9.67551e-05,-0.037627984,68.127426,156.9064,0.0047884034,1442850,202,506,1420,11959
64803467,4000,0,1.4337081,-0.114883676,-10.403827,-0.015655225,-0.0060742274,-0.025315119,68.08864,156.9064,0.0047884034,1442850,2112,1637,-1215,11945
64903494,4014,0,0.09504123,-1.0513868,-10.233933,-0.027394034,-0.011744875,-0.045563813,68.14404,156.9064,0.0047884034,1442850,205,632,-2154,11965
65005090,3987,0,-0.32779983,-1.5999008,-10.730485,0.016881485,-0.007604582,-0.0296904,68.135735,156.9064,0.0047884034,1442850,-896,-312,-724,11962
65109091,3982,0,-0.4775527,-0.07368301,-8.817987,-0.019852072,0.01476275,-0.02535199,68.12188,156.9064,0.0047884034,1442850,682,-602,-3594,11957
65209097,4006,0,0.30019537,0.62778395,-8.489465,-0.008472319,0.0075542796,-0.04793766,68.14127,156.9064,0.0047884034,1442850,517,-680,-4509,11964
65309097,4006,0,0.40994024,2.0397637,-9.722098,-0.021959431,0.0019479782,-0.04729549,68.11911,156.9064,0.0047884034,1442850,1479,312,-1864,11956
65413067,4000,0,-0.4039642,0.37116748,-9.198029,-0.015349074,-0.016424961,-0.04041791,68.15512,156.9064,0.0047884034,1442850,-424,38,-3160,11969
65513067,3955,0,1.5230827,-0.26244992,-8.829166,-0.008719139,-0.012502583,-0.03891343,68.14681,156.9064,0.0047884034,1442850,1996,1088,-4734,11966
65617141,4044,0,0.29085937,-1.6738521,-9.110248,-0.031521518,-0.0086937025,-0.009628226,68.132965,156.9064,0.0047884034,1442850,1822,262,-3575,11961
65717090,4000,0,0.43539152,-1.4945796,-10.305318,0.021098794,0.0116880955,-0.05668947,68.127426,156.9064,0.0047884034,1442850,636,-327,-2473,11959
65817138,4045,0,-1.3685687,-0.77838707,-10.424527,-0.00034771627,0.0053178454,-0.03158854,68.14127,156.9064,0.0047884034,1442850,-1486,-292,-1131,11964
65921091,4000,0,-1.1035972,1.8901067,-10.441722,-0.0019537793,0.01701843,-0.0637531,68.132965,156.9064,0.0047884034,1442850,-1804,-58,-1006,11961
66021091,3994,0,0.47811574,1.4856522,-8.876422,-0.017480038,-0.0049828794,-0.010779617,68.135735,156.9064,0.0047884034,1442850,1242,-261,-2492,11962
66121124,4033,0,0.47847325,2.358712,-10.125095,0.020486608,0.005505495,-0.06730827,68.168976,156.9064,0.0047884034,1442850,-388,286,-2747,11974
66225091,4000,0,-0.8199658,-0.23008686,-10.059177,0.017648462,-0.0032405476,-0.056753427,68.135735,156.9064,0.0047884034,1442850,-2374,164,-3679,11962
66325090,3968,0,0.8184554,-0.9382387,-10.464639,-0.037521377,-0.021823449,-0.028533245,68.14404,156.9064,0.0047884034,1442850,1680,1053,-1511,11965
66429067,4000,0,0.24339268,-1.4587559,-10.652154,-0.038616728,-0.0051261354,-0.042603776,68.16621,156.9064,0.0047884034,1442850,2155,545,-1028,11973
66529067,3992,0,-1.5733497,-1.6985493,-9.207505,0.025012137,0.005891947,-0.027539287,68.14681,156.9064,0.0047884034,1442850,-1988,-323,-2944,11966
66629097,4030,0,0.04841466,0.25431934,-10.09429,-0.038135443,0.016729837,-0.051907793,68.15512,156.9064,0.0047884034,1442850,1734,-556,-902,11969
66733090,3993,0,1.3539959,1.7073641,-9.612958,-0.011234639,0.010768055,-0.054589402,68.14404,156.9064,0.0047884034,1442850,2921,-295,-2610,11965
66837097,4007,0,0.9077489,1.3972874,-10.177533,0.025508046,-0.00441029,-0.06665319,68.14681,156.9064,0.0047884034,1442850,1169,-100,-2952,11966
66937098,4000,0,-0.21565716,0.33880886,-10.15797,-0.025196886,-0.01692514,-0.025776494,68.14681,156.9064,0.0047884034,1442850,-523,743,-1294,11966
67041098,3994,0,-0.43220022,-1.5910789,-10.561695,-0.043071736,-0.012868538,-0.018659517,68.18836,156.9064,0.0047884034,1442850,1028,641,-1208,11981
67141104,4006,0,0.94931376,-1.8558077,-9.623723,0.025732476,0.004567313,-0.050567962,68.15235,156.9064,0.0047884034,1442850,1239,-278,-4607,11968
67241098,4000,0,-1.5786377,-0.47715932,-10.11626,-0.039019328,0.0018602775,-0.020294026,68.168976,156.9064,0.0047884034,1442850,-59,-350,-2022,11974
67345098,4000,0,0.22562416,1.2684054,-9.726445,-0.020418257,0.011234341,-0.013042579,68.16621,156.9064,0.0047884034,1442850,857,-478,-517,11973
67445098,4000,0,-0.6404906,2.5399058,-10.157225,0.026046956,0.004807784,-0.076118425,68.14681,156.9064,0.0047884034,1442850,-1699,634,-2481,11966
67546698,4000,0,0.07627603,1.5423766,-9.408792,-0.027655266,-0.0004719898,-0.005887961,68.16344,156.9064,0.0047884034,1442850,833,332,-3036,11972
67646698,4000,0,0.23791075,0.8201017,-10.992148,0.038144574,-0.007080365,-0.06543838,68.14127,156.9064,0.0047884034,1442850,-1343,952,-1960,11964
67750712,4014,0,-1.4691583,-1.3870903,-10.056102,0.02013833,0.00035739632,-0.07277234,68.171745,156.9064,0.0047884034,1442850,-2348,-120,-3070,11975
67850722,4020,0,1.500994,-1.1838753,-11.438306,-0.006642466,0.0031966104,-0.012048372,68.18836,156.9064,0.0047884034,1442850,2174,366,825,11981
67954698,3957,0,-0.14636807,-1.1244509,-10.311674,0.030554494,0.02524441,-0.06593217,68.16067,156.9064,0.0047884034,1442850,-294,-1379,-1780,11971
68054714,4010,0,-1.0777104,0.64889926,-9.668158,-0.011114387,0.0013371542,-0.024923014,68.14404,156.9064,0.0047884034,1442850,-910,-565,-1671,11965
68154667,3994,0,0.79723716,1.0603917,-9.44607,0.017145215,0.01724122,-0.05395482,68.174515,156.9064,0.0047884034,1442850,1379,-680,-2163,11976
68258667,3955,0,0.6278638,2.6795,-9.381383,0.029636651,0.0014652978,-0.03976588,68.15789,156.9064,0.0047884034,1442850,244,377,-2757,11970
68358696,4029,0,-0.84693056,1.6619503,-10.399413,-0.012720909,0.00606225,-0.04240722,68.168976,156.9064,0.0047884034,1442850,-1541,-7,-1116,11974
68458698,3964,0,0.46772057,0.801596,-9.668809,-0.021241216,-0.011876107,-0.014643476,68.16621,156.9064,0.0047884034,1442850,1478,335,-2050,11973
68562721,4017,0,1.1326207,-1.3775079,-10.996273,-0.019994013,-0.006392707,-0.004644244,68.18559,156.9064,0.0047884034,1442850,1724,415,248,11980
68662690,3991,0,-0.05757841,-2.5047052,-10.29527,0.0233754,-0.008301322,-0.039789364,68.171745,156.9064,0.0047884034,1442850,-776,-166,-1123,11975
68766697,4006,0,-1.1335509,-1.1130872,-11.315106,0.019512385,0.0077687367,-0.033832345,68.15789,156.9064,0.0047884034,1442850,-1362,-576,511,11970
68866731,4040,0,-0.98569393,0.5185084,-8.1622095,-0.01181449,0.008061491,-0.059019268,68.14404,156.9064,0.0047884034,1442850,-449,-1193,-5615,11965
68966691,4000,0,0.3094175,1.0453175,-9.7295,-0.0042764703,0.0078021702,-0.040016398,68.174515,156.9064,0.0047884034,1442850,796,-235,-512,11976
69070691,4000,0,-0.06410498,1.2959131,-8.56916,-0.024140047,-0.010523768,-0.011592198,68.15512,156.9064,0.0047884034,1442850,774,788,-3977,11969
69170691,4001,0,1.504028,0.6151597,-9.705286,0.005305121,0.0005392126,-0.040073674,68.16344,156.9064,0.0047884034,1442850,2034,345,-2838,11972
69270675,4008,0,1.1051971,-0.47971162,-11.409224,-0.00075870473,0.0029789608,-0.05105585,68.18282,156.9064,0.0047884034,1442850,1428,127,-561,11979
69374680,4013,0,-0.5056671,-1.2623433,-9.658193,-0.033222016,-0.009503781,-0.011653919,68.19668,156.9064,0.0047884034,1442850,391,357,-1662,11984
69474691,4001,0,-0.45514736,-0.40199572,-9.326017,-0.0027546966,0.0048421063,-0.0025763204,68.19945,156.9064,0.0047884034,1442850,-677,-128,-2809,11985
69578690,4000,0,0.42635888,1.186645,-9.868421,0.0057803607,-0.0010133106,-0.031280875,68.19113,156.9064,0.0047884034,1442850,596,-330,-614,11982
69678699,3962,0,0.21391746,2.2475646,-10.162646,0.00043114158,0.0031333535,-0.0039547454,68.168976,156.9064,0.0047884034,1442850,721,-201,-216,11974
69778698,3994,0,-0.22688404,2.0433347,-9.725987,0.0012528728,0.011189773,-0.025237799,68.19945,156.9064,0.0047884034,1442850,-321,366,-2551,11985
69882736,4038,0,0.36695084,0.56408024,-11.816074,-0.009966534,-0.0029695404,-0.03155058,68.177284,156.9064,0.0047884034,1442850,1136,488,1155,11977
69982698,4000,0,-0.6249301,-0.80892843,-9.055958,-0.007492658,-0.004964835,-0.047205992,68.18836,156.9064,0.0047884034,1442850,-1041,232,-5627,11981
70086698,4000,0,0.6023595,-1.0864514,-8.591752,-0.0042538913,0.001978988,-0.00042617787,68.19668,156.9064,0.0047884034,1442850,1019,-81,-4074,11984
70190698,4000,0,-0.39261273,0.8974742,-10.46889,-0.020341342,0.0041759936,-0.0062701195,68.18005,156.9064,0.0047884034,1442850,1190,-436,192,11978
70292298,4000,0,0.05728825,1.1495509,-9.039874,0.0014841224,-0.0037851115,-0.065224744,68.14127,156.9064,0.0047884034,1442850,-151,-96,-3621,11964
70392298,3959,0,-0.22757779,1.058112,-10.18784,-0.0246297,0.018653793,-0.041407075,68.210526,156.9064,0.0047884034,1442850,382,-805,-1951,11989
70492298,4000,0,0.18555154,0.95283324,-11.152872,-0.00084909797,-0.018548157,-0.03700359,68.19391,156.9064,0.0047884034,1442850,691,1149,-302,11983
70596316,4012,0,0.17907725,-1.0661228,-11.031251,0.025093248,-0.0013928937,-0.073432006,68.168976,156.9064,0.0047884034,1442850,-1074,296,-1045,11974
70696298,4000,0,0.015959676,-1.2768078,-9.843068,-0.008090531,-0.0007221368,0.0023403917,68.177284,156.9064,0.0047884034,1442850,507,-101,-2226,11977
70800298,3982,0,-0.35922426,0.27557644,-11.3308525,-0.010005144,0.012473752,-0.020659685,68.177284,156.9064,0.0047884034,1442850,224,-696,2159,11977
70904298,4000,0,0.039653577,1.3608228,-10.184301,0.0013802915,0.0073728906,-0.060319155,68.16621,156.9064,0.0047884034,1442850,873,-1002,-1119,11973
71004267,3996,0,-0.17833424,1.7513144,-8.808978,-0.0007326404,-0.0011830691,-0.02403123,68.171745,156.9064,0.0047884034,1442850,-357,759,-3454,11975
71108267,3999,0,0.036081124,-0.38815677,-9.983826,-0.019233197,-0.009329188,0.0040722974,68.16344,156.9064,0.0047884034,1442850,742,269,-1623,11972
71208290,3993,0,-0.7578064,-1.0619782,-9.974131,0.009975479,0.005232852,-0.07360314,68.216064,156.9064,0.0047884034,1442850,-1962,-711,-2977,11991
71308290,4000,0,0.038239498,-0.823152,-9.398524,-0.0026305544,-0.00598428,-0.067451246,68.171745,156.9064,0.0047884034,1442850,352,168,-3331,11975
71412290,3999,0,0.112338156,-0.071553126,-8.92242,0.00034300925,0.012165722,-0.04808708,68.18559,156.9064,0.0047884034,1442850,14,-1332,-3107,11980
71512307,4010,0,-0.5974578,0.8062181,-8.754843,-0.017817484,0.0059693204,-0.052917935,68.18559,156.9064,0.0047884034,1442850,-315,-1150,-3479,11980
71612328,4030,0,-0.73162276,1.3214265,-8.470014,-0.015522917,-0.0014268738,-0.040485077,68.135735,156.9064,0.0047884034,1442850,-860,-452,-4201,11962
71716297,4007,0,-0.46124247,-0.0040693195,-10.75718,0.016254112,-0.010615766,-0.06010096,68.18559,156.9064,0.0047884034,1442850,-2218,375,-1122,11980
71816297,4007,0,-0.47594225,-1.0543047,-10.273125,-0.025256744,-0.020037642,-0.021361593,68.213295,156.9064,0.0047884034,1442850,-249,946,-1909,11990
71920291,3997,0,-1.3322028,-1.9220148,-10.618913,-0.008356683,-0.0013486559,-0.07982835,68.22437,156.9064,0.0047884034,1442850,-1524,-594,-2140,11994
72020267,3973,0,-0.388539,-0.5739192,-9.794139,-0.017794086,-0.0026586084,-0.03149383,68.18836,156.9064,0.0047884034,1442850,308,-116,-1936,11981
72120267,4000,0,0.39174625,0.61687857,-8.390772,-0.007827695,0.0063034096,-0.015568956,68.19668,156.9064,0.0047884034,1442850,1374,-464,-3233,11984
72224290,4000,0,-0.31169698,1.8642511,-9.833087,-0.019479949,-0.0038079687,-0.02055312,68.210526,156.9064,0.0047884034,1442850,160,918,-739,11989
72324290,4000,0,1.2856874,1.7670859,-9.713357,0.01128654,-0.0047916453,-0.022246387,68.210526,156.9064,0.0047884034,1442850,1713,704,-1754,11989
72424291,3959,0,-0.89801157,0.20256668,-10.470654,0.0038867826,0.0032540502,-0.07298011,68.19113,156.9064,0.0047884034,1442850,-1978,37,-2756,11982
72528298,4000,0,-1.1226833,-2.2961898,-9.452307,-0.023969408,-0.008434174,-0.067184255,68.19113,156.9064,0.0047884034,1442850,-958,-601,-4409,11982
72628298,3995,0,0.94574547,-1.4257048,-10.7056465,-0.0055172155,0.0061852294,-0.01916093,68.20499,156.9064,0.0047884034,1442850,2273,413,-814,11987
72732304,4006,0,0.29385117,0.15188883,-9.641298,0.0030094916,0.018107992,-0.039837055,68.213295,156.9064,0.0047884034,1442850,1757,-549,-2617,11990
72833894,4021,0,-0.879675,1.6778077,-10.167123,0.03295346,0.013501335,-0.018295104,68.18836,156.9064,0.0047884034,1442850,-1760,99,-906,11981
72937890,4000,0,-0.42034194,1.5122408,-10.612558,0.018570293,0.007350092,-0.06579226,68.18282,156.9064,0.0047884034,1442850,-2087,250,-1346,11979
73037897,4007,0,-1.0610237,0.41818318,-10.373992,-0.018499535,-0.014661125,-0.019801445,68.19945,156.9064,0.0047884034,1442850,-432,553,-1190,11985
73141941,4036,0,-0.9096854,-1.5638937,-9.671234,-0.027680285,-0.0050955648,-0.06800103,68.210526,156.9064,0.0047884034,1442850,-216,-177,-3626,11989
73241898,3993,0,0.3147697,-1.7977664,-10.865974,-0.03263051,-0.0032771688,-0.046983548,68.16344,156.9064,0.0047884034,1442850,1707,313,-215,11972
73341925,4027,0,0.5860735,-1.2419636,-10.206771,0.02321136,0.0044585904,-0.0092696175,68.16344,156.9064,0.0047884034,1442850,773,-299,-407,11972
73445904,4000,0,0.106322445,0.498138,-10.025881,-0.0087236725,0.010738349,-0.049801275,68.16621,156.9064,0.0047884034,1442850,1000,-197,-424,11973
73545905,4007,0,-0.47797143,2.1038308,-10.569719,0.03185791,0.00402644,-0.029468657,68.16621,156.9064,0.0047884034,1442850,-1023,841,-290,11973
73645942,4044,0,-0.75379807,1.45015,-9.6165285,0.008476737,0.0040379884,-0.026307289,68.177284,156.9064,0.0047884034,1442850,-2019,-306,-2182,11977
73749897,3985,0,-0.80043256,-0.3108288,-11.18331,0.010126623,0.0025213212,-0.05835887,68.171745,156.9064,0.0047884034,1442850,-2110,249,-445,11975
73849867,4000,0,-0.13720824,-1.209392,-9.047525,-0.017191978,-0.019333871,-0.023381628,68.19113,156.9064,0.0047884034,1442850,-314,255,-3971,11982
73953890,4000,0,-1.5484749,-1.3436551,-10.059057,-0.008190518,-0.0042431112,-0.024867803,68.18005,156.9064,0.0047884034,1442850,-1553,-218,-1495,11978
74057890,3993,0,-1.5138359,1.2825879,-10.151254,-0.007908918,0.011421145,-0.058176063,68.18282,156.9064,0.0047884034,1442850,-2240,-350,-591,11979
74157891,4000,0,0.6182381,1.3771229,-9.304561,-0.017871344,0.00060651917,-0.010605509,68.16621,156.9064,0.0047884034,1442850,1938,-569,-1343,11973
74261891,4000,0,0.69222075,1.5495247,-10.02698,-0.008810186,-0.017968524,-0.0072383634,68.16621,156.9064,0.0047884034,1442850,1816,1113,-1011,11973
74361890,3966,0,-0.88206625,-0.048559383,-10.879338,0.021623004,7.21509e-05,-0.07970778,68.15512,156.9064,0.0047884034,1442850,-2617,-41,-2180,11969
74461891,3992,0,2.127703,-0.44222927,-9.185882,0.0051656985,-0.010662042,-0.013860008,68.10526,156.9064,0.0047884034,1442850,2596,918,-2748,11951
74565897,4006,0,-1.3979738,-1.6764319,-9.581586,0.027326733,0.004826163,-0.028711101,68.16621,156.9064,0.0047884034,1442850,-2012,-709,-1540,11973
74665891,4000,0,-0.26644036,-0.98988897,-9.823181,0.03330889,0.01509438,-0.06615943,68.18005,156.9064,0.0047884034,1442850,-93,-1226,-2248,11978
74765867,3968,0,1.5038708,0.23224045,-9.878462,0.023832466,0.0060292743,-0.021331301,68.11911,156.9064,0.0047884034,1442850,1974,-723,345,11956
74869915,4049,0,-2.0984535,2.0614,-9.74359,-0.023022112,0.0034989142,-0.034535613,68.18282,156.9064,0.0047884034,1442850,-2242,-229,-113,11979
74969867,4000,0,-0.60524213,1.4683043,-8.972528,0.025525358,0.0050909184,-0.05641515,68.16344,156.9064,0.0047884034,1442850,-2186,291,-3931,11972
75073941,4037,0,-0.07222902,-1.5262529,-9.793263,-0.033709012,-0.017003063,-0.052376803,68.16067,156.9064,0.0047884034,1442850,1670,0,-2621,11971
75173898,4000,0,-1.9344912,-2.0862489,-10.652015,-0.02851752,-0.012997393,-0.024529025,68.16067,156.9064,0.0047884034,1442850,-1057,1,261,11971
75273898,3999,0,-2.3373175,-1.6534591,-10.109229,0.006251518,0.004353075,-0.06608995,68.15235,156.9064,0.0047884034,1442850,-3335,-54,-2311,11968
75375508,4004,0,1.3706613,-0.68676984,-9.199587,0.024091743,0.012187088,-0.040322654,68.18559,156.9064,0.0047884034,1442850,1749,-896,-3869,11980
75479467,3983,0,-1.8034459,1.385848,-8.742034,0.0074141044,0.0129508935,-0.05753233,68.16621,156.9064,0.0047884034,1442850,-1964,-459,-5178,11973
75579467,4000,0,-1.4542474,1.5476959,-9.696053,0.030909311,0.0008611575,-0.01887338,68.18282,156.9064,0.0047884034,1442850,-1755,164,-1368,11979
