timestamp,integral_dt,error_count,x,y,z,x_integral,y_integral,z_integral,temperature,range_m_s2,scaling,device_id,x_raw,y_raw,z_raw,temperature_raw
36659132,4038,0,0.22244701,0.562315,-9.697317,0.0018724485,0.003141567,-0.03971977,55.70637,156.9064,0.0047884034,1442826,23,-63,2027,7475
36759095,3995,0,-0.49872956,-0.08149557,-9.86509,-0.0032564686,0.0026572011,-0.04113271,55.74792,156.9064,0.0047884034,1442826,-260,15,2403,7490
36859108,4009,0,0.021432623,0.44798994,-9.735804,0.00015440136,0.003401341,-0.034869414,55.775623,156.9064,0.0047884034,1442826,-126,106,1911,7500
36963093,3973,0,-0.2862287,-1.2850182,-10.479017,0.00028460994,0.006133835,-0.042124677,55.76454,156.9064,0.0047884034,1442826,-462,-51,1948,7496
37063095,3960,0,0.24147391,-0.02439454,-9.892295,-0.0010170939,-0.02294958,-0.044262663,55.756233,156.9064,0.0047884034,1442826,1076,234,2430,7493
37163139,4045,0,0.6198462,2.5656922,-9.454158,0.00055423484,-0.0042752996,-0.042119324,55.792244,156.9064,0.0047884034,1442826,675,357,2565,7506
37267115,4016,0,0.11276771,1.0743079,-9.600117,-0.0044970387,-0.011623017,-0.039171368,55.792244,156.9064,0.0047884034,1442826,770,200,2152,7506
37371104,3973,0,-0.5406603,-1.3427917,-9.576783,-0.003184071,-0.0076084137,-0.040249534,55.80332,156.9064,0.0047884034,1442826,60,179,2018,7510
37471128,4034,0,-0.5691341,-1.0692216,-10.03258,0.0019803976,0.0033911248,-0.043378912,55.792244,156.9064,0.0047884034,1442826,-441,-462,2128,7506
37571100,4006,0,0.5245123,0.2742495,-10.20491,0.0077725225,0.010621678,-0.03880439,55.822716,156.9064,0.0047884034,1442826,-175,-128,1840,7517
37671100,3997,0,0.7844099,0.92723477,-9.435001,-0.0036910032,-0.0016649923,-0.03779638,55.839336,156.9064,0.0047884034,1442826,149,538,2076,7523
37775094,4000,0,-0.84566814,-0.92341053,-9.974585,-0.00046704867,-0.0032157495,-0.041684285,55.795013,156.9064,0.0047884034,1442826,-366,-111,2272,7507
37875150,4036,0,0.08334846,0.2763231,-9.935228,0.00480345,0.007730943,-0.03681134,55.819942,156.9064,0.0047884034,1442826,-303,-194,2092,7516
37976695,4802,0,0.19609709,0.75857645,-9.548677,-0.0019290887,-0.006195669,-0.044113874,55.825485,156.9064,0.0047884034,1442826,562,134,2202,7518
38076711,4018,0,-0.30372185,-0.958624,-9.871093,-0.0019232731,-0.0032466475,-0.040572897,55.836563,156.9064,0.0047884034,1442826,-22,64,2318,7522
38180693,3999,0,0.2856726,0.9431162,-9.5789795,0.00233131,0.0048711705,-0.03451917,55.844875,156.9064,0.0047884034,1442826,68,25,1953,7525
38280694,4000,0,-0.19073269,0.010525282,-9.68423,-0.0060944282,-0.00823737,-0.038455855,55.883656,156.9064,0.0047884034,1442826,488,212,2085,7539
38492694,4000,0,-1.1216359,-0.91785014,-9.863837,0.0003922755,0.0028966623,-0.040479913,55.844875,156.9064,0.0047884034,1442826,-437,-262,2197,7525
38592714,3990,0,1.1954372,0.8304501,-9.936707,0.005522928,-0.0023813886,-0.043136347,55.867035,156.9064,0.0047884034,1442826,496,187,1884,7533
38692723,3946,0,-1.3861755,-0.24410035,-9.822402,-0.000757469,0.0058528106,-0.042340543,55.850414,156.9064,0.0047884034,1442826,19,-327,2098,7527
38796727,3971,0,-1.0188649,-0.27292353,-9.9343,0.005662525,0.012650855,-0.043021094,55.855953,156.9064,0.0047884034,1442826,-493,-502,1993,7529
38896720,4005,0,-0.55235076,-0.8566664,-9.998998,0.004090526,0.006531683,-0.038109023,55.836563,156.9064,0.0047884034,1442826,-411,-306,1386,7522
39000717,3997,0,0.13160774,0.47398102,-9.8269,0.011386001,0.01086443,-0.034429815,55.903046,156.9064,0.0047884034,1442826,-357,-405,1766,7546
39100670,4000,0,0.31448346,0.669883,-9.644049,0.0068568033,0.005858212,-0.035258368,55.878117,156.9064,0.0047884034,1442826,6,-78,2684,7537
39200698,4028,0,1.2474432,0.73229706,-9.618854,0.005800994,-0.00091578125,-0.040260024,55.878117,156.9064,0.0047884034,1442826,337,330,1803,7537
39304670,4000,0,-0.42749625,-0.27646124,-9.775887,-0.011990457,-0.012113758,-0.046761993,55.936287,156.9064,0.0047884034,1442826,-14,182,2348,7558
39404676,4001,0,-0.8407125,-0.76463455,-9.9773035,-0.0013835544,0.0018031799,-0.0376593,55.90859,156.9064,0.0047884034,1442826,-611,6,2120,7548
39506313,3993,0,-0.079968974,0.086482845,-9.878225,0.006670141,0.0088548,-0.04085395,55.96122,156.9064,0.0047884034,1442826,58,-392,2648,7567
39606314,3998,0,0.5066118,0.9213398,-9.677528,0.008735529,0.00040914444,-0.036524884,55.9446,156.9064,0.0047884034,1442826,1382,-125,1871,7561
39710320,4006,0,-0.47124907,-0.38500002,-10.063832,-0.011565395,-0.0074438686,-0.046062727,55.919666,156.9064,0.0047884034,1442826,283,248,2008,7552
39810314,3962,0,-0.82451403,-0.8474857,-10.036824,0.0037727493,-0.00091029424,-0.039365157,55.97784,156.9064,0.0047884034,1442826,-929,-469,2026,7573
39914273,4003,0,0.5616313,0.51831007,-9.4830065,-0.009479275,-0.004808758,-0.03888562,55.94737,156.9064,0.0047884034,1442826,-242,777,2309,7562
40014310,4034,0,-0.8676072,-0.8852119,-10.286804,0.00411769,0.003738951,-0.037298493,55.98615,156.9064,0.0047884034,1442826,-377,-72,2023,7576
40114270,4000,0,0.8015868,0.6282843,-9.642526,0.0009153809,-0.0011581972,-0.03788809,55.97784,156.9064,0.0047884034,1442826,-283,194,2131,7573
40214270,3994,0,-1.0739889,-0.9095764,-10.240368,0.00071375887,-0.003385103,-0.04087358,55.96122,156.9064,0.0047884034,1442826,-175,-486,2577,7567
40318349,4056,0,-0.30053085,0.1199007,-9.66299,-0.00844855,-0.013286048,-0.043732516,55.99446,156.9064,0.0047884034,1442826,717,268,2374,7579
40422297,3955,0,-0.11675875,0.22128212,-9.602542,-0.01188335,-0.0028544618,-0.041705288,55.99446,156.9064,0.0047884034,1442826,234,880,3035,7579
40526332,4025,0,-0.37479272,-0.21588543,-9.84404,-0.007902006,-0.0049770526,-0.043302793,56.02216,156.9064,0.0047884034,1442826,-465,-23,2256,7589
40626294,3997,0,-0.3966258,-0.042639233,-9.358825,-0.0128152175,-0.0010226635,-0.03969863,56.01385,156.9064,0.0047884034,1442826,521,43,1752,7586
40730294,4001,0,-0.8319463,-0.3282996,-10.044704,0.008932712,0.0015664612,-0.04642974,56.0,156.9064,0.0047884034,1442826,-581,-822,1976,7581
40830294,3999,0,-0.06359181,-0.26462793,-10.252024,0.011174906,-0.0028798152,-0.049068145,56.02216,156.9064,0.0047884034,1442826,-374,-390,2728,7589
40930343,4039,0,0.5121272,0.19353196,-10.3764305,-0.00392461,0.005946878,-0.038216017,56.07202,156.9064,0.0047884034,1442826,245,595,1559,7607
41031870,4000,0,-0.55669785,0.12414882,-9.625619,0.0026646936,-0.0048048864,-0.03077002,56.00831,156.9064,0.0047884034,1442826,-218,-643,1455,7584
41131901,3965,0,0.51201427,-0.111979246,-9.742707,0.007455321,0.005392732,-0.04726296,56.0,156.9064,0.0047884034,1442826,69,423,2188,7581
41231894,4000,0,-0.9307505,-0.04985358,-9.850404,-0.002724436,0.0018533518,-0.03388834,56.04432,156.9064,0.0047884034,1442826,-239,-508,1887,7597
41335895,3997,0,-0.37845257,0.049751706,-9.82527,-0.003304587,-0.004431229,-0.03515783,56.0554,156.9064,0.0047884034,1442826,258,223,2231,7601
41439893,4000,0,-0.7111356,-0.19581197,-9.488253,-0.008558707,-0.008621317,-0.038330242,56.06094,156.9064,0.0047884034,1442826,294,-299,2590,7603
41539894,3978,0,-0.2546549,-0.08346321,-10.349858,-0.010630832,-0.0134755885,-0.01842641,56.09418,156.9064,0.0047884034,1442826,311,313,1737,7615
41643893,3993,0,-1.3286936,-0.22631249,-9.532271,0.008570942,0.0015658919,-0.015247798,56.07479,156.9064,0.0047884034,1442826,462,-1642,1218,7608
41743921,4028,0,-0.020969631,-0.06731308,-9.488515,0.027921714,-0.002209304,-0.021717276,56.09695,156.9064,0.0047884034,1442826,595,-832,1869,7616
41843897,3997,0,-0.12263609,0.031722516,-10.464363,-0.021427274,-0.003208881,-0.036098003,56.09141,156.9064,0.0047884034,1442826,185,733,224,7614
41947938,4044,0,0.33509463,0.26326957,-9.780877,-0.019706216,0.006944248,-0.060783938,56.116344,156.9064,0.0047884034,1442826,652,1341,3729,7623
42047894,4000,0,0.8390516,-0.17017485,-9.102413,0.001971725,-0.0020422137,-0.04365544,56.07756,156.9064,0.0047884034,1442826,-431,1375,3120,7609
42147897,4003,0,0.565784,0.07172458,-9.449489,0.00020000013,0.0005644901,-0.03299833,56.119114,156.9064,0.0047884034,1442826,177,1329,3140,7624
42251894,4000,0,-1.0082266,-0.03778727,-10.842617,-0.0031482666,-0.0036622407,-0.03918534,56.07756,156.9064,0.0047884034,1442826,-226,-333,1169,7609
42351914,4000,0,-0.42536688,0.4526314,-10.320539,0.0039316765,0.0007405068,-0.039275315,56.1108,156.9064,0.0047884034,1442826,861,-448,78,7621
42451961,4047,0,0.33211634,0.013167073,-9.702899,0.013167466,-0.0022024298,-0.027030442,56.138504,156.9064,0.0047884034,1442826,-313,-140,1881,7631
42555927,3964,0,-0.11248315,0.77364415,-9.69418,0.0052110697,0.004689602,-0.02528248,56.09141,156.9064,0.0047884034,1442826,362,-564,1219,7614
42657494,3962,0,0.32054874,0.55962354,-10.079928,-0.013590388,-0.005150589,-0.0491392,56.166203,156.9064,0.0047884034,1442826,423,585,2217,7641
42757498,3979,0,-0.24969096,-0.076459974,-10.128364,0.012925515,0.0005576349,-0.03208127,56.168976,156.9064,0.0047884034,1442826,222,-954,481,7642
42861524,4023,0,-0.49680954,-0.04827348,-10.392749,-0.0027309216,-0.0007520696,-0.0335551,56.185596,156.9064,0.0047884034,1442826,-280,-652,1458,7648
42965494,3994,0,0.09052591,0.2438962,-9.647302,-0.0038654993,0.0050117956,-0.047678232,56.149586,156.9064,0.0047884034,1442826,-200,295,3237,7635
43065500,4006,0,0.68605644,1.0516315,-9.3639,0.006698166,0.0035675706,-0.044510573,56.146812,156.9064,0.0047884034,1442826,222,348,1802,7634
43165520,4006,0,-0.10631642,0.48196337,-10.815588,0.0021713905,0.0044682007,-0.044736426,56.180054,156.9064,0.0047884034,1442826,437,-774,1853,7646
43269514,4000,0,0.0658796,-0.82146925,-10.913077,-0.0011093542,-0.004397796,-0.042057835,56.191135,156.9064,0.0047884034,1442826,280,32,1452,7650
43369514,3957,0,-0.39783138,-0.7669148,-10.715566,0.0023874177,0.0030239145,-0.034247376,56.199444,156.9064,0.0047884034,1442826,1194,168,3679,7653
43473528,4014,0,-0.45148125,0.20238493,-10.479822,0.0037091025,0.012888288,-0.032000292,56.182823,156.9064,0.0047884034,1442826,365,-182,2874,7647
43573493,4000,0,-0.20038106,1.0589274,-10.716212,-0.0033920447,0.006800815,-0.05836954,56.199444,156.9064,0.0047884034,1442826,-906,-661,2429,7653
43677471,4001,0,0.6693355,1.3877907,-9.639927,0.0059050317,-0.00669186,-0.037769627,56.252075,156.9064,0.0047884034,1442826,590,235,3367,7672
43781470,4000,0,0.2528126,-0.8262245,-10.528169,-0.0043822904,-0.006012624,-0.057418253,56.216064,156.9064,0.0047884034,1442826,307,-159,1619,7659
43881470,3960,0,0.23694475,-0.9279956,-10.753893,0.0045515494,-0.0013547894,-0.041291878,56.218838,156.9064,0.0047884034,1442826,1364,-44,2327,7660
43982313,3996,0,-0.21227643,-0.43779877,-10.741413,0.0015785574,-0.0013065,-0.026755217,56.227146,156.9064,0.0047884034,1442826,686,-493,434,7663
44083120,3972,0,-0.016426038,0.30832914,-9.619869,0.0069379318,0.0018495368,-0.03406742,56.257618,156.9064,0.0047884034,1442826,98,110,2192,7674
44187162,4048,0,0.3262853,1.1086705,-9.377337,-0.007093226,0.0053705256,-0.047545936,56.199444,156.9064,0.0047884034,1442826,127,184,3278,7653
44287114,3957,0,-0.06697659,0.37194064,-10.174546,-0.0034777063,-0.0002812295,-0.043324474,56.268696,156.9064,0.0047884034,1442826,733,-214,2067,7678
44387140,4040,0,0.39910683,-0.59693193,-10.106331,0.0022257697,-0.005640663,-0.037219845,56.268696,156.9064,0.0047884034,1442826,595,-28,1862,7678
44491089,4019,0,0.02839242,-0.9425937,-10.196758,-0.0040526697,0.0038934352,-0.054149237,56.240997,156.9064,0.0047884034,1442826,-599,251,2670,7668
44591093,4023,0,-0.32056278,0.1324572,-10.181735,-0.00524849,0.010156892,-0.057155393,56.268696,156.9064,0.0047884034,1442826,-550,-731,687,7678
44695075,4005,0,0.18502128,0.9947065,-9.599263,0.0052171615,-0.0037878042,-0.04296626,56.277008,156.9064,0.0047884034,1442826,530,-4,2726,7681
44795070,3994,0,0.5693801,0.1375499,-9.864474,0.0021323324,-0.01877105,-0.048436455,56.279778,156.9064,0.0047884034,1442826,-404,-49,2583,7682
44895093,3954,0,0.59321135,-0.598456,-10.417289,-0.006774358,-0.0011037391,-0.0465409,56.301937,156.9064,0.0047884034,1442826,-175,173,1015,7690
44999093,3976,0,0.093870476,-0.84993213,-10.01659,-0.00014215586,-0.0069076195,-0.036209445,56.30471,156.9064,0.0047884034,1442826,-766,-298,1234,7691
45099130,3988,0,-0.1950231,0.02587,-9.439949,-0.007092463,0.002882034,-0.036365412,56.29086,156.9064,0.0047884034,1442826,-1168,-119,2804,7686
45199102,4009,0,-0.11572824,0.96168494,-9.887603,0.0050067864,0.00069228554,-0.043404795,56.285316,156.9064,0.0047884034,1442826,-106,-610,770,7684
45303100,3967,0,0.36989558,-0.35200492,-10.04782,-0.0041455464,0.0019563197,-0.04826806,56.30748,156.9064,0.0047884034,1442826,952,-297,2237,7692
45403093,4000,0,0.3615718,-1.037606,-9.990475,0.005400574,-0.007999184,-0.030817542,56.337948,156.9064,0.0047884034,1442826,1469,161,3595,7703
45507117,4024,0,-0.13629073,-0.6288492,-10.232308,0.0011281169,0.013097716,-0.037580132,56.3241,156.9064,0.0047884034,1442826,174,283,2928,7698
45608670,4000,0,0.44628546,0.68817955,-9.420586,0.007929336,0.000933912,-0.025704835,56.321327,156.9064,0.0047884034,1442826,-80,114,2091,7697
45708694,4001,0,-0.024649816,0.9756696,-8.903469,0.007029279,-0.0029782047,-0.023646802,56.32964,156.9064,0.0047884034,1442826,736,-454,1802,7700
45808706,3998,0,0.17253122,0.23748925,-8.955355,-0.0031119958,0.0069301883,-0.045252126,56.32964,156.9064,0.0047884034,1442826,416,69,2193,7700
45912741,4048,0,0.020406239,-0.58642894,-9.936841,0.006047517,0.011168292,-0.04409606,56.37673,156.9064,0.0047884034,1442826,684,-23,-123,7717
46012694,4001,0,0.25306475,-0.4635802,-9.283582,-0.013055,0.0066018915,-0.028845904,56.37673,156.9064,0.0047884034,1442826,864,686,2112,7717
46116707,4013,0,0.5449963,0.7637848,-8.491231,-0.0008788721,0.010537456,-0.041115407,56.393353,156.9064,0.0047884034,1442826,215,877,3088,7723
46216694,3953,0,0.3094831,0.8398774,-9.07499,0.012138066,-0.0028198897,-0.035708696,56.373962,156.9064,0.0047884034,1442826,506,-92,1929,7716
46316694,3981,0,0.4992024,0.087429255,-9.524181,-0.0068551353,0.0041920324,-0.056173448,56.37673,156.9064,0.0047884034,1442826,879,215,1325,7717
46420720,3987,0,-0.19812638,-0.80748844,-9.083985,-0.008670435,0.0027905598,-0.043135762,56.3795,156.9064,0.0047884034,1442826,-802,55,3452,7718
46520705,4011,0,0.02792482,-0.27288532,-9.326544,0.0010670079,-0.0060412018,-0.050816614,56.38504,156.9064,0.0047884034,1442826,-767,-218,91,7720
46620700,3988,0,0.15579367,0.7609106,-9.165937,0.0068114074,0.0082230065,-0.03218216,56.39889,156.9064,0.0047884034,1442826,-352,-83,1247,7725
46724694,4000,0,0.036240917,0.45772943,-9.7398815,-0.0036574171,-0.0061560567,-0.052230567,56.40443,156.9064,0.0047884034,1442826,-1152,-574,540,7727
46824725,4031,0,0.4486182,-0.27198532,-9.174224,0.0062323185,-0.012064973,-0.025173156,56.40166,156.9064,0.0047884034,1442826,-294,264,3439,7726
46924715,3949,0,0.06470204,-1.3213184,-10.342808,0.0013289675,-0.0145428935,-0.045414045,56.434902,156.9064,0.0047884034,1442826,-854,-236,750,7738
47028714,3951,0,0.17427197,-0.7327907,-9.758038,0.008395594,-0.00085171044,-0.012609333,56.434902,156.9064,0.0047884034,1442826,244,768,3959,7738
47130294,3993,0,-0.39978325,0.86212593,-9.5537195,0.00025449193,0.0040251804,-0.040833414,56.434902,156.9064,0.0047884034,1442826,344,164,2238,7738
47230300,4002,0,-0.02038064,0.87740207,-8.857507,-0.0034892433,-0.012170491,-0.03579497,56.459835,156.9064,0.0047884034,1442826,-604,-310,3493,7747
47334294,3971,0,0.5834107,0.2546076,-9.47015,0.010994466,-0.005697258,-0.02359626,56.462605,156.9064,0.0047884034,1442826,1184,476,2941,7748
47434304,3974,0,0.038175892,-0.9959368,-10.14551,-0.009357017,-0.011725294,-0.04148833,56.481995,156.9064,0.0047884034,1442826,411,197,684,7755
47534294,4000,0,-0.34426835,-1.0001663,-9.737396,-0.0013346775,0.0071945884,-0.032079615,56.479225,156.9064,0.0047884034,1442826,-309,353,3558,7754
47638293,3993,0,0.17211394,0.60849965,-9.531999,0.0029436608,0.005142127,-0.024914058,56.495846,156.9064,0.0047884034,1442826,-305,1157,4571,7760
47738294,4001,0,-0.4345014,1.4281268,-9.733431,-0.0029500648,0.0065860944,-0.03458881,56.498615,156.9064,0.0047884034,1442826,445,-729,2103,7761
47838321,3996,0,0.21058346,0.99245584,-10.03502,0.007651234,-0.0032405083,-0.05396685,56.493073,156.9064,0.0047884034,1442826,23,-815,149,7759
47942317,3997,0,0.2580698,-0.8496425,-10.265195,-0.011647623,-0.0077703088,-0.04416069,56.515236,156.9064,0.0047884034,1442826,-392,-304,2660,7767
48042314,4000,0,0.17846811,-0.5309802,-10.4638195,0.0049866717,-0.0012817587,-0.035054207,56.518005,156.9064,0.0047884034,1442826,-40,175,2070,7768
48142293,4023,0,-0.0021735083,-0.23535208,-9.811874,-0.00420216,-0.0063790726,-0.042292025,56.523544,156.9064,0.0047884034,1442826,-1708,429,3329,7770
48246304,4034,0,0.16042325,0.6529911,-9.674428,0.00082514185,-0.0025384566,-0.02126354,56.512466,156.9064,0.0047884034,1442826,-164,3,1329,7766
48346269,3999,0,0.4090179,0.45688024,-10.110608,0.008786984,-0.0062688757,-0.032278083,56.509693,156.9064,0.0047884034,1442826,1898,307,1917,7765
48447893,3999,0,0.013680951,-0.65904295,-10.43975,0.0021012237,0.0046294974,-0.03942354,56.523544,156.9064,0.0047884034,1442826,-100,-696,1565,7770
48551894,3967,0,0.05864014,0.2072441,-9.683161,0.0025614281,0.00869468,-0.026066195,56.551247,156.9064,0.0047884034,1442826,144,182,3899,7780
48651914,3994,0,0.48967138,0.53363824,-9.922118,-0.004175928,-0.0075173634,-0.056250438,56.551247,156.9064,0.0047884034,1442826,-909,36,500,7780
48751953,4031,0,-0.28341874,0.3999683,-9.63679,0.0017199665,0.0019160826,-0.048655607,56.584488,156.9064,0.0047884034,1442826,-447,-339,4565,7792
48855922,4008,0,0.1460519,-0.52487296,-9.635473,-0.007849442,-0.00028472976,-0.061535694,56.595566,156.9064,0.0047884034,1442826,-687,60,3053,7796
48955914,4000,0,-0.059998654,-0.17773421,-10.071313,0.00446093,0.0026187631,-0.027956072,56.626038,156.9064,0.0047884034,1442826,499,-48,1847,7807
49055870,3957,0,0.29789564,0.7658125,-10.062393,0.0022172963,0.006597945,-0.0326939,56.567867,156.9064,0.0047884034,1442826,-373,420,916,7786
49159931,4061,0,-0.111556895,1.3259385,-10.390626,0.0004508969,-0.0017661024,-0.05148127,56.592796,156.9064,0.0047884034,1442826,346,-823,-627,7795
49263870,4000,0,0.16142428,-0.33349475,-10.256718,-0.00883305,0.0032221135,-0.032261223,56.59834,156.9064,0.0047884034,1442826,1398,-139,2369,7797
49363870,3996,0,0.21351454,-0.38814494,-10.667346,-0.0016204021,0.0021698722,-0.045018777,56.609417,156.9064,0.0047884034,1442826,727,69,704,7801
49467894,3957,0,-0.3314542,0.546945,-10.246433,-0.006776667,0.0074872077,-0.040626712,56.587257,156.9064,0.0047884034,1442826,-421,-552,-20,7793
49567901,4002,0,-0.31601846,1.2752769,-10.315721,-0.00066878775,0.0028909028,-0.052160356,56.63712,156.9064,0.0047884034,1442826,-394,-185,772,7811
49671908,4014,0,0.63744456,-0.29034203,-9.63185,-0.0020096826,-0.01256738,-0.03452198,56.6205,156.9064,0.0047884034,1442826,-927,-311,2601,7805
49771926,4027,0,0.1387786,-0.72375995,-10.35715,-0.0019982136,0.0029261387,-0.036849305,56.648197,156.9064,0.0047884034,1442826,399,-652,857,7815
49875894,4001,0,0.056425836,0.26711288,-10.145023,0.003921582,-0.0026441554,-0.034391694,56.631577,156.9064,0.0047884034,1442826,-130,40,2075,7809
49973470,4000,0,0.20448455,0.9142648,-9.525776,0.013541942,0.0042522196,-0.027064612,56.65374,156.9064,0.0047884034,1442826,-493,345,4659,7817
50077470,4000,0,0.44659173,0.89403725,-9.169998,0.012447209,-0.011726241,-0.026368082,56.67313,156.9064,0.0047884034,1442826,263,220,3500,7824
50177471,4001,0,0.08406804,-0.12740275,-9.111548,0.005784155,-0.009164453,-0.040630817,56.66759,156.9064,0.0047884034,1442826,294,-734,3272,7822
50277514,4044,0,0.22542039,-0.4516339,-8.990785,-0.010712154,-0.0017977258,-0.0584077,56.68698,156.9064,0.0047884034,1442826,-405,1167,4885,7829
50381531,4007,0,0.14163233,0.10918741,-9.162088,-0.0038163555,0.008253212,-0.0596458,56.65651,156.9064,0.0047884034,1442826,-366,607,2752,7818
50481494,3994,0,0.24941453,0.6658791,-8.886358,0.0050907084,0.004182621,-0.036409855,56.69806,156.9064,0.0047884034,1442826,-25,228,1225,7833
50585500,4007,0,0.5249433,0.7281631,-9.070782,0.0124397585,0.0012384504,-0.027205987,56.69806,156.9064,0.0047884034,1442826,-112,-81,1455,7833
50685494,4000,0,-0.20374836,-0.26270184,-9.739691,-0.0025750166,0.007286907,-0.042006094,56.71745,156.9064,0.0047884034,1442826,1203,85,2176,7840
50789494,4001,0,-0.3641827,-0.35594803,-9.995992,0.0039154966,0.016386617,-0.032910112,56.69806,156.9064,0.0047884034,1442826,945,323,1707,7833
50889503,3961,0,0.25639072,0.21095076,-9.222504,-0.00224986,0.017725376,-0.03537392,56.722992,156.9064,0.0047884034,1442826,1366,281,2850,7842
50989498,4004,0,0.08414869,0.4052099,-8.836067,-0.005566418,-0.011272835,-0.038561128,56.73407,156.9064,0.0047884034,1442826,-1450,-108,2525,7846
51093494,4000,0,-0.05380715,0.0048353015,-9.373482,-0.0024960637,-0.00040808454,-0.044372484,56.720222,156.9064,0.0047884034,1442826,-128,-595,1755,7841
51197494,4000,0,-0.12777157,-0.775379,-9.876019,-0.0028714617,-0.0010963567,-0.053680982,56.739613,156.9064,0.0047884034,1442826,-1166,-248,1186,7848
51297493,3974,0,-0.008321189,-0.24477276,-9.746728,-0.006952256,0.0098555945,-0.04093798,56.742382,156.9064,0.0047884034,1442826,475,245,2334,7849
51399116,4023,0,-0.1294377,0.584007,-9.067075,0.006510728,0.017334063,-0.035996243,56.761772,156.9064,0.0047884034,1442826,-181,-676,1205,7856
51499137,4045,0,0.084144615,0.38204187,-8.575693,-0.00921739,-0.012917726,-0.054619975,56.770084,156.9064,0.0047884034,1442826,-897,-319,2175,7859
51603109,4010,0,-0.19536458,-0.6255225,-9.417562,-0.0028659452,-0.0013633305,-0.049813386,56.775623,156.9064,0.0047884034,1442826,-1194,-304,2523,7861
51707100,3993,0,-0.46992752,-0.51667684,-10.213364,-0.0047729793,0.008564842,-0.074997164,56.759003,156.9064,0.0047884034,1442826,-1058,-1213,-1025,7855
51807101,4008,0,-0.34617308,-0.50216365,-8.924563,-0.0048110173,-0.012681194,-0.046610117,56.78393,156.9064,0.0047884034,1442826,-1472,-149,5024,7864
51907100,4006,0,0.068892814,0.63580924,-9.038783,0.0004030231,0.01630445,-0.031193126,56.78393,156.9064,0.0047884034,1442826,1081,126,1624,7864
52007125,4031,0,0.6740609,0.41173294,-8.715474,-0.0071623577,-0.007498308,-0.036761153,56.778393,156.9064,0.0047884034,1442826,158,637,3092,7862
52111100,3980,0,0.08745986,-0.8231795,-9.617598,-0.0029357811,-0.023865608,-0.041083373,56.811634,156.9064,0.0047884034,1442826,-903,-337,3131,7874
52211094,4000,0,0.0398154,-1.1756996,-9.737222,-0.010981265,0.0041170637,-0.04640645,56.806095,156.9064,0.0047884034,1442826,237,-331,1583,7872
52315094,4001,0,-0.82980794,-0.32348385,-10.822617,-0.007347382,0.0095187705,-0.06593215,56.822716,156.9064,0.0047884034,1442826,-1472,-977,-1138,7878
52415114,4000,0,0.05906317,0.6427786,-10.007049,0.0008511192,0.0040156376,-0.039819613,56.78393,156.9064,0.0047884034,1442826,-1485,184,2265,7864
52515139,3993,0,0.15301794,0.93404764,-9.401925,0.008469593,4.334515e-05,-0.026625043,56.833794,156.9064,0.0047884034,1442826,1254,-508,2297,7882
52619138,4024,0,0.8656816,-0.41945362,-9.942608,0.010072909,0.002937418,-0.03569138,56.842106,156.9064,0.0047884034,1442826,2155,-279,1473,7885
52719120,4004,0,-0.44896194,-0.86296695,-10.645759,-0.0008577517,0.0048306272,-0.029192682,56.853184,156.9064,0.0047884034,1442826,1196,-218,2532,7889
52820738,4045,0,-0.25367838,-0.054254644,-9.998212,-0.011700449,0.0036139337,-0.0460737,56.861496,156.9064,0.0047884034,1442826,707,-366,1995,7892
52920694,4000,0,0.19803639,-0.014052278,-10.022998,-0.0054169036,0.004381804,-0.0711202,56.878117,156.9064,0.0047884034,1442826,-1770,194,-101,7898
53024694,4000,0,0.08485658,0.9200159,-9.835608,-0.0037448579,-0.007894231,-0.033930916,56.861496,156.9064,0.0047884034,1442826,71,-581,1871,7892
53124700,4006,0,0.4751823,-0.21758333,-9.65666,0.0049788738,0.0026253965,-0.05720921,56.880886,156.9064,0.0047884034,1442826,-809,-466,793,7899
53224760,4008,0,0.45599395,-0.09127759,-9.762541,0.0025280141,0.011002115,-0.018068988,56.869804,156.9064,0.0047884034,1442826,1443,412,3730,7895
53328716,3995,0,0.4165307,-1.0145894,-10.165634,0.00041294322,-0.009893984,-0.037900258,56.867035,156.9064,0.0047884034,1442826,-1574,-140,2632,7894
53428714,4000,0,-0.20936492,-0.74491066,-10.018609,-0.007337352,-0.0028531458,-0.04476036,56.900276,156.9064,0.0047884034,1442826,-1298,-334,2948,7906
53532723,4014,0,0.22545063,0.45979297,-9.817618,-0.001728191,0.0052859476,-0.020360077,56.903046,156.9064,0.0047884034,1442826,1019,1153,3829,7907
53632715,3991,0,0.06680765,0.7007063,-10.340532,-0.0044282605,-0.0040069716,-0.07020031,56.886425,156.9064,0.0047884034,1442826,-1602,-1480,196,7901
53732670,4000,0,0.24091633,0.18764825,-9.702103,-0.0017440605,0.012052488,-0.042501893,56.900276,156.9064,0.0047884034,1442826,-331,-356,3129,7906
53836694,4017,0,0.18417068,-0.74405473,-10.253977,-7.1194954e-06,0.0037644864,-0.03336057,56.92798,156.9064,0.0047884034,1442826,329,411,4026,7916
53936671,3996,0,0.0799443,-0.57845944,-10.555455,0.00015525133,-0.0060352474,-0.06625542,56.919666,156.9064,0.0047884034,1442826,-1052,-361,-530,7913
54036671,4001,0,-0.022853322,-0.040256828,-10.245524,-0.00067353464,-0.009568743,-0.034971513,56.950138,156.9064,0.0047884034,1442826,-974,-425,472,7924
54140729,4032,0,0.15114325,1.1203692,-9.781871,0.008415383,0.0030686648,-0.054294243,56.936287,156.9064,0.0047884034,1442826,767,-518,1124,7919
54242313,3991,0,0.22340377,0.55781275,-10.087321,0.0056794565,-0.0076728915,-0.019930618,56.9446,156.9064,0.0047884034,1442826,752,-455,984,7922
54342314,4000,0,0.45675808,-0.45661288,-9.547357,0.0080843,-0.008899223,-0.01909665,56.96953,156.9064,0.0047884034,1442826,1931,771,6321,7931
54446317,3958,0,-0.09525997,-0.7763568,-10.005077,-0.0021591699,0.015679343,-0.031954475,56.98061,156.9064,0.0047884034,1442826,108,495,1541,7935
54546338,4039,0,-0.17694573,0.27524284,-9.451682,-0.0018051789,0.013629035,-0.045328528,56.950138,156.9064,0.0047884034,1442826,472,955,3974,7924
54650270,4000,0,-0.18178828,0.5039003,-8.906228,0.007194953,0.006513695,-0.025739111,56.98061,156.9064,0.0047884034,1442826,-446,-562,409,7935
54750270,3989,0,0.44216818,-0.39586157,-8.082457,0.0005184023,0.008007743,-0.052378785,56.991688,156.9064,0.0047884034,1442826,-1136,343,1435,7939
54854314,4003,0,-0.08633921,-0.19745916,-7.998247,-0.006093315,0.020208694,-0.039543506,56.98892,156.9064,0.0047884034,1442826,63,-410,516,7938
54954344,4074,0,0.07404308,0.7108874,-8.590315,-0.0013704926,0.0033539464,-0.045807824,56.99446,156.9064,0.0047884034,1442826,1397,-581,2468,7940
55058310,4017,0,-0.0030387412,-0.044188805,-9.221841,-0.0036933054,-0.004907337,-0.054278787,56.96953,156.9064,0.0047884034,1442826,-1943,-295,702,7931
55158297,4004,0,0.39580327,0.14390168,-10.286665,0.008428822,-0.00017242273,-0.04563788,57.01662,156.9064,0.0047884034,1442826,1676,196,1174,7948
55258301,4008,0,0.47079182,-0.36320826,-10.3534565,0.005229286,0.009084059,-0.030112434,57.047092,156.9064,0.0047884034,1442826,1031,117,4500,7959
55362300,3990,0,0.1212304,0.12531768,-10.42607,-0.0053889947,0.008459851,-0.030494839,57.0277,156.9064,0.0047884034,1442826,-13,-409,-185,7952
55462294,3956,0,0.34159657,0.6961724,-10.083581,0.002879165,0.0050753686,-0.04576606,57.07202,156.9064,0.0047884034,1442826,471,670,2702,7968
55566303,3960,0,0.22325855,0.6916923,-10.105724,-0.0035817102,0.0013596849,-0.042716376,57.05263,156.9064,0.0047884034,1442826,677,-4,2267,7961
55667873,4003,0,0.38747525,-0.18734902,-9.88554,0.003621988,0.011187874,-0.0400655,57.0554,156.9064,0.0047884034,1442826,-1198,208,3078,7962
55767897,4018,0,-0.14117458,-1.2475916,-10.392695,-0.007348499,-0.0071538193,-0.0435975,57.066483,156.9064,0.0047884034,1442826,-429,-138,2739,7966
55867893,3995,0,-0.14694917,-1.3039814,-11.063249,-0.004686685,-0.011200984,-0.035323728,57.05817,156.9064,0.0047884034,1442826,-319,428,1708,7963
55971893,3993,0,-0.12508437,0.51633584,-10.844281,-0.0034125932,0.00051661197,-0.034658954,57.069252,156.9064,0.0047884034,1442826,-210,385,2501,7967
56071894,4001,0,-0.025114847,1.2296747,-10.317308,0.0045150965,-0.001687379,-0.057700712,57.088642,156.9064,0.0047884034,1442826,179,194,3125,7974
56175895,3988,0,0.5959052,0.7818571,-10.42476,0.0064436826,-0.0011258578,-0.053468037,57.05263,156.9064,0.0047884034,1442826,982,140,1404,7961
56275894,3990,0,0.09322828,-0.64660376,-10.156203,-0.004943276,-0.0008116476,-0.06040762,57.07202,156.9064,0.0047884034,1442826,-466,-521,1800,7968
56375893,3992,0,-0.038990147,-1.2169977,-10.301367,-0.0031561397,-0.013517014,-0.033637933,57.09418,156.9064,0.0047884034,1442826,-481,-120,813,7976
56479940,4046,0,-0.21179791,0.3383893,-9.686575,0.0075885174,0.0020081874,-0.03147209,57.124653,156.9064,0.0047884034,1442826,-87,-530,1554,7987
56579898,4003,0,0.18565437,0.7898131,-10.117014,-0.0019010877,-0.0040987874,-0.042742044,57.124653,156.9064,0.0047884034,1442826,-1111,69,289,7987
56683903,4001,0,0.05345523,1.0561472,-10.417524,0.0032569598,-0.004569742,-0.050651327,57.13019,156.9064,0.0047884034,1442826,68,-428,1309,7989
56783935,4041,0,0.4878821,0.09732575,-9.566765,0.008672711,-0.0055234954,-0.032454893,57.166203,156.9064,0.0047884034,1442826,524,714,4985,8002
56883894,4001,0,0.32899046,-0.86684966,-10.516231,2.8398543e-05,-0.00740629,-0.029642433,57.138504,156.9064,0.0047884034,1442826,-317,-61,714,7992
56987893,3958,0,-0.15924074,0.16200338,-10.575982,0.0046547474,-0.00015292928,-0.028076932,57.155125,156.9064,0.0047884034,1442826,-19,-315,917,7998
57085500,4007,0,-0.06876376,0.09070621,-9.517616,0.0014785347,-0.0039857426,-0.03116823,57.141273,156.9064,0.0047884034,1442826,-1904,138,2557,7993
57189507,3965,0,0.3464581,1.6000496,-9.515362,-0.0022830956,-0.0073329406,-0.02910734,57.157894,156.9064,0.0047884034,1442826,-1141,166,2427,7999
57289550,4056,0,0.0767201,0.93085563,-10.151175,-0.0074107586,-0.010746095,-0.042773165,57.160664,156.9064,0.0047884034,1442826,-960,338,2065,8000
57393500,3992,0,0.053629976,-0.15757525,-10.58857,0.0033669898,0.014357084,-0.02981888,57.182823,156.9064,0.0047884034,1442826,231,-708,1186,8008
57493501,4006,0,0.043032978,0.117851555,-9.517613,0.00760306,-0.0015788502,-0.042599887,57.191135,156.9064,0.0047884034,1442826,745,286,1964,8011
57593494,4000,0,0.51397175,-0.6321089,-9.887408,0.0032602595,-0.0034768647,-0.055610508,57.199444,156.9064,0.0047884034,1442826,-460,304,2139,8014
57697494,4000,0,0.48261836,1.3232241,-9.91493,0.006565621,-0.006163655,-0.04320474,57.180054,156.9064,0.0047884034,1442826,544,227,2067,8007
57797500,3976,0,0.15819457,0.68348664,-9.583922,-0.0076609883,-0.0040929774,-0.04381094,57.229916,156.9064,0.0047884034,1442826,-254,-13,1270,8025
57901493,3987,0,-0.06704865,0.1287879,-9.199249,-0.001107098,-0.013337885,-0.034673817,57.227146,156.9064,0.0047884034,1442826,-11,412,3353,8024
58001514,3994,0,0.6842774,0.08727477,-10.1563835,0.011291562,0.019711599,-0.028798431,57.229916,156.9064,0.0047884034,1442826,264,518,2687,8025
58101514,4000,0,0.8090902,0.54575837,-10.544229,0.017944638,0.011377059,-0.044052046,57.229916,156.9064,0.0047884034,1442826,1793,560,1121,8025
58201514,3991,0,0.17981054,0.45084146,-9.552171,0.012482024,0.015326758,-0.02933403,57.265926,156.9064,0.0047884034,1442826,-271,-168,3004,8038
58305552,4038,0,0.48990017,0.7613324,-9.627895,0.011108449,-0.01381071,-0.029239155,57.243767,156.9064,0.0047884034,1442826,10,648,1835,8030
58407094,4001,0,0.8754869,0.2087508,-9.299801,-0.0035382519,-0.0033954848,-0.041503835,57.257618,156.9064,0.0047884034,1442826,-650,12,3524,8035
58507110,4015,0,-0.27933067,-0.10373393,-9.92897,-0.0040279655,0.00042903455,-0.033028375,57.25485,156.9064,0.0047884034,1442826,-4,-913,2781,8034
58611093,3999,0,-0.43060833,-0.27830988,-9.796768,0.0058175204,0.0167747,-0.03156619,57.27424,156.9064,0.0047884034,1442826,-941,-369,1489,8041
58711108,4015,0,0.21603274,0.78736156,-10.020425,-0.011126159,-0.004126122,-0.044992745,57.260387,156.9064,0.0047884034,1442826,-333,1107,1545,8036
58811120,3998,0,-0.09635521,0.9680929,-10.145636,-0.0011369602,-0.010464732,-0.034137804,57.29086,156.9064,0.0047884034,1442826,736,-36,1707,8047
58915114,3970,0,-0.59256727,-0.04998721,-10.117382,0.0056564175,0.0010917241,-0.036952466,57.301937,156.9064,0.0047884034,1442826,463,-822,2337,8051
59015114,4000,0,0.31675613,-0.31561866,-10.3767395,-0.0005081381,-0.008669277,-0.024304308,57.318558,156.9064,0.0047884034,1442826,706,619,1645,8057
59115129,4015,0,0.15164343,-0.123752184,-10.165655,0.008536396,0.005703653,-0.028444465,57.299168,156.9064,0.0047884034,1442826,120,-508,1821,8050
59219114,3994,0,0.08585022,0.8213638,-9.632985,0.010779218,0.017854959,-0.028649451,57.30471,156.9064,0.0047884034,1442826,1488,133,638,8052
59319111,4035,0,-0.6487636,0.7048301,-9.3900585,0.0014836808,0.0100345155,-0.020788986,57.3518,156.9064,0.0047884034,1442826,680,-33,3152,8069
59423102,4032,0,0.30855918,0.1451881,-9.866377,-0.012765521,-0.0007457874,-0.055911236,57.34072,156.9064,0.0047884034,1442826,262,-271,463,8065
59523090,4020,0,0.26457122,0.12047347,-10.083106,0.008988196,0.013400745,-0.046557974,57.34626,156.9064,0.0047884034,1442826,1176,111,2192,8067
59623070,3988,0,0.30357492,0.27418718,-10.210134,-0.008333107,-0.0048215147,-0.04227396,57.35734,156.9064,0.0047884034,1442826,290,615,2290,8071
59727070,4000,0,-0.139642,0.71508867,-9.199058,-0.00020183949,-0.005196457,-0.032495,57.318558,156.9064,0.0047884034,1442826,-222,1002,1470,8057
59828722,4002,0,-0.37329948,0.4932071,-9.309498,0.0023337111,0.0050757015,-0.03183633,57.36842,156.9064,0.0047884034,1442826,-893,-27,3531,8075
59928713,3998,0,-0.007087515,-0.034050565,-9.387985,0.008834612,0.0019742923,-0.023744963,57.34903,156.9064,0.0047884034,1442826,64,-440,2746,8068
60028717,3965,0,0.13641788,0.17764543,-9.633614,0.0047643827,-0.0058947885,-0.02756697,57.37673,156.9064,0.0047884034,1442826,2014,201,2893,8078
60948731,4011,0,0.26006597,0.4244379,-11.00694,0.008265664,-0.0045894966,-0.03919319,57.44044,156.9064,0.0047884034,1442826,710,-762,2406,8101
61048694,4000,0,-0.015442658,-1.0931618,-11.317582,-0.0087384675,-0.0015998562,-0.040743187,57.40443,156.9064,0.0047884034,1442826,-618,112,1280,8088
61148694,3955,0,-0.3681338,-0.97737014,-11.22125,-0.006069864,-0.0033706436,-0.049723983,57.43767,156.9064,0.0047884034,1442826,-484,17,821,8100
61250276,3968,0,-0.2719986,0.06640899,-9.4533825,0.00442656,0.01322647,-0.044941977,57.484764,156.9064,0.0047884034,1442826,-1933,-506,3348,8117
61354273,4003,0,0.21927498,0.48103777,-9.550408,-0.0010659614,-0.008764195,-0.030850448,57.47645,156.9064,0.0047884034,1442826,-98,-164,317,8114
61454314,4044,0,-0.04237082,0.007766281,-10.403687,-0.00071801443,-0.0017219819,-0.04812573,57.459835,156.9064,0.0047884034,1442826,26,-118,2045,8108
61558294,4001,0,0.99199384,-0.22056973,-9.426891,0.012060699,-0.006649808,-0.02376477,57.459835,156.9064,0.0047884034,1442826,505,397,2257,8108
61658294,3953,0,-0.10217127,0.13546817,-9.6404,-0.0031313095,0.0038694474,-0.06610312,57.504154,156.9064,0.0047884034,1442826,1160,-391,2158,8124
61758343,4049,0,0.35971048,0.4208971,-10.083053,-0.010571414,-0.013602261,-0.03632906,57.506924,156.9064,0.0047884034,1442826,-455,8,490,8125
61862317,3984,0,0.11466109,0.19157808,-9.381564,-0.0030506025,-0.00069252856,-0.03444553,57.526314,156.9064,0.0047884034,1442826,-728,-771,3138,8132
61962330,4036,0,-0.0015231638,0.120768294,-10.015221,-0.014182612,-0.0015975812,-0.05530212,57.506924,156.9064,0.0047884034,1442826,83,130,1825,8125
62066294,4000,0,0.5552878,0.4919954,-9.327087,0.01343483,0.007594667,-0.033798274,57.490303,156.9064,0.0047884034,1442826,1393,-348,983,8119
62166294,4000,0,0.57012546,0.59622437,-8.650789,-0.000561984,-0.012171416,-0.02718585,57.473682,156.9064,0.0047884034,1442826,-402,1141,3418,8113
62266294,3973,0,0.28542206,0.36471573,-9.052778,-0.019929994,0.0025986198,-0.050785564,57.554016,156.9064,0.0047884034,1442826,-275,-141,1948,8142
62370293,3949,0,0.35093564,0.3991772,-9.138262,0.0072091655,-0.00069698924,-0.018551942,57.523544,156.9064,0.0047884034,1442826,1616,-226,1345,8131
62470321,4027,0,0.060717095,-0.2696692,-9.814473,-0.010025461,-0.00049163133,-0.04765174,57.526314,156.9064,0.0047884034,1442826,160,-742,2432,8132
62571925,4023,0,-0.20422262,0.010683885,-9.812946,-0.006330711,0.012035951,-0.05417329,57.548477,156.9064,0.0047884034,1442826,-99,-349,1297,8140
62671903,3997,0,0.45300138,-0.26595324,-9.101454,0.0007372387,-0.0042210273,-0.038603995,57.551247,156.9064,0.0047884034,1442826,-195,1278,5091,8141
62775916,4022,0,-0.03281658,0.6607828,-9.659825,-0.011697872,0.0017832029,-0.06091726,57.556786,156.9064,0.0047884034,1442826,-1208,-830,46,8143
62875904,4010,0,-0.13373417,0.44935206,-9.471737,-0.012500908,-0.014735936,-0.04922567,57.595566,156.9064,0.0047884034,1442826,-416,635,3695,8157
62979894,3994,0,0.48825496,-0.70836836,-9.496373,-0.00030027382,-0.0046469453,-0.029493105,57.58172,156.9064,0.0047884034,1442826,-312,391,3470,8152
63083894,4000,0,-0.31825957,-0.13457407,-10.179505,0.00399749,0.013693199,-0.029244626,57.567867,156.9064,0.0047884034,1442826,-444,-1206,329,8147
63183926,4025,0,-0.63214093,0.71232355,-10.002908,-0.008315722,0.0034750951,-0.032210954,57.595566,156.9064,0.0047884034,1442826,-512,-709,2090,8157
63287900,3975,0,0.16661184,0.67845523,-9.728847,-0.013328985,0.0060136113,-0.045823053,57.562325,156.9064,0.0047884034,1442826,67,-22,2283,8145
63387903,4009,0,0.13057089,0.75927275,-9.346578,0.008276516,0.00471157,-0.045629814,57.584488,156.9064,0.0047884034,1442826,1189,1076,4034,8153
63487894,3994,0,0.024545055,-0.43023238,-9.846677,-0.0051896665,-0.0009677063,-0.036823828,57.61773,156.9064,0.0047884034,1442826,-733,-250,4227,8165
63591894,3954,0,0.024680315,0.41324306,-10.482849,0.0057552885,0.021833973,-0.05465895,57.603878,156.9064,0.0047884034,1442826,165,-1221,1360,8160
63691915,4001,0,0.20939542,0.18398516,-9.790418,0.0025545824,0.004200424,-0.038139194,57.626038,156.9064,0.0047884034,1442826,-1362,-392,2748,8168
63791916,3965,0,-0.15253544,0.3200417,-10.081134,-0.014067307,-0.015652437,-0.03702338,57.63712,156.9064,0.0047884034,1442826,-1061,359,733,8172
63896694,4776,0,-0.59893084,0.21711607,-10.177406,-0.0050193756,-0.0013119137,-0.06745579,57.612186,156.9064,0.0047884034,1442826,-94,-656,2129,8163
63997503,4009,0,0.16005975,-0.14929928,-10.300561,-0.011839761,0.001378498,-0.03318769,57.64266,156.9064,0.0047884034,1442826,-353,-364,1193,8174
64097494,3983,0,0.38316533,-0.5203853,-9.914074,-0.0073513854,-0.016065113,-0.039612748,57.63435,156.9064,0.0047884034,1442826,661,1204,2049,8171
64201494,4001,0,-0.14045328,0.75545204,-10.203525,0.0025734766,0.0058552567,-0.042361923,57.645428,156.9064,0.0047884034,1442826,368,-1353,1778,8175
64301504,4010,0,0.60429966,0.21775094,-10.030796,-0.0011037608,-0.00577853,-0.052956168,57.65651,156.9064,0.0047884034,1442826,-128,-427,2190,8179
64401494,4001,0,1.2466706,0.47000757,-9.941198,-0.011890518,-0.009311538,-0.058491327,57.65651,156.9064,0.0047884034,1442826,687,928,3320,8179
64505494,3994,0,0.19362016,-0.017020393,-10.407018,-0.005039905,0.0018034964,-0.06107998,57.67867,156.9064,0.0047884034,1442826,210,401,2327,8187
64605521,4001,0,0.34246054,-0.32720536,-9.145938,0.009084569,-0.0023134123,-0.041817315,57.68421,156.9064,0.0047884034,1442826,-239,855,3367,8189
64705514,3995,0,-0.2208612,0.23045239,-9.587395,-0.0034030448,0.00647931,-0.023018409,57.739613,156.9064,0.0047884034,1442826,-954,-1218,2183,8209
64809520,3967,0,0.2323597,0.40808085,-9.916941,0.004381884,0.002604572,-0.02114024,57.69806,156.9064,0.0047884034,1442826,-777,-672,2633,8194
64909514,4000,0,0.4739745,0.13305207,-9.545537,-0.007837228,-0.00010043522,-0.044881355,57.70914,156.9064,0.0047884034,1442826,917,1116,3539,8198
65009493,4000,0,-0.14119452,-0.98041433,-9.23686,0.009987804,0.0013751014,-0.03381419,57.72853,156.9064,0.0047884034,1442826,-792,-450,1668,8205
65113470,3996,0,0.14117451,-0.12271472,-9.166796,0.0055034254,0.0037397658,-0.03183737,57.69252,156.9064,0.0047884034,1442826,-1324,-740,1829,8192
65215094,4000,0,-0.006972311,0.23316644,-8.639882,-0.01843749,-0.00568573,-0.042141184,57.70914,156.9064,0.0047884034,1442826,-718,630,2868,8198
65315101,4007,0,-0.119810954,1.0008365,-9.022687,0.004091949,-0.006424938,-0.03624607,57.70914,156.9064,0.0047884034,1442826,743,269,1713,8198
65419094,3999,0,0.9733027,0.34629276,-10.074935,0.0013055988,-0.012884596,-0.044498723,57.70083,156.9064,0.0047884034,1442826,1657,1029,1551,8195
65519123,4009,0,0.028311715,-0.4695214,-10.277108,-0.00034088548,-0.012673783,-0.0389878,57.778393,156.9064,0.0047884034,1442826,-335,-726,1648,8223
65619158,4044,0,-0.2250073,-0.2985589,-9.989607,-0.00023379817,-0.0015861219,-0.0321958,57.76454,156.9064,0.0047884034,1442826,-41,-415,1526,8218
65723118,4004,0,0.34677362,1.2604715,-9.2885475,0.011896648,0.008884704,-0.02317379,57.80332,156.9064,0.0047884034,1442826,1606,61,920,8232
65823114,3994,0,0.66592175,1.0746461,-9.283082,0.0028662668,-0.0055937674,-0.044595376,57.792244,156.9064,0.0047884034,1442826,1320,23,267,8228
65923149,4021,0,0.75174445,0.04139334,-9.059855,0.004199109,-0.02670593,-0.02993963,57.778393,156.9064,0.0047884034,1442826,-75,526,3084,8223
66023077,4007,0,0.47949696,-0.10287424,-9.727404,-0.00028986472,0.009177289,-0.04432924,57.797783,156.9064,0.0047884034,1442826,424,-556,1546,8230
66127070,3963,0,-0.17229512,0.05697418,-9.370287,1.13007845e-05,-0.004894796,-0.024624787,57.78393,156.9064,0.0047884034,1442826,16,506,1558,8225
66227113,4043,0,0.044467796,0.38927165,-9.787091,-0.0021252115,0.006993038,-0.050371796,57.789474,156.9064,0.0047884034,1442826,-224,-225,2344,8227
66331085,3968,0,0.7128921,0.30134377,-9.445215,0.011307224,-0.010759072,-0.02736003,57.808865,156.9064,0.0047884034,1442826,935,-153,1921,8234
66435125,4031,0,-0.49908718,-0.43108007,-10.120645,-0.00600036,0.0010989616,-0.038847554,57.864265,156.9064,0.0047884034,1442826,-949,-606,2099,8254
66536713,4844,0,0.20933817,0.7149396,-9.793854,0.0027387964,0.0068198917,-0.049944997,57.819942,156.9064,0.0047884034,1442826,-543,-270,2317,8238
66636750,4030,0,0.085073635,1.1229131,-9.473091,0.00936297,0.015936874,-0.04463979,57.795013,156.9064,0.0047884034,1442826,183,-432,2264,8229
66740700,3980,0,0.5941153,0.1425937,-10.279987,0.00552507,-0.013585774,-0.047761913,57.833794,156.9064,0.0047884034,1442826,13,717,1798,8243
66840670,4000,0,0.11963661,-0.7348795,-10.604349,-0.008362152,-0.008679891,-0.04773854,57.850414,156.9064,0.0047884034,1442826,-54,339,1116,8249
66944670,4000,0,0.045736603,0.15994577,-9.98621,0.0008041122,0.013596446,-0.03747237,57.822716,156.9064,0.0047884034,1442826,-53,97,2349,8239
67044671,4001,0,0.3606587,1.1234055,-9.74026,0.0021890095,0.009472141,-0.031051036,57.839336,156.9064,0.0047884034,1442826,-679,-267,2920,8245
67144676,3967,0,0.09600949,1.3288134,-9.769727,0.005104223,0.009744617,-0.038581416,57.883656,156.9064,0.0047884034,1442826,-691,203,2605,8261
67248780,4110,0,0.2799113,-0.036718965,-10.101858,0.0004803455,-0.0047696712,-0.044404585,57.858727,156.9064,0.0047884034,1442826,1525,-62,1267,8252
67348694,4001,0,0.041426808,-0.3231775,-10.175271,-0.00079376536,0.004614389,-0.03438856,57.875347,156.9064,0.0047884034,1442826,732,372,3566,8258
67448694,4001,0,0.27578586,0.13823512,-10.088907,0.0057041384,0.018363986,-0.030952197,57.900276,156.9064,0.0047884034,1442826,-182,262,2450,8267
67552714,4021,0,0.4433681,1.2232009,-9.418692,-0.001100714,-0.008731758,-0.038994495,57.889194,156.9064,0.0047884034,1442826,171,830,3312,8263
67652700,4007,0,0.6325934,1.0078763,-9.321761,0.006594255,-0.012584705,-0.033065427,57.900276,156.9064,0.0047884034,1442826,962,228,2850,8267
67756694,3959,0,0.38975438,-1.0907555,-10.24237,-0.003358379,-0.0077213123,-0.046639178,57.897507,156.9064,0.0047884034,1442826,-652,123,1931,8266
67854269,3999,0,-0.07175882,-0.2322596,-9.641692,0.005938602,0.007953747,-0.033140488,57.891968,156.9064,0.0047884034,1442826,848,-681,1113,8264
67958291,3984,0,0.29159752,0.453199,-9.133192,0.0062056803,-0.0007280761,-0.043748274,57.925205,156.9064,0.0047884034,1442826,-252,62,3327,8276
68058274,4004,0,-0.05079109,1.0550171,-9.128064,-0.0053607756,-0.00038229895,-0.03892872,57.891968,156.9064,0.0047884034,1442826,-1003,-619,3109,8264
68162340,4007,0,0.42610347,0.30705768,-9.854917,-0.0018059625,-0.0047795326,-0.04301645,57.92798,156.9064,0.0047884034,1442826,10,-411,1667,8277
68262294,3954,0,0.3919428,-0.684668,-10.209441,0.0004858207,-0.0035777444,-0.036163215,57.9446,156.9064,0.0047884034,1442826,387,346,1357,8283
68362293,4000,0,-0.1169986,-0.90077806,-9.835369,-0.005811053,0.006640958,-0.04069443,57.939056,156.9064,0.0047884034,1442826,95,229,3714,8281
68466320,4020,0,-0.31299317,0.6139756,-9.383917,-0.0009851939,0.0051387204,-0.034575902,57.98338,156.9064,0.0047884034,1442826,-1127,-506,1144,8297
68566293,3989,0,-0.071156316,1.5906283,-9.901775,-0.0062925746,0.012673955,-0.047414638,57.941826,156.9064,0.0047884034,1442826,-952,-601,1036,8282
68670300,3968,0,0.24509601,1.139451,-9.48921,-0.00186101,-0.0010228525,-0.04657308,57.941826,156.9064,0.0047884034,1442826,388,154,1819,8282
68770294,4000,0,0.3832081,0.3662777,-10.504004,0.005948902,-0.004447434,-0.036472328,57.98061,156.9064,0.0047884034,1442826,463,-152,1851,8296
68870320,4020,0,0.48174992,-1.0694226,-10.234195,-0.00019741699,-0.011714406,-0.051997855,57.96676,156.9064,0.0047884034,1442826,398,203,1527,8291
68974302,4009,0,-0.26691598,-0.22614993,-10.051986,0.0017078924,0.007480195,-0.049743142,57.98061,156.9064,0.0047884034,1442826,658,-518,1443,8296
69074300,4006,0,0.07175111,0.5525503,-9.297127,0.0044626584,0.005651222,-0.022260666,58.00831,156.9064,0.0047884034,1442826,-165,486,2940,8306
69175894,3994,0,0.058109015,1.642135,-9.654753,-0.0055898293,0.017925201,-0.027710004,58.011078,156.9064,0.0047884034,1442826,307,-257,732,8307
69275893,4000,0,0.23298004,1.9855804,-9.485795,0.011168842,-0.0067643365,-0.03287249,58.00554,156.9064,0.0047884034,1442826,3,-331,1988,8305
69379941,4048,0,0.4255597,0.08446605,-9.99351,0.00086143106,-0.006714276,-0.034461528,58.01385,156.9064,0.0047884034,1442826,997,-343,2357,8308
69479894,3969,0,0.24609229,-1.1106014,-10.411173,0.004497802,-0.01226458,-0.040839374,58.01662,156.9064,0.0047884034,1442826,668,126,2474,8309
69583967,4074,0,-0.051248014,-1.0531199,-10.46559,0.0035250573,0.0037049283,-0.04782237,58.011078,156.9064,0.0047884034,1442826,-1329,-19,2502,8307
69687938,4045,0,0.03812738,1.2664411,-9.838013,-0.0018029681,0.008464537,-0.040973052,58.05263,156.9064,0.0047884034,1442826,-625,98,915,8322
69787895,4001,0,0.23450765,1.697238,-9.19229,0.0015890223,0.0120138265,-0.0465053,58.0554,156.9064,0.0047884034,1442826,-181,-283,2219,8323
69891894,3994,0,0.18503068,0.123481736,-9.788535,-0.0019699233,0.0012172228,-0.043341745,58.0554,156.9064,0.0047884034,1442826,304,117,2681,8323
69991895,3969,0,0.455303,-0.4357716,-9.946827,0.00333731,-0.004574745,-0.032699894,58.0554,156.9064,0.0047884034,1442826,-244,198,2476,8323
70091893,3974,0,0.30220407,-0.89690727,-9.386602,-0.006713107,0.0042354614,-0.04355543,58.07756,156.9064,0.0047884034,1442826,-4,477,2779,8331
70195918,4020,0,-0.10927402,0.49577636,-9.466324,-0.0015185929,0.00038714334,-0.030041302,58.083103,156.9064,0.0047884034,1442826,-841,-69,1732,8333
70295900,4006,0,0.42115906,1.5250263,-9.827957,0.0069454545,0.0035250331,-0.037861913,58.07202,156.9064,0.0047884034,1442826,-419,-395,2232,8329
70395914,4000,0,0.3857645,0.8289404,-9.089261,0.005212553,-0.0047517954,-0.031830426,58.088642,156.9064,0.0047884034,1442826,152,466,2620,8335
70497500,4006,0,0.29549566,-0.39304692,-9.941078,1.0714983e-05,-0.004511121,-0.038115527,58.09418,156.9064,0.0047884034,1442826,781,205,2634,8337
70601526,4033,0,-0.13966934,-1.4544803,-10.389047,-0.0047171256,0.008241394,-0.03841437,58.119114,156.9064,0.0047884034,1442826,-601,-505,1355,8346
70701494,4000,0,0.04321044,-0.03115928,-10.1500845,0.008510973,0.006133898,-0.034333557,58.09141,156.9064,0.0047884034,1442826,-13,-248,1095,8336
70801537,3995,0,0.2804499,1.0402548,-9.253002,-0.0025053807,0.0040609143,-0.04282433,58.1108,156.9064,0.0047884034,1442826,45,172,1507,8343
70905540,4046,0,0.24129423,1.2388912,-9.742606,0.0048481934,0.002910712,-0.042278763,58.102493,156.9064,0.0047884034,1442826,364,1,1967,8340
71005494,3988,0,0.18096095,0.33651885,-9.973365,0.006498922,0.0019110022,-0.043499798,58.119114,156.9064,0.0047884034,1442826,1117,-212,1927,8346
71109500,4000,0,0.2604971,-1.0855561,-10.29002,6.759603e-05,-0.0031368616,-0.03541117,58.144043,156.9064,0.0047884034,1442826,-540,273,1238,8355
71209494,3977,0,-0.03578861,-0.59727263,-9.900448,-0.0011258784,0.0029258647,-0.033835925,58.149586,156.9064,0.0047884034,1442826,-1034,333,2735,8357
71309514,4000,0,0.016553972,0.8810348,-9.739348,-0.0034545315,0.008980827,-0.033329517,58.166203,156.9064,0.0047884034,1442826,-888,263,2319,8363
71413521,4007,0,0.19845462,1.692056,-9.505926,0.008655515,0.0015922916,-0.041334286,58.163433,156.9064,0.0047884034,1442826,586,-497,1392,8362
71513521,4007,0,0.21479294,0.52066207,-10.335368,0.0024284134,-0.007468505,-0.03911614,58.166203,156.9064,0.0047884034,1442826,641,-522,1182,8363
71613514,3968,0,0.22183894,-0.80336213,-10.490588,0.0051038433,-0.008472383,-0.03472397,58.174515,156.9064,0.0047884034,1442826,886,-231,930,8366
72639137,4036,0,0.10538928,-1.0421569,-9.499563,-0.000992394,0.007515479,-0.033080082,58.199444,156.9064,0.0047884034,1442826,-160,531,4181,8375
72743070,4000,0,0.15959845,0.51475495,-9.790869,0.009370586,0.003696372,-0.03851375,58.235455,156.9064,0.0047884034,1442826,-316,-136,2321,8388
72843111,4041,0,0.20178117,1.2403034,-9.199358,-0.0032038968,0.00697365,-0.028286261,58.221607,156.9064,0.0047884034,1442826,-48,-53,2402,8383
72947112,4042,0,0.29045376,0.34822646,-9.639275,0.0031919896,-0.0036514322,-0.03228595,58.25485,156.9064,0.0047884034,1442826,675,547,2754,8395
73048701,3970,0,0.061263874,-0.7974708,-10.471318,-0.0035481548,0.0016618273,-0.043106366,58.277008,156.9064,0.0047884034,1442826,-792,-881,145,8403
73148762,4042,0,0.12394883,-0.27129757,-9.512937,0.012339022,-4.1444735e-05,-0.026196707,58.257618,156.9064,0.0047884034,1442826,125,8,3285,8396
73248714,3958,0,0.074399404,0.53667164,-9.558326,-0.0030689235,0.009718632,-0.031356722,58.257618,156.9064,0.0047884034,1442826,-268,604,2265,8396
73352729,4015,0,0.6351052,0.6882549,-9.851284,-0.0019798577,0.00062573946,-0.035811506,58.27424,156.9064,0.0047884034,1442826,660,452,1906,8402
73452753,4039,0,-0.020042794,-0.3998401,-9.90204,0.0029482516,-0.0056968187,-0.04662446,58.29363,156.9064,0.0047884034,1442826,-25,-569,1650,8409
73552717,3966,0,0.36026606,-1.5139043,-10.529674,-0.0043271836,-0.010338767,-0.041230656,58.301937,156.9064,0.0047884034,1442826,-868,15,1459,8412
73656670,3989,0,0.23706602,-0.33232918,-10.175065,-0.003195982,-0.0054459865,-0.038680535,58.28809,156.9064,0.0047884034,1442826,-1712,502,1489,8407
73756700,4030,0,-0.109776035,1.5514103,-9.673997,-0.0016704223,0.012788204,-0.03899363,58.32687,156.9064,0.0047884034,1442826,-310,279,2642,8421
73860670,3976,0,0.33817407,1.0109607,-9.477045,0.00286147,-0.0129308775,-0.025618438,58.31579,156.9064,0.0047884034,1442826,250,-1,2552,8417
73960670,4000,0,0.41611192,0.07211908,-9.475211,-0.000985838,-0.012257031,-0.028450351,58.32687,156.9064,0.0047884034,1442826,248,-19,2317,8421
74060693,3999,0,0.4467052,-0.5383736,-9.304698,-0.0056581376,-0.0043051913,-0.03644769,58.32964,156.9064,0.0047884034,1442826,811,381,3434,8422
74164693,4000,0,0.064616024,-0.6892585,-9.957634,0.005958581,-0.0013343825,-0.028403174,58.318558,156.9064,0.0047884034,1442826,563,19,2138,8418
74264694,3964,0,0.10681095,0.30272853,-10.0769615,0.008847122,0.005823852,-0.02557516,58.321327,156.9064,0.0047884034,1442826,248,-287,1389,8419
74365469,3969,0,-0.26786873,1.1860125,-9.910463,0.009778206,0.008167793,-0.013198329,58.35457,156.9064,0.0047884034,1442826,555,-518,189,8431
74466295,3926,0,0.41032308,1.4285747,-9.531086,0.009594469,-0.002015782,-0.01913756,58.36842,156.9064,0.0047884034,1442826,864,-359,1723,8436
74570276,3991,0,0.4482422,-0.34571403,-10.011543,0.0044684256,-0.0063193697,-0.054142278,58.36011,156.9064,0.0047884034,1442826,260,-16,1584,8433
74670269,3999,0,0.16000184,-1.3050951,-10.25029,0.0049241893,-0.0128934635,-0.044307698,58.3241,156.9064,0.0047884034,1442826,-8,-127,2655,8420
74774270,4000,0,-0.41462788,-0.5924481,-10.042442,0.00092777633,0.0015246107,-0.031044051,58.373962,156.9064,0.0047884034,1442826,102,-536,988,8438
74874270,4000,0,0.11694302,1.130657,-9.540691,0.009365444,0.0109224785,-0.03420121,58.37119,156.9064,0.0047884034,1442826,-308,124,2845,8437
74974300,4030,0,0.12829919,1.497825,-9.394866,0.005117404,0.011186895,-0.04784394,58.38781,156.9064,0.0047884034,1442826,-218,20,2668,8443
75078293,3993,0,0.38447723,0.5530438,-9.961113,0.007087704,-0.0019007277,-0.03406643,58.37673,156.9064,0.0047884034,1442826,925,-84,2164,8439
75178331,4038,0,0.1686361,-0.6639585,-10.188491,0.00029982615,-0.006429225,-0.033282004,58.415512,156.9064,0.0047884034,1442826,282,-401,1894,8453
75282298,3972,0,-0.06147527,-0.46199703,-10.24538,0.004183106,-0.00069928094,-0.035622235,58.426594,156.9064,0.0047884034,1442826,-9,-209,1724,8457
75382294,3953,0,-0.7699362,0.9479322,-10.337527,0.0020076837,0.009088889,-0.038760312,58.40166,156.9064,0.0047884034,1442826,-30,-957,133,8448
75482294,3962,0,0.0133147165,1.5584879,-10.17775,0.0067093177,0.010531222,-0.03800051,58.38227,156.9064,0.0047884034,1442826,-6,-386,1009,8441
75583094,3980,0,-0.26519853,1.6227156,-9.907726,0.0030306075,0.0040336987,-0.04107844,58.415512,156.9064,0.0047884034,1442826,-208,-322,1830,8453
75683870,4000,0,-0.057990376,0.7074675,-9.909284,0.003050182,-0.0042137033,-0.045865543,58.412743,156.9064,0.0047884034,1442826,418,-7,2314,8452
75787984,4114,0,0.108924784,-1.1329584,-9.990943,0.0057291975,-0.0129267275,-0.03654197,58.465374,156.9064,0.0047884034,1442826,745,-164,2617,8471
75887870,3962,0,-0.3023352,-0.58745164,-10.179239,0.0079279,-0.00028779532,-0.028941255,58.42105,156.9064,0.0047884034,1442826,606,-627,848,8455
75991893,3995,0,-0.16865668,1.3907578,-9.638489,-0.0043849023,0.0070167403,-0.049641196,58.454292,156.9064,0.0047884034,1442826,-984,271,1832,8467
76091912,4012,0,-0.01116941,1.565323,-9.383131,-0.0077460264,0.0021265736,-0.047278423,58.451523,156.9064,0.0047884034,1442826,-561,513,2503,8466
76195900,3986,0,0.098709755,-0.011270273,-9.967994,0.0025956961,-0.008287805,-0.04386279,58.454292,156.9064,0.0047884034,1442826,498,-656,1897,8467
76295893,3992,0,0.22945465,-0.8877092,-10.201989,-0.0028524185,-0.0018210106,-0.049375303,58.493073,156.9064,0.0047884034,1442826,-194,-181,1808,8481
76395907,4013,0,-0.22991969,-0.6753086,-9.909517,-0.0012163536,0.0040678727,-0.043328755,58.454292,156.9064,0.0047884034,1442826,-724,-65,3084,8467
76499894,3994,0,-0.2293166,1.3006105,-9.827924,0.0052991626,0.004204354,-0.037233233,58.473682,156.9064,0.0047884034,1442826,-475,-153,819,8474
76599894,3956,0,0.080828264,1.7113669,-9.583984,0.006916507,0.004364025,-0.030666005,58.45706,156.9064,0.0047884034,1442826,160,-360,1718,8468
76699893,3999,0,-0.06369911,1.3883747,-10.142013,0.004122522,0.0026057714,-0.049239337,58.473682,156.9064,0.0047884034,1442826,592,-329,1537,8474
76803939,4045,0,0.39845634,-0.7022092,-9.94094,0.0055738576,-0.011776684,-0.021720463,58.526314,156.9064,0.0047884034,1442826,120,631,3408,8493
76905551,4049,0,0.18555243,-1.1718023,-9.82867,-0.0037152446,-0.0058084037,-0.03507245,58.506924,156.9064,0.0047884034,1442826,-654,-63,1256,8486
77005510,4017,0,-0.020150296,-0.37969694,-9.82428,-0.002539867,0.0022288742,-0.029003857,58.523544,156.9064,0.0047884034,1442826,-376,-482,-198,8492
77105493,3993,0,-0.1322156,0.6781936,-9.418106,-0.008571857,0.0049109114,-0.035144567,58.540165,156.9064,0.0047884034,1442826,-766,83,1844,8498
77209521,4022,0,-0.113817275,1.3204876,-9.952404,0.003924098,-0.006260741,-0.030254738,58.520775,156.9064,0.0047884034,1442826,1611,-337,1464,8491
77309505,4011,0,0.32833123,0.46432662,-10.2315855,-0.00043346698,-0.011399265,-0.025652556,58.540165,156.9064,0.0047884034,1442826,581,523,2374,8498
77413496,4003,0,-0.18656558,-0.5948768,-10.700386,-0.000115398725,-0.0011940883,-0.055883355,58.515236,156.9064,0.0047884034,1442826,-678,-117,738,8489
77513532,4038,0,0.045184027,0.19089544,-9.870514,0.0021047755,0.007076509,-0.03751678,58.526314,156.9064,0.0047884034,1442826,533,-37,2592,8493
77617498,3948,0,0.03817841,1.2626753,-9.024121,0.0012171248,0.0010498564,-0.039961457,58.548477,156.9064,0.0047884034,1442826,-558,-164,4391,8501
77717494,4000,0,0.39696178,1.2988781,-10.153177,0.00071680226,-0.011938554,-0.04385822,58.559555,156.9064,0.0047884034,1442826,-485,114,2110,8505
77817494,3958,0,0.618358,0.24373993,-9.469904,0.00088397134,0.006228988,-0.038153358,58.542934,156.9064,0.0047884034,1442826,1383,381,2863,8499
77921492,3998,0,0.043194678,-1.5004512,-9.980736,0.00013126893,-0.0009918713,-0.039472215,58.556786,156.9064,0.0047884034,1442826,-448,-303,647,8504
78021494,3959,0,-0.12936713,-1.0441713,-9.856381,-0.0035261908,0.014195251,-0.026198123,58.576176,156.9064,0.0047884034,1442826,288,-69,2883,8511
78123120,4010,0,0.22416455,0.19853684,-10.076019,0.002192364,-0.0014183964,-0.04567716,58.578945,156.9064,0.0047884034,1442826,-818,213,1965,8512
78223100,3981,0,0.21019691,1.0851631,-9.404287,0.0006103893,0.013936557,-0.025269512,58.58172,156.9064,0.0047884034,1442826,-479,325,1272,8513
78327094,3946,0,0.24090469,0.65008646,-9.271548,0.008480668,-0.0037113845,-0.034706797,58.576176,156.9064,0.0047884034,1442826,2,-277,2152,8511
78427140,4034,0,0.533341,-0.29241535,-9.746723,-0.008859526,-0.0041877436,-0.03892033,58.59834,156.9064,0.0047884034,1442826,433,824,1835,8519
78527097,4003,0,-0.2840929,-0.7752413,-9.742228,-0.007128737,0.010144522,-0.053990975,58.590027,156.9064,0.0047884034,1442826,-660,-459,1468,8516
78631143,4037,0,0.11467685,0.38338825,-9.429615,0.004994193,0.0029412366,-0.030335456,58.59834,156.9064,0.0047884034,1442826,-1512,114,1456,8519
78731100,4006,0,0.06496401,1.1415162,-9.648341,-0.0031821323,0.0131357,-0.03963498,58.645428,156.9064,0.0047884034,1442826,565,110,1549,8536
78831094,3964,0,0.27266628,1.8070269,-10.269735,0.00412537,0.0043382584,-0.044235647,58.603878,156.9064,0.0047884034,1442826,545,-249,-48,8521
78935094,3952,0,0.057130452,-0.22761549,-9.929305,-0.0039002923,0.002269973,-0.04175298,58.63712,156.9064,0.0047884034,1442826,1140,53,1451,8533
79035093,4000,0,0.24850613,-0.744359,-10.793123,-0.005899448,0.00038396916,-0.057254095,58.631577,156.9064,0.0047884034,1442826,-461,-268,1296,8531
79135123,4009,0,-0.25734666,-0.39919233,-10.5870285,-0.0036752517,-0.0023256065,-0.050387394,58.63435,156.9064,0.0047884034,1442826,71,-384,1451,8532
79239114,4000,0,0.19117998,0.72646934,-9.814831,-0.0017430896,0.0049054506,-0.042259768,58.65374,156.9064,0.0047884034,1442826,-252,374,442,8539
79339114,3989,0,-0.041448712,1.179117,-9.10428,-0.0026795529,-0.0011816882,-0.041086495,58.63712,156.9064,0.0047884034,1442826,-935,-45,3169,8533
79444701,4007,0,-0.034241717,0.17875661,-10.270788,0.0031671699,-0.010108182,-0.043230828,58.66205,156.9064,0.0047884034,1442826,1351,-431,1190,8542
79544694,4000,0,0.41144177,-0.7496898,-9.89003,0.0045405445,-0.00711751,-0.051380772,58.65928,156.9064,0.0047884034,1442826,1207,232,3247,8541
79644697,3997,0,-0.5014756,-1.0175955,-9.662499,-0.003566645,-0.0047797486,-0.034973767,58.7036,156.9064,0.0047884034,1442826,-211,-174,3489,8557
79744736,4042,0,-0.5135254,0.064218454,-9.929712,0.0022595518,0.009626353,-0.049470577,58.65928,156.9064,0.0047884034,1442826,-600,-77,2398,8541
79848738,4044,0,0.13270338,1.4584115,-9.242541,0.0046808687,0.006296479,-0.014607279,58.65097,156.9064,0.0047884034,1442826,367,430,2212,8538
79948693,3993,0,0.28482893,0.953116,-9.159962,-0.0008743057,0.0025237727,-0.034617733,58.6759,156.9064,0.0047884034,1442826,726,-60,1907,8547
80048717,4003,0,0.86665225,0.08685393,-9.264671,0.012229079,-0.009489758,-0.011956513,58.7036,156.9064,0.0047884034,1442826,832,563,3831,8557
80152714,3976,0,-0.0885895,-0.8373908,-9.406669,-0.0055122375,0.008370213,-0.04351399,58.71191,156.9064,0.0047884034,1442826,547,1131,4705,8560
