timestamp,integral_dt,error_count,x,y,z,x_integral,y_integral,z_integral,temperature,range_m_s2,scaling,device_id,x_raw,y_raw,z_raw,temperature_raw
41329509,3989,0,-0.051550623,1.3582361,-9.575035,0.00077301945,0.0010370881,-0.04017581,64.9723,156.9064,0.0047884034,1442826,186,-28,2157,10820
41429514,3954,0,0.71397203,-0.055017345,-9.788755,-0.00080627436,0.0032045199,-0.03999012,64.96122,156.9064,0.0047884034,1442826,-105,62,1818,10816
41533528,4002,0,0.06906393,0.70357937,-9.869153,0.00075041974,0.0016732744,-0.04140229,64.96399,156.9064,0.0047884034,1442826,354,-69,2078,10817
41633514,4000,0,0.26991513,-0.36003748,-9.636866,0.0006919082,0.0035569868,-0.038942304,64.96122,156.9064,0.0047884034,1442826,44,46,1969,10816
41737514,4000,0,0.07684873,-1.0444131,-9.459604,-0.0010825974,-0.0023303106,-0.036487922,64.99723,156.9064,0.0047884034,1442826,81,130,2037,10829
41837521,4001,0,0.3146388,-0.18188405,-9.651669,-0.0005524668,-0.013099041,-0.04168032,64.96953,156.9064,0.0047884034,1442826,445,41,1705,10819
41937540,4026,0,0.2572372,0.25050637,-9.730516,-0.0007846625,-0.010058972,-0.04253447,64.9723,156.9064,0.0047884034,1442826,580,123,2289,10820
42041521,4007,0,-0.088886775,-1.4166129,-10.279554,-0.0017583838,-0.0036455959,-0.039910577,64.9723,156.9064,0.0047884034,1442826,-200,-22,1882,10820
42147095,4002,0,0.06791032,0.78979445,-9.562273,0.0021607394,0.014645575,-0.034976784,64.986145,156.9064,0.0047884034,1442826,-559,-227,1935,10825
42247123,4030,0,0.49592945,1.9098299,-9.243032,0.0023693207,0.005717452,-0.041703984,64.980606,156.9064,0.0047884034,1442826,239,-12,2372,10823
42347103,4009,0,0.42127696,1.3091272,-9.746271,-0.0021323203,-0.0046892473,-0.0400005,64.93629,156.9064,0.0047884034,1442826,888,97,2182,10807
42451093,3968,0,-0.056311645,-0.14417574,-9.775802,0.0027801904,0.006487408,-0.036125164,64.99446,156.9064,0.0047884034,1442826,-604,-256,1880,10828
42555093,3980,0,-0.37290505,-0.11808127,-9.95311,-0.0006267028,0.0073024333,-0.041963764,65.00831,156.9064,0.0047884034,1442826,-88,-322,1819,10833
42655112,3999,0,0.05702331,0.5999432,-9.774866,0.013673904,0.0012528043,-0.035610374,65.00277,156.9064,0.0047884034,1442826,-312,-741,1979,10831
42755109,4015,0,0.32631335,0.28904724,-9.483671,-0.01065809,-0.013594691,-0.041554775,65.0277,156.9064,0.0047884034,1442826,650,644,2405,10840
42859096,4003,0,-0.7528884,0.56576675,-9.621535,0.0021260777,-0.0049922056,-0.04983019,64.99446,156.9064,0.0047884034,1442826,872,-1099,1520,10828
42960714,4014,0,-0.6154417,0.03571345,-9.86934,0.014521618,0.004303365,-0.02777134,64.99169,156.9064,0.0047884034,1442826,-153,-847,2513,10827
43060707,4014,0,0.7044349,0.43325666,-9.855653,-0.0051681213,0.003591442,-0.045503005,65.01662,156.9064,0.0047884034,1442826,-459,665,2111,10836
43164693,3994,0,0.56419295,0.28683963,-9.599439,-0.008809738,0.0068645473,-0.053714085,64.95568,156.9064,0.0047884034,1442826,-36,817,1930,10814
43264694,4001,0,-0.31825382,-0.69025326,-9.23194,-0.025728846,-0.0028253838,-0.038837243,64.980606,156.9064,0.0047884034,1442826,-1229,560,2941,10823
43368716,3976,0,-0.16966133,0.44275168,-10.335647,0.0062426473,0.0005588909,-0.039960973,65.00831,156.9064,0.0047884034,1442826,-29,-651,2178,10833
43468707,4014,0,-0.28390488,0.44068256,-10.095523,0.002627178,-0.0016564626,-0.051864095,65.03324,156.9064,0.0047884034,1442826,89,-253,2544,10842
43568693,3992,0,0.729808,-0.2285821,-9.201828,0.0022124732,0.0033456637,-0.04006194,65.01385,156.9064,0.0047884034,1442826,-65,707,2840,10835
43672694,4001,0,-0.030896043,0.5766048,-10.223995,0.006635701,0.001302765,-0.036765173,65.04432,156.9064,0.0047884034,1442826,-208,58,861,10846
43774319,4045,0,0.76397306,0.85781586,-10.020957,0.012066068,-0.01019104,-0.017162163,65.01939,156.9064,0.0047884034,1442826,-27,38,2671,10837
43874270,4000,0,0.5810183,0.45163736,-10.340876,-0.0046994183,-0.0072448384,-0.04957226,65.00831,156.9064,0.0047884034,1442826,767,582,4032,10833
43978270,4000,0,-0.41888595,-0.44313467,-10.788181,-0.0024064921,-0.0042895703,-0.054176886,65.03601,156.9064,0.0047884034,1442826,214,-783,1736,10843
44082270,3957,0,-0.4053265,0.67370176,-10.243616,0.010128829,0.0072147474,-0.050071895,65.03047,156.9064,0.0047884034,1442826,528,160,4332,10841
44182270,3967,0,-0.15542397,1.0133414,-9.485828,-0.005861547,-0.00030693942,-0.04707317,65.0277,156.9064,0.0047884034,1442826,-547,-699,3693,10840
44282270,3939,0,0.074751325,0.25636423,-10.215414,0.0017165553,-0.0045674695,-0.053231206,65.02216,156.9064,0.0047884034,1442826,407,-197,3639,10838
44386270,3954,0,-0.0757671,-1.2074735,-11.065913,-0.0052541043,-0.0014786696,-0.050927106,65.058174,156.9064,0.0047884034,1442826,112,-28,1416,10851
44486295,4025,0,-0.21259159,-0.86618733,-11.515645,-0.0067475988,0.005414299,-0.042551126,65.00554,156.9064,0.0047884034,1442826,-675,197,2478,10832
44586293,3961,0,-0.39055455,0.37119633,-10.786828,0.0032171218,0.006657949,-0.039414935,65.07202,156.9064,0.0047884034,1442826,141,-235,1353,10856
44691894,3991,0,0.5589854,1.1416909,-10.1042595,0.000604644,-0.007419993,-0.03529443,65.05263,156.9064,0.0047884034,1442826,603,234,2338,10849
44795894,3976,0,0.7535447,-0.7551945,-11.245907,0.0070990976,-0.012281217,-0.03461951,65.0554,156.9064,0.0047884034,1442826,529,469,3124,10850
44895894,3961,0,0.09666257,-1.1546797,-11.189122,-0.0010775297,-0.0030163252,-0.042805485,65.04986,156.9064,0.0047884034,1442826,269,-270,2366,10848
44999933,4033,0,-0.116294056,0.22098364,-9.6163025,-0.006110944,0.00938986,-0.050827123,65.08033,156.9064,0.0047884034,1442826,-423,-43,2591,10859
45099894,4001,0,-0.015526844,1.4589034,-9.575174,0.0003435898,0.00819521,-0.050880075,65.0831,156.9064,0.0047884034,1442826,171,-288,2115,10860
45199894,3994,0,0.23341204,0.9101261,-9.428912,0.0021620353,-0.007753723,-0.029450132,65.03878,156.9064,0.0047884034,1442826,758,196,2333,10844
45303895,4001,0,0.37928435,-0.80982476,-10.301278,0.008055284,-0.004455971,-0.036667913,65.07202,156.9064,0.0047884034,1442826,1161,-266,2269,10856
45403954,4060,0,0.25608888,-1.6354383,-10.253759,-0.010752804,-0.003870168,-0.035699982,65.11357,156.9064,0.0047884034,1442826,-351,603,1808,10871
45505471,4001,0,0.19572164,-0.41978282,-10.131212,0.012601359,0.006485407,-0.040936485,65.07479,156.9064,0.0047884034,1442826,73,-79,2203,10857
45609470,3944,0,-0.22074617,1.5191073,-9.46071,-0.0017921161,0.008033751,-0.03103207,65.07202,156.9064,0.0047884034,1442826,-429,-476,1346,10856
45713514,4037,0,0.19961236,0.26430726,-10.222522,-0.0059572766,-0.007877206,-0.051433064,65.06925,156.9064,0.0047884034,1442826,702,59,2350,10855
45813500,4030,0,0.5364647,-0.74296266,-10.735211,0.0047104503,-0.010829115,-0.04348934,65.06925,156.9064,0.0047884034,1442826,543,103,2833,10855
45913470,4000,0,0.13857137,-1.6883224,-10.964275,-0.005185258,-0.0030097035,-0.042582374,65.07756,156.9064,0.0047884034,1442826,-282,-211,3025,10858
46017470,4000,0,-0.4118462,-0.51159686,-10.473977,-0.0009955119,0.013302553,-0.033876743,65.06925,156.9064,0.0047884034,1442826,-496,-962,1250,10855
46117470,4000,0,-0.6739015,0.8667159,-10.028074,-0.011398129,0.008460547,-0.034942806,65.096954,156.9064,0.0047884034,1442826,-1056,-156,3115,10865
46221470,3957,0,-0.24131957,1.0524057,-9.374825,-0.011647203,0.0031426803,-0.032994222,65.08864,156.9064,0.0047884034,1442826,-183,416,4095,10862
46319129,4015,0,0.500659,-0.2839659,-9.450763,0.0015828714,-0.0054011536,-0.04235416,65.11911,156.9064,0.0047884034,1442826,-235,-181,679,10873
46423152,4039,0,0.12322613,-1.453475,-8.798585,0.0065813586,-0.0012954935,-0.020764705,65.11634,156.9064,0.0047884034,1442826,-42,34,2076,10872
46523114,3988,0,-0.55335814,0.30060664,-8.531287,-0.0046362244,0.011710714,-0.04929632,65.08864,156.9064,0.0047884034,1442826,38,-850,1307,10862
46627114,4000,0,-0.03422976,1.1027285,-8.2127075,0.01224501,0.0005122414,-0.027606454,65.130196,156.9064,0.0047884034,1442826,-142,-543,1736,10877
46727114,4000,0,-0.19892883,0.16960098,-9.071506,-0.0057047075,-0.0062651862,-0.050797343,65.08587,156.9064,0.0047884034,1442826,101,-410,1324,10861
47139114,4000,0,0.15292865,-0.8130859,-9.4999695,0.007990625,-0.004943081,-0.025500283,65.14681,156.9064,0.0047884034,1442826,766,-388,2079,10883
47344703,4009,0,0.11527282,1.446472,-8.896246,0.004788924,0.00685075,-0.019340621,65.15235,156.9064,0.0047884034,1442826,881,-180,1023,10885
47444694,4000,0,-0.07295765,1.1361985,-8.950601,-1.0794844e-05,-0.009087557,-0.044813648,65.138504,156.9064,0.0047884034,1442826,472,-745,1654,10880
47544693,3972,0,0.16176051,0.26683727,-9.505973,0.0049647493,0.0030125752,-0.040851302,65.15235,156.9064,0.0047884034,1442826,1290,150,3353,10885
47648724,3989,0,0.08685579,-1.0806029,-10.005796,-0.0062121246,-0.010626091,-0.03603238,65.14681,156.9064,0.0047884034,1442826,-1113,220,2260,10883
47748694,4000,0,-0.16850251,0.2641428,-9.319843,-0.010464692,0.0027295717,-0.040842596,65.171745,156.9064,0.0047884034,1442826,-752,-178,3182,10892
47852720,4018,0,-0.5466888,1.0285736,-9.977333,0.0008739595,-0.0042962846,-0.04051614,65.14681,156.9064,0.0047884034,1442826,141,-582,2562,10883
47952696,4002,0,0.17128551,0.33079523,-9.788739,-0.0062369267,-0.0010277971,-0.056853957,65.16344,156.9064,0.0047884034,1442826,1074,-7,3425,10889
48053470,4764,0,0.5843207,-0.71178037,-10.515842,-0.01213949,-0.01024003,-0.074014075,65.18282,156.9064,0.0047884034,1442826,-821,-131,1242,10896
48154299,4006,0,0.053338908,-0.62846917,-10.00485,0.004422489,0.0023837425,-0.034078974,65.213295,156.9064,0.0047884034,1442826,335,166,4810,10907
48258293,3994,0,0.011225706,0.96563476,-8.756035,-0.00407457,0.0021880534,-0.02951762,65.213295,156.9064,0.0047884034,1442826,-572,927,4835,10907
48358314,4015,0,0.07168744,1.5722239,-9.49144,-0.005490778,0.0041117845,-0.039099663,65.19391,156.9064,0.0047884034,1442826,-637,215,1882,10900
48458320,4024,0,0.5592325,1.0142875,-9.81361,0.002314354,-0.005574118,-0.0420948,65.213295,156.9064,0.0047884034,1442826,-610,130,1522,10907
48562341,4048,0,0.37439424,-0.7138206,-10.445042,-0.005031407,-0.002213299,-0.036771264,65.20222,156.9064,0.0047884034,1442826,232,-212,2168,10903
48662294,4001,0,0.1170164,-1.0255363,-9.834634,-0.010885467,0.0038611712,-0.046102658,65.20222,156.9064,0.0047884034,1442826,425,605,2688,10903
48762294,4001,0,-0.34280345,0.28473628,-9.3346,0.011012264,0.00030762178,-0.02280868,65.19113,156.9064,0.0047884034,1442826,-262,-765,784,10899
48866293,3981,0,-0.32427192,0.98516184,-8.877724,-0.0015963994,0.004414635,-0.03675943,65.20499,156.9064,0.0047884034,1442826,366,-456,1109,10904
48967900,3994,0,0.40757465,-0.09581644,-10.418191,-0.01275697,-0.011091616,-0.063082695,65.207756,156.9064,0.0047884034,1442826,-93,-115,1261,10905
49067893,3967,0,0.65780693,-0.97840804,-10.48954,0.0002647211,-0.0029396857,-0.033871144,65.2216,156.9064,0.0047884034,1442826,-437,638,2037,10910
49171913,4019,0,-0.23446079,-0.78317887,-10.018899,-0.0030015362,0.011095534,-0.0424525,65.216064,156.9064,0.0047884034,1442826,-1296,457,1904,10908
49271893,3962,0,-0.09241329,1.2269682,-9.955906,0.009439561,0.0159158,-0.028041176,65.24377,156.9064,0.0047884034,1442826,263,-223,536,10918
49371901,4007,0,-0.32143465,1.8756087,-9.72515,0.0023859038,0.008571933,-0.03450685,65.22992,156.9064,0.0047884034,1442826,232,-883,2772,10913
49475923,4029,0,0.24978821,0.2154868,-8.264001,-0.01094688,0.0024605207,-0.040434994,65.241,156.9064,0.0047884034,1442826,1178,1003,3453,10917
49575900,4006,0,0.7157444,-0.053283256,-7.208827,-0.0054746405,0.00056304224,-0.02878264,65.22714,156.9064,0.0047884034,1442826,-939,904,2695,10912
49679894,4000,0,0.9067386,0.08798303,-7.68599,-0.009846558,0.005536523,-0.03090313,65.24654,156.9064,0.0047884034,1442826,368,1163,469,10919
49777511,4006,0,0.29372135,0.27561387,-8.368008,0.016390845,0.0018762369,-0.009320773,65.23546,156.9064,0.0047884034,1442826,1072,88,831,10915
49881505,4012,0,-0.12250562,-0.1537353,-8.898816,-0.010812184,0.00024912652,-0.054319676,65.23546,156.9064,0.0047884034,1442826,364,356,2256,10915
49981504,4011,0,-0.39093938,-0.44079074,-9.470061,0.0071268654,0.0040428517,-0.022508133,65.19945,156.9064,0.0047884034,1442826,1346,-478,2040,10902
50081493,3993,0,-0.19502337,-0.4542422,-9.638288,-0.0034144055,0.016412234,-0.043668978,65.2687,156.9064,0.0047884034,1442826,11,-24,1717,10927
50185493,3944,0,0.15980634,1.1492682,-8.737552,-0.005831739,0.008911278,-0.03589416,65.27701,156.9064,0.0047884034,1442826,-879,772,2895,10930
50285500,4007,0,0.5351273,1.8756764,-9.893666,0.0104274405,0.0069456785,-0.048865747,65.26038,156.9064,0.0047884034,1442826,461,217,776,10924
50389505,4012,0,0.71204215,0.046545804,-10.6582575,0.010773806,-0.011793715,-0.044083737,65.257614,156.9064,0.0047884034,1442826,251,-422,1202,10923
50489494,4001,0,0.07293518,-1.362267,-11.404581,0.0021107309,-0.015019023,-0.05111534,65.30194,156.9064,0.0047884034,1442826,-529,-210,1085,10939
50593493,3999,0,-0.12980473,-0.81469375,-10.702416,0.010753489,0.0009860429,-0.041301787,65.26593,156.9064,0.0047884034,1442826,-518,-167,1047,10926
50695120,4006,0,-0.85545754,0.50510174,-9.772348,-0.0061372495,0.007848584,-0.033308163,65.28255,156.9064,0.0047884034,1442826,-62,-362,2974,10932
50799114,4000,0,-0.2496896,2.075242,-10.009556,0.0043399506,-0.0012480377,-0.042708047,65.27147,156.9064,0.0047884034,1442826,-117,-1000,3069,10928
50899114,3973,0,0.28199005,1.2417059,-10.469477,-0.008464961,-0.003908503,-0.057507996,65.290855,156.9064,0.0047884034,1442826,563,173,721,10935
50999117,3997,0,1.4229584,-0.2611843,-10.624803,0.003316355,-0.012926119,-0.034591414,65.31025,156.9064,0.0047884034,1442826,765,669,1985,10942
51103159,4007,0,-0.18934898,-2.19695,-11.027188,-0.010768545,-0.0074304016,-0.037789464,65.27424,156.9064,0.0047884034,1442826,-1266,25,1817,10929
51203160,4046,0,0.06985071,-0.79536474,-11.102556,0.0084200995,0.0050942567,-0.036228884,65.29917,156.9064,0.0047884034,1442826,-374,179,113,10938
51303114,4000,0,-0.71948236,0.65587616,-10.259491,0.005457701,0.011671747,-0.04408574,65.27701,156.9064,0.0047884034,1442826,273,-502,2611,10930
51407114,4000,0,-0.052785154,1.6828656,-10.177538,0.010142045,-0.0011391696,-0.047174614,65.29917,156.9064,0.0047884034,1442826,-163,-651,1075,10938
51508713,4043,0,-0.0028150314,0.36454418,-10.016395,-0.0064932513,-0.0064936224,-0.04562661,65.31579,156.9064,0.0047884034,1442826,502,-564,2314,10944
51612670,3989,0,-0.102586485,-1.5069317,-10.346884,-0.012893954,-0.005407472,-0.051402997,65.326866,156.9064,0.0047884034,1442826,-53,-142,2045,10948
51716670,3988,0,-0.38125646,0.47652066,-8.718053,-0.0096945865,0.02311252,-0.02976317,65.30748,156.9064,0.0047884034,1442826,970,655,2524,10941
51816681,4005,0,-0.15186673,1.4695115,-9.106771,0.009321068,0.0023331875,-0.029513687,65.32133,156.9064,0.0047884034,1442826,1165,395,1848,10946
51916670,3991,0,-0.15589134,0.882703,-8.942883,-0.014588283,-0.0059271455,-0.05030577,65.329636,156.9064,0.0047884034,1442826,202,18,2586,10949
52020720,4050,0,0.8705732,-0.830833,-9.714193,0.0023530195,-0.007996147,-0.034922004,65.30471,156.9064,0.0047884034,1442826,8,1154,2215,10940
52120671,3995,0,-0.46556786,-1.3691784,-10.435477,0.000738883,-0.0021653133,-0.0406272,65.329636,156.9064,0.0047884034,1442826,-285,-424,945,10949
52220696,4022,0,-0.28352436,-0.7366606,-9.304537,-0.007433012,0.009304981,-0.0349514,65.34349,156.9064,0.0047884034,1442826,-635,611,2535,10954
52322293,3998,0,0.22112076,0.94274616,-8.626016,0.004275105,-0.004594079,-0.02300418,65.33518,156.9064,0.0047884034,1442826,-222,585,4600,10951
52426331,4007,0,0.47659343,1.3446519,-9.180794,0.0015957309,-0.010774011,-0.04394318,65.34903,156.9064,0.0047884034,1442826,447,542,3643,10956
52526294,3994,0,0.22761312,0.12619802,-10.51977,0.0052926037,-0.013457074,-0.04317139,65.32133,156.9064,0.0047884034,1442826,350,-595,535,10946
52626294,4000,0,0.42526096,-0.90743214,-9.696219,-0.0089558195,-0.003794434,-0.033898793,65.34903,156.9064,0.0047884034,1442826,1665,683,5193,10956
52730299,4006,0,-0.36866832,-0.9506174,-9.7697525,-0.0074374615,0.0048657106,-0.038390446,65.36288,156.9064,0.0047884034,1442826,-1180,320,1172,10961
52830293,3957,0,-0.06945386,0.41942245,-8.914517,0.0043982817,0.0041008242,-0.037181586,65.36011,156.9064,0.0047884034,1442826,-934,-52,2064,10960
52934334,3999,0,-0.03541994,1.1485224,-9.519527,0.008938305,-0.003746925,-0.03762814,65.33795,156.9064,0.0047884034,1442826,-160,-1075,6,10952
53034341,4048,0,0.17217755,0.14308251,-9.961373,-0.0018659614,-0.0069827186,-0.035900436,65.3518,156.9064,0.0047884034,1442826,373,-324,1620,10957
53134293,4000,0,0.42538378,-1.1055877,-9.915792,-0.0005368485,-0.010176178,-0.047679253,65.37119,156.9064,0.0047884034,1442826,-6,-111,2283,10964
53235940,4070,0,-0.08691178,-1.9096619,-10.390767,0.0022596866,-0.008725667,-0.038783487,65.35734,156.9064,0.0047884034,1442826,-1326,-226,1003,10959
53339890,4020,0,0.17823243,0.6106563,-9.195183,0.0023347875,0.00035628158,-0.04135034,65.37396,156.9064,0.0047884034,1442826,-641,391,3792,10965
53439870,4000,0,-0.056328963,1.5753666,-9.419403,0.013020614,0.0145623535,-0.030537017,65.38504,156.9064,0.0047884034,1442826,453,-113,1039,10969
53543870,4000,0,0.1623573,0.7530258,-9.933348,0.012045975,-0.0020256424,-0.014369568,65.36565,156.9064,0.0047884034,1442826,2111,151,3200,10962
53643871,3962,0,0.26945487,-0.69607043,-10.424704,0.008400559,-0.0058259834,-0.04124734,65.34626,156.9064,0.0047884034,1442826,271,-321,2109,10955
54867120,4006,0,-0.593229,-0.707628,-10.2580385,-0.0020913447,0.004636403,-0.049726408,65.41551,156.9064,0.0047884034,1442826,-1422,-532,1832,10980
54971114,4000,0,-0.029776514,1.4101224,-9.61271,0.0022509035,0.008098147,-0.047998965,65.40997,156.9064,0.0047884034,1442826,-53,-385,637,10978
55075114,4000,0,0.049826935,0.40963954,-9.8701315,0.013644861,-1.8516323e-05,-0.028453099,65.4626,156.9064,0.0047884034,1442826,1165,-343,3132,10997
55175131,4017,0,0.3258532,-0.9316259,-10.463794,-0.0019387346,-0.018607192,-0.047150295,65.484764,156.9064,0.0047884034,1442826,129,93,2651,11005
55279114,3974,0,-0.14768986,-0.59591305,-10.254437,0.0011773052,0.004413852,-0.034598567,65.443214,156.9064,0.0047884034,1442826,474,-279,965,10990
55379120,4006,0,-0.5679109,0.32064882,-9.740463,0.0017371159,0.0140973,-0.031323195,65.445984,156.9064,0.0047884034,1442826,-293,-61,2227,10991
55479114,4000,0,-0.08425567,1.2831422,-8.994887,-0.0042801625,0.004196574,-0.04926645,65.476456,156.9064,0.0047884034,1442826,-670,-433,1626,11002
55583114,4000,0,0.13484956,0.77684075,-9.60174,0.008600263,-0.004285489,-0.04064644,65.479225,156.9064,0.0047884034,1442826,440,-252,2902,11003
55683114,3973,0,0.46586198,-0.8450729,-10.630173,-0.0031721895,-0.012922762,-0.054193333,65.4626,156.9064,0.0047884034,1442826,-219,-510,861,10997
55784693,3976,0,0.08198711,-1.5649238,-9.87975,-0.0027562254,0.0010569422,-0.028231025,65.46537,156.9064,0.0047884034,1442826,581,663,4685,10998
55884708,4015,0,-0.07521157,-1.3067573,-10.114419,-0.0056024324,0.0030303206,-0.044616655,65.484764,156.9064,0.0047884034,1442826,-455,117,1140,11005
55988719,4026,0,-0.3385559,1.3796481,-8.992737,-0.0032337704,0.008509309,-0.04496559,65.49307,156.9064,0.0047884034,1442826,81,-358,3362,11008
56092693,3962,0,0.06532373,0.9848377,-9.743507,0.01806855,-0.0035666702,-0.043649424,65.484764,156.9064,0.0047884034,1442826,785,-82,2912,11005
56192721,4028,0,0.2015111,-0.6034978,-10.661276,-0.0042917496,-0.0141817955,-0.06067002,65.48753,156.9064,0.0047884034,1442826,223,-460,2209,11006
56292693,3999,0,0.41167384,-1.4406457,-10.293986,-0.01088198,-0.0072696554,-0.043561548,65.4903,156.9064,0.0047884034,1442826,-522,-97,2036,11007
56396694,3983,0,-0.60711706,-0.10898961,-9.751678,-0.0005280059,0.014447324,-0.030567551,65.4626,156.9064,0.0047884034,1442826,-102,-20,3388,10997
56496693,3993,0,0.1954108,1.0113951,-8.94451,-0.0061865365,0.014457315,-0.03776886,65.49307,156.9064,0.0047884034,1442826,-143,649,1605,11008
56598293,3973,0,-0.05831388,1.9226716,-9.085263,0.0026809599,-0.0035877072,-0.039484095,65.49584,156.9064,0.0047884034,1442826,-211,240,3035,11009
56698294,4001,0,0.08029233,1.0249214,-9.944125,-0.0016132868,-0.008832905,-0.053298768,65.51247,156.9064,0.0047884034,1442826,-282,-907,1036,11015
56802293,3998,0,-0.0087095825,-1.221917,-10.522709,-0.0039860588,-0.0040318468,-0.053605422,65.518005,156.9064,0.0047884034,1442826,254,-231,1433,11017
56906293,4000,0,-0.6116021,-0.66998935,-9.264823,-0.0021672668,0.006039522,-0.035914935,65.55125,156.9064,0.0047884034,1442826,-551,155,4187,11029
57006293,3999,0,0.20518827,0.43291444,-9.172919,-0.0051926062,0.010888356,-0.04684924,65.50416,156.9064,0.0047884034,1442826,-541,526,877,11012
57106339,4039,0,-0.18245363,1.7532183,-9.58962,0.0056747617,0.0035182447,-0.040365502,65.523544,156.9064,0.0047884034,1442826,-429,-588,-101,11019
57210299,3989,0,0.008057649,0.3582805,-10.477277,0.0062897685,-0.006080038,-0.049281366,65.53739,156.9064,0.0047884034,1442826,986,-446,812,11024
57310294,4001,0,0.763997,-0.60570836,-9.961646,-0.0018788171,-0.0032880623,-0.029764758,65.53739,156.9064,0.0047884034,1442826,906,1011,3303,11024
57411870,3971,0,0.029800594,-1.3183762,-9.598199,-0.0002948069,0.0021183842,-0.030993741,65.559555,156.9064,0.0047884034,1442826,1044,632,3723,11032
57511870,3977,0,-0.1800955,-0.08632159,-10.08819,0.009631011,0.014835726,-0.0277516,65.54294,156.9064,0.0047884034,1442826,-9,-698,-560,11026
57615938,4068,0,0.033470992,1.7230105,-9.437441,0.011459648,0.009313832,-0.034429036,65.51247,156.9064,0.0047884034,1442826,-93,-466,1512,11015
57715893,3986,0,0.066350155,1.6843427,-10.166363,0.010205496,-0.0036861447,-0.051446885,65.523544,156.9064,0.0047884034,1442826,-533,-1069,1749,11019
57819870,3977,0,0.268819,-0.20220609,-10.918771,0.004903861,-0.01253459,-0.035465017,65.59003,156.9064,0.0047884034,1442826,935,248,3006,11043
57919984,4091,0,0.47324097,-0.9487557,-10.499658,0.0045416076,-0.0010748161,-0.040148783,65.58449,156.9064,0.0047884034,1442826,294,-232,2144,11041
58019893,4000,0,-0.36235315,-0.82827467,-10.452168,-0.0041166283,0.009840497,-0.03837361,65.595566,156.9064,0.0047884034,1442826,94,90,2706,11045
58123893,3993,0,-0.50145185,1.0972334,-9.386381,0.0014758239,0.008639063,-0.04289818,65.523544,156.9064,0.0047884034,1442826,-718,-133,2571,11019
58229537,3983,0,-0.019438265,1.0212544,-10.11023,0.01616985,0.004605395,-0.025652278,65.58449,156.9064,0.0047884034,1442826,805,-609,236,11041
58329502,4008,0,0.43926165,-0.39071876,-10.503505,-0.0037883334,-0.004247521,-0.056448042,65.57063,156.9064,0.0047884034,1442826,729,-122,1582,11036
58433494,4000,0,-0.2643747,-0.81643087,-10.243106,-0.002770233,0.008469571,-0.04682837,65.58172,156.9064,0.0047884034,1442826,-281,-203,2117,11040
58533494,4000,0,-0.33742905,-0.08167218,-9.764533,-0.010778437,0.0113484645,-0.037132327,65.598335,156.9064,0.0047884034,1442826,-152,-128,1759,11046
58633514,4014,0,0.040117655,1.1232901,-9.051706,0.0060697263,0.0046562054,-0.020679448,65.60942,156.9064,0.0047884034,1442826,-907,562,2525,11050
58737500,4006,0,0.6594246,1.3773078,-9.643851,0.0021025217,-0.0026091314,-0.040132254,65.57895,156.9064,0.0047884034,1442826,256,599,3039,11039
58837494,4000,0,0.13100347,0.24828297,-9.974478,0.0045282254,-0.004754748,-0.027487192,65.56786,156.9064,0.0047884034,1442826,897,-401,1727,11035
58937494,3994,0,0.20982864,-1.003261,-10.258388,-0.007297947,-0.010569903,-0.05180081,65.60664,156.9064,0.0047884034,1442826,-372,-495,2835,11049
59039070,4771,0,-0.49394685,-1.2060885,-10.489536,-0.012504961,0.0058831736,-0.052560534,65.61219,156.9064,0.0047884034,1442826,-527,-211,1778,11051
59143070,3952,0,-0.29743278,0.8658284,-9.247733,0.0028308898,0.011078643,-0.050602727,65.62604,156.9064,0.0047884034,1442826,-331,31,3383,11056
59243070,3975,0,-0.23438506,1.7636268,-9.146148,-0.006831804,0.0014243566,-0.038402922,65.64266,156.9064,0.0047884034,1442826,250,210,3087,11062
59343070,3994,0,0.3519385,1.0383085,-9.764731,-0.0017088242,-0.0049410886,-0.046641465,65.62881,156.9064,0.0047884034,1442826,72,-424,-483,11057
59447076,3961,0,0.49921426,-1.1445649,-10.237841,-0.0019266388,-0.0026490646,-0.047665887,65.61773,156.9064,0.0047884034,1442826,785,13,1084,11053
59547070,4000,0,0.13683653,-1.5034746,-10.007086,-0.0010169419,-0.011737264,-0.028981265,65.6205,156.9064,0.0047884034,1442826,-786,489,3798,11054
59647070,3953,0,-0.11888673,-0.060496148,-10.023673,0.009037258,0.012839856,-0.027121745,65.62327,156.9064,0.0047884034,1442826,136,-545,260,11055
59751123,4053,0,0.3519351,2.0537114,-8.91482,0.006041878,0.0096391905,-0.03059354,65.64543,156.9064,0.0047884034,1442826,508,1040,4025,11063
59852730,4016,0,0.35218412,1.4535573,-9.728138,0.012887423,-0.0031601968,-0.027137537,65.65097,156.9064,0.0047884034,1442826,510,250,2572,11065
59952790,4077,0,0.065165736,0.32815722,-10.336103,0.0069816494,-0.007913549,-0.0415997,65.66482,156.9064,0.0047884034,1442826,150,-955,-376,11070
60056761,4042,0,0.41485357,-1.4574163,-10.164882,0.003900138,-0.005991768,-0.01870308,65.66482,156.9064,0.0047884034,1442826,-458,487,1858,11070
60156722,4008,0,0.15580991,-0.8295993,-10.247497,0.0040317695,0.0046051047,-0.028760895,65.6205,156.9064,0.0047884034,1442826,267,234,214,11054
60256714,3990,0,-0.191806,0.81894404,-9.580438,0.00664741,0.018090645,-0.024623863,65.66205,156.9064,0.0047884034,1442826,459,-151,202,11069
60360714,3991,0,0.39582345,1.5463943,-9.12744,0.0063823177,-0.00045700278,-0.027549166,65.65928,156.9064,0.0047884034,1442826,992,1145,4441,11068
60460716,3961,0,0.53795356,0.72992647,-10.010221,0.007515533,-0.013504879,-0.0325102,65.67867,156.9064,0.0047884034,1442826,321,-305,2149,11075
60560770,4056,0,0.3072943,-0.4164265,-10.271049,0.0034537415,-0.004297155,-0.03400688,65.67313,156.9064,0.0047884034,1442826,999,266,2105,11073
60664722,4001,0,0.0092053395,-1.4574006,-10.085098,-0.00905919,0.0019823844,-0.034683682,65.67867,156.9064,0.0047884034,1442826,-957,734,2261,11075
60766333,4033,0,-0.084289126,-0.17251953,-9.260359,-0.0046722773,0.012350916,-0.032817036,65.66482,156.9064,0.0047884034,1442826,-16,730,2439,11070
60870293,3956,0,-0.3658282,1.9734133,-9.484088,0.010418743,-0.004198473,-0.041316494,65.69806,156.9064,0.0047884034,1442826,215,-318,4041,11082
60974300,3996,0,0.2246869,0.35118923,-10.164284,0.0092215445,-0.006924429,-0.036964446,65.69529,156.9064,0.0047884034,1442826,1107,-269,2149,11081
61074301,3997,0,0.2688981,-0.77911085,-10.769185,0.008058951,-0.0059404112,-0.046160936,65.65651,156.9064,0.0047884034,1442826,1090,-142,1208,11067
61174295,3953,0,0.14177683,-1.2566494,-10.647188,-0.000103103346,-0.006606183,-0.05487867,65.68975,156.9064,0.0047884034,1442826,-721,-382,-568,11079
61278314,4021,0,0.4858539,0.43766007,-8.879928,0.00038634893,0.00037720823,-0.031338412,65.68698,156.9064,0.0047884034,1442826,-1099,975,3739,11078
61378294,4000,0,0.3702331,1.478541,-8.934261,0.004094718,0.0045450893,-0.034509826,65.69252,156.9064,0.0047884034,1442826,-117,706,2965,11080
61482309,4015,0,0.36674917,0.17981537,-9.845351,-0.006411555,-0.0027400146,-0.04778301,65.73407,156.9064,0.0047884034,1442826,299,-601,584,11095
61579906,4005,0,0.3739245,0.010758121,-10.286722,0.0041837967,-0.008040295,-0.03919828,65.68144,156.9064,0.0047884034,1442826,53,39,788,11076
61683906,4013,0,0.034577098,-1.2451696,-10.015081,-0.009313894,-0.0045302426,-0.047200926,65.70083,156.9064,0.0047884034,1442826,-228,191,2867,11083
61783933,4040,0,-0.15794814,-0.3008524,-9.858085,-0.0016432299,0.011684094,-0.019950883,65.72299,156.9064,0.0047884034,1442826,-88,157,1130,11091
61883944,4051,0,0.105063714,0.97166556,-9.250138,-0.011019604,0.013302879,-0.041618392,65.74238,156.9064,0.0047884034,1442826,21,500,1147,11098
61987894,3997,0,-0.29750246,1.4319618,-9.559986,0.0020770389,0.0004216163,-0.057610612,65.72022,156.9064,0.0047884034,1442826,34,-974,2016,11090
62091893,4000,0,0.15198205,-1.1028731,-10.7609825,0.0012359237,-0.005148136,-0.031024575,65.69806,156.9064,0.0047884034,1442826,488,110,226,11082
62191893,3999,0,0.3931158,-1.1334066,-10.505155,0.0072005666,0.004621246,-0.025122043,65.74515,156.9064,0.0047884034,1442826,930,290,1019,11099
62295893,4000,0,0.0074158628,0.76737696,-9.420177,-0.0033732117,0.006414041,-0.04238398,65.73407,156.9064,0.0047884034,1442826,-663,-65,8,11095
62397501,4000,0,0.077840984,1.4316556,-9.222554,-0.009073972,0.00493308,-0.039962795,65.750694,156.9064,0.0047884034,1442826,383,674,1713,11101
62497494,4001,0,0.6729087,0.8160395,-9.2687025,0.0006364607,-0.0017144547,-0.036200453,65.74238,156.9064,0.0047884034,1442826,1067,739,2476,11098
62601494,3964,0,0.26513433,-1.0312978,-10.053002,-0.00463609,0.0008661117,-0.042079464,65.750694,156.9064,0.0047884034,1442826,151,8,3879,11101
62701495,3989,0,-0.18537027,-1.151189,-9.891143,-0.003203765,0.011323828,-0.029096168,65.750694,156.9064,0.0047884034,1442826,374,478,4722,11101
62801494,4000,0,-0.3437014,-0.38265508,-9.56864,-0.0036501498,0.0078111365,-0.046208154,65.76177,156.9064,0.0047884034,1442826,-147,-405,3083,11105
62905494,4000,0,0.029847706,1.064936,-9.671913,0.0064517343,0.0036229796,-0.034528494,65.750694,156.9064,0.0047884034,1442826,84,-220,-308,11101
63005494,3993,0,0.39588144,0.86452943,-9.768972,0.003983984,-0.012028661,-0.043155123,65.750694,156.9064,0.0047884034,1442826,-246,-538,271,11101
63109494,4001,0,0.2926096,-0.8062592,-9.811794,-0.0056400243,-0.00028554362,-0.03935875,65.76731,156.9064,0.0047884034,1442826,862,826,3377,11107
63211100,4007,0,-0.12491239,-1.0589132,-10.12741,-0.0067551592,5.8975536e-05,-0.059136096,65.76454,156.9064,0.0047884034,1442826,-236,-698,1756,11106
63315093,3990,0,0.13830556,0.904676,-9.744904,0.005836688,0.013188913,-0.018740285,65.75623,156.9064,0.0047884034,1442826,-219,230,990,11103
63415094,3940,0,0.021544028,1.2476643,-9.463434,0.0020858392,0.001979017,-0.022088481,65.75623,156.9064,0.0047884034,1442826,-888,-48,1324,11103
63515093,3998,0,0.4707388,0.84298205,-9.115555,-0.0034532386,-0.013261357,-0.039209295,65.76177,156.9064,0.0047884034,1442826,-726,333,2935,11105
63619099,3964,0,0.3855111,-1.038915,-10.112671,0.0009636238,-0.0002985068,-0.046117418,65.828255,156.9064,0.0047884034,1442826,963,-185,2945,11129
63719108,4015,0,-0.019497791,-1.0833898,-10.491167,0.0020552154,0.0012222213,-0.05756779,65.77839,156.9064,0.0047884034,1442826,84,-364,2133,11111
63819093,3987,0,0.10171586,-0.73552614,-10.194007,0.01050447,-0.0025535547,-0.047282666,65.792244,156.9064,0.0047884034,1442826,-532,-333,316,11116
63923119,4026,0,-0.26055405,1.3830707,-9.426515,-0.010055546,0.0062126475,-0.04973972,65.792244,156.9064,0.0047884034,1442826,-1055,-299,345,11116
64023904,4011,0,-0.53164005,1.6899258,-9.320831,0.0017836562,0.004204141,-0.038526945,65.77562,156.9064,0.0047884034,1442826,606,-860,2147,11110
64124745,4029,0,0.46547213,0.93245304,-9.93688,0.01309105,0.00495432,-0.026726654,65.80332,156.9064,0.0047884034,1442826,1159,-6,782,11120
64228720,4004,0,0.0043409374,-0.9919621,-9.957176,-0.005881086,0.0067921397,-0.04710268,65.75623,156.9064,0.0047884034,1442826,567,249,2883,11103
64332720,4006,0,0.13376608,0.43094933,-9.473428,0.0090338895,0.0033648913,-0.020443961,65.81718,156.9064,0.0047884034,1442826,743,385,2188,11125
64432714,3990,0,-0.1716035,1.0404559,-9.242957,-0.003055957,0.010348068,-0.016927596,65.81995,156.9064,0.0047884034,1442826,-196,898,2446,11126
64536724,4008,0,0.33055803,1.4733032,-9.467227,0.010321047,-0.009418333,-0.054209616,65.80609,156.9064,0.0047884034,1442826,662,75,3058,11121
64636714,4000,0,0.8276573,0.15446672,-10.223773,0.006258505,-0.0067213653,-0.046056315,65.83656,156.9064,0.0047884034,1442826,990,488,2211,11132
64736747,4012,0,0.63771784,-0.83508694,-10.2181015,-0.0030584016,-0.009247912,-0.0441285,65.789474,156.9064,0.0047884034,1442826,-620,207,1072,11115
64840714,4001,0,-0.32693523,0.12834221,-9.994831,0.0018581634,0.011545518,-0.041325096,65.81718,156.9064,0.0047884034,1442826,38,-646,1124,11125
64942336,4066,0,0.112261675,0.92918533,-9.036556,0.010199482,0.004292062,-0.03428557,65.831024,156.9064,0.0047884034,1442826,-703,-605,1877,11130
65042271,4001,0,0.19105358,1.213802,-9.468071,0.008488463,0.0017858854,-0.04223273,65.81441,156.9064,0.0047884034,1442826,-195,-550,837,11124
65146270,4000,0,0.45435923,-0.610557,-10.264163,-0.005045826,-0.0069783623,-0.04201076,65.83656,156.9064,0.0047884034,1442826,76,-179,2325,11132
65246291,3982,0,-0.20558162,-1.3689308,-10.422839,-0.0022668508,0.0022560793,-0.032223634,65.88366,156.9064,0.0047884034,1442826,-3,-316,2227,11149
65350271,4001,0,-0.33011535,0.33053833,-10.099444,0.00056483666,0.010858324,-0.04490239,65.83656,156.9064,0.0047884034,1442826,-60,-495,-28,11132
65454272,3970,0,0.14004181,1.2575942,-9.089495,-0.006206533,-0.00094273966,-0.04264817,65.83379,156.9064,0.0047884034,1442826,-1014,196,1823,11131
65554271,3955,0,0.49248055,0.6996357,-9.3144865,0.0014002849,-0.004506603,-0.030819472,65.81718,156.9064,0.0047884034,1442826,337,309,3340,11125
65655094,3954,0,0.5283885,-0.4702585,-9.68656,-0.0015498822,-0.0030225483,-0.04301882,65.85042,156.9064,0.0047884034,1442826,662,568,5437,11137
65755893,3988,0,0.21427338,-0.94008404,-10.362183,-0.005884988,-0.007488025,-0.072282255,65.84764,156.9064,0.0047884034,1442826,-2,-325,1711,11136
65855906,4007,0,0.11815314,-0.4785665,-10.133365,0.00081660284,0.0022060745,-0.052883297,65.88366,156.9064,0.0047884034,1442826,-593,-738,397,11149
65959917,4023,0,0.12042862,1.1023979,-9.243306,-0.0036916013,0.0052627404,-0.036210187,65.85042,156.9064,0.0047884034,1442826,-89,165,1199,11137
66059899,3967,0,-0.2983835,1.1395872,-9.35845,-0.0066282284,0.0020272331,-0.040289555,65.87534,156.9064,0.0047884034,1442826,-75,-2,2011,11146
66163933,4040,0,0.40702924,-0.63107955,-9.861155,0.0045463135,-0.009734562,-0.040309437,65.864265,156.9064,0.0047884034,1442826,134,92,2820,11142
66263894,4001,0,-0.026902797,-1.4315124,-10.217914,-0.0057467553,-0.0030663004,-0.03962884,65.8421,156.9064,0.0047884034,1442826,-265,-39,2037,11134
66363893,4001,0,-0.1373236,-0.8086478,-9.646849,-0.004961142,0.007219274,-0.037468135,65.89474,156.9064,0.0047884034,1442826,-81,288,3245,11153
66467893,3995,0,0.2985544,0.78975976,-9.339897,0.0049387575,-0.0020092397,-0.038202282,65.87534,156.9064,0.0047884034,1442826,-496,-49,1818,11146
66573470,4000,0,0.080945924,0.03670831,-10.317914,0.01236242,-0.005303958,-0.04172671,65.864265,156.9064,0.0047884034,1442826,416,-381,1753,11142
66673470,4000,0,0.7105158,-0.9004239,-10.429345,0.0012230116,-0.004989879,-0.020315954,65.88366,156.9064,0.0047884034,1442826,-26,385,1329,11149
66777477,3970,0,-0.12852703,-0.43602526,-9.913108,0.0076843062,0.012585481,-0.037252698,65.911354,156.9064,0.0047884034,1442826,-430,-437,1525,11159
66877542,4072,0,0.2862959,0.3396119,-9.386426,0.00081934186,0.0020899072,-0.031980604,65.85873,156.9064,0.0047884034,1442826,-980,586,2924,11140
66977470,3994,0,-0.092029415,1.6465889,-9.0488,-0.0004130227,0.013575433,-0.03009051,65.87534,156.9064,0.0047884034,1442826,-432,185,3557,11146
67081470,4000,0,0.6685271,0.7873467,-9.856892,0.00038549467,-0.0038352292,-0.036414634,65.8892,156.9064,0.0047884034,1442826,1073,1175,3747,11151
67181471,4001,0,0.29698637,-0.42823458,-10.622695,-0.006364496,-0.009404662,-0.059526864,65.905815,156.9064,0.0047884034,1442826,-380,-1163,1003,11157
67281470,3959,0,0.056328077,-1.2922469,-11.065223,0.0047628367,-0.011570691,-0.048648864,65.91967,156.9064,0.0047884034,1442826,33,-147,-462,11162
67383093,4000,0,0.5806824,-1.4539316,-9.95182,-0.010012405,-0.0061162845,-0.03053879,65.89474,156.9064,0.0047884034,1442826,-455,1202,2954,11153
67487093,3994,0,-0.016304493,0.5350273,-9.287018,0.0116917305,-0.00025633094,-0.04075311,65.900276,156.9064,0.0047884034,1442826,-939,-845,1090,11155
67591140,4046,0,0.29508272,0.80272037,-8.795939,-0.014736552,-0.006675667,-0.0523981,65.89751,156.9064,0.0047884034,1442826,359,998,4009,11154
67695106,3972,0,0.1685879,-1.2353711,-10.616658,0.0029593252,-0.015441827,-0.04971887,65.911354,156.9064,0.0047884034,1442826,-403,-47,639,11159
67795094,3979,0,0.39377746,-1.0621552,-10.113576,0.00498954,-0.0010785605,-0.023194607,65.96399,156.9064,0.0047884034,1442826,1009,293,2458,11178
67895095,4002,0,-0.11185211,-0.4127041,-9.800448,0.0032348495,0.0066809757,-0.02544403,65.93352,156.9064,0.0047884034,1442826,238,-138,755,11167
67995093,4000,0,0.25296718,0.87725157,-9.401637,0.0048781675,0.006708785,-0.02578434,65.908585,156.9064,0.0047884034,1442826,-1055,142,1490,11158
68099093,3991,0,-0.06869538,1.1472833,-9.674771,-0.011444963,-0.0021639802,-0.047922913,65.93906,156.9064,0.0047884034,1442826,-380,-530,2015,11169
68200714,3998,0,0.2524666,-0.15375799,-9.850636,-0.0021200974,-0.005060131,-0.036580008,65.947365,156.9064,0.0047884034,1442826,401,303,2457,11172
68300714,3959,0,0.6363794,-0.9801124,-9.986377,-0.0055798586,-0.0048561664,-0.05283852,65.93906,156.9064,0.0047884034,1442826,226,537,3934,11169
68400724,4010,0,-0.04266593,-1.3991342,-10.5476675,-0.0051338696,0.0010389686,-0.03768281,65.95845,156.9064,0.0047884034,1442826,-1280,-108,507,11176
68504714,3994,0,-0.27833724,0.4408863,-9.77668,-0.0037827347,0.007860945,-0.050736025,65.93629,156.9064,0.0047884034,1442826,-535,-547,129,11168
68604751,4037,0,0.053300675,1.1530436,-8.872611,-0.0033825124,0.007837953,-0.026090713,65.950134,156.9064,0.0047884034,1442826,145,447,3063,11173
68708762,4046,0,0.39641574,-0.340937,-10.369893,0.0012433514,-0.0003279131,-0.034163147,65.92798,156.9064,0.0047884034,1442826,1179,138,2730,11165
68812726,3986,0,-0.24910086,-1.4067721,-10.947935,-0.004718552,-0.002496826,-0.054722533,65.97507,156.9064,0.0047884034,1442826,-798,-677,411,11182
68912714,4000,0,-0.31738722,-0.13960291,-9.405169,0.0022184057,0.015686851,-0.022118673,65.93352,156.9064,0.0047884034,1442826,318,151,4087,11167
69014307,4011,0,-0.13946195,1.471346,-9.344989,-0.006887654,0.011971998,-0.03174673,65.96399,156.9064,0.0047884034,1442826,-2,108,2775,11178
69118332,4039,0,-0.3447566,1.3707258,-10.173732,0.0060707377,-0.013332002,-0.05573027,65.97784,156.9064,0.0047884034,1442826,626,-734,2849,11183
69218299,4006,0,0.3669814,-0.22162324,-10.067888,-0.0029137973,-0.009259136,-0.05443494,65.95568,156.9064,0.0047884034,1442826,1006,-29,4387,11175
69318294,3999,0,0.64479756,-1.4875891,-10.689005,-0.0074698254,-0.0031170722,-0.04487348,65.98892,156.9064,0.0047884034,1442826,-365,-77,88,11187
69422294,4001,0,-0.38707024,-0.7830772,-10.017348,-0.0072339275,0.009960202,-0.03638571,65.98892,156.9064,0.0047884034,1442826,-697,204,1688,11187
69522300,3953,0,-0.033807263,0.6456329,-8.735584,0.0066365246,0.0034700911,-0.03284769,65.95568,156.9064,0.0047884034,1442826,-1533,63,2876,11175
69622322,4024,0,0.01932588,1.7321137,-9.340001,0.003944297,0.01012232,-0.032128595,65.95568,156.9064,0.0047884034,1442826,-61,-646,1887,11175
69726294,4001,0,0.06830386,0.51326203,-10.231129,0.00064450386,-0.009698488,-0.055423014,66.03324,156.9064,0.0047884034,1442826,-278,-1195,6,11203
69827894,4001,0,0.33084136,-1.2146689,-9.989933,-0.0030194006,-0.005898555,-0.03273664,66.01662,156.9064,0.0047884034,1442826,1267,99,2618,11197
69927893,4000,0,0.41018003,-1.7897028,-10.099015,0.0020587116,-0.004707637,-0.028919026,65.98892,156.9064,0.0047884034,1442826,322,494,3055,11187
70031894,3994,0,-0.11734119,0.56633806,-9.057576,0.0083748745,0.003234115,-0.028920636,66.00831,156.9064,0.0047884034,1442826,-382,403,3869,11194
70131894,3988,0,-0.25510472,1.6811595,-9.500089,0.0040735723,0.006275836,-0.040297844,65.99723,156.9064,0.0047884034,1442826,-169,-675,774,11190
70231893,3973,0,-0.42033002,1.5615044,-9.166143,-0.005288402,0.0065671885,-0.047820494,66.01662,156.9064,0.0047884034,1442826,871,-404,3353,11197
70335907,4014,0,0.39165077,-0.97955465,-10.293663,-0.004127612,-0.0034493278,-0.042204425,66.0,156.9064,0.0047884034,1442826,503,28,1422,11191
70435937,4036,0,0.18672061,-1.23609,-10.006127,0.00288831,0.0014187833,-0.03856278,66.01385,156.9064,0.0047884034,1442826,1234,96,2363,11196
70539901,4006,0,-0.08620596,0.4609452,-9.141438,0.004984572,0.0076537067,-0.021888567,66.0277,156.9064,0.0047884034,1442826,54,-267,2265,11201
70637537,4067,0,0.022162225,0.6488442,-8.763483,-0.0058966894,0.006857872,-0.0323259,66.03047,156.9064,0.0047884034,1442826,-435,146,3235,11202
70741516,4016,0,0.07534607,1.7375956,-9.080167,-0.0057447855,0.0014755796,-0.04788491,66.02216,156.9064,0.0047884034,1442826,-371,-112,2211,11199
70841493,4023,0,0.86402005,0.7103443,-9.377504,-0.008760523,-0.0014980632,-0.030889302,66.0554,156.9064,0.0047884034,1442826,931,1128,3610,11211
70941511,4018,0,0.34236133,-0.5307926,-10.693639,0.010964772,-0.011140255,-0.030107504,66.02493,156.9064,0.0047884034,1442826,466,-166,1061,11200
71045536,4043,0,-0.12552428,-1.0680786,-10.416426,-0.0082308585,-0.0075701512,-0.058280844,66.02493,156.9064,0.0047884034,1442826,-592,-390,-383,11200
71145494,3957,0,-0.0040592323,0.19392595,-9.444062,0.009157714,0.009095236,-0.023770075,66.0277,156.9064,0.0047884034,1442826,-614,-140,1481,11201
71249499,3999,0,0.5097333,1.7988393,-9.030959,0.0027795848,0.0013273894,-0.044451945,66.03324,156.9064,0.0047884034,1442826,-310,344,1907,11203
71349494,3996,0,0.4364885,1.5510553,-9.654724,0.010728607,-0.003919939,-0.026884336,66.05263,156.9064,0.0047884034,1442826,1408,0,2697,11210
71451094,3978,0,0.25940493,0.23821095,-10.087502,0.0159194,-0.003471448,-0.025636168,66.03324,156.9064,0.0047884034,1442826,1310,-184,1973,11203
71555100,3998,0,0.5274518,-1.9571178,-9.697518,0.00080775074,-0.008929094,-0.015229667,66.04986,156.9064,0.0047884034,1442826,966,1170,5172,11209
71655096,4002,0,-0.47148094,-0.9676125,-10.580556,0.003238027,0.0034674925,-0.03970114,66.05263,156.9064,0.0047884034,1442826,-82,-788,-1173,11210
71755094,4000,0,-0.45584506,-0.03894023,-9.827829,0.0028646085,0.011359559,-0.04011803,66.06094,156.9064,0.0047884034,1442826,-888,-889,1990,11213
71859094,4000,0,-0.060879983,1.7614028,-9.793787,0.008763764,0.0017252741,-0.0585903,66.0554,156.9064,0.0047884034,1442826,-538,-591,1438,11211
71959100,4006,0,-0.48500803,1.3619477,-9.722555,-0.0019122814,-0.0009824071,-0.047280576,66.091415,156.9064,0.0047884034,1442826,-387,-1677,943,11224
72059121,4013,0,0.3559959,0.58829916,-9.861402,-0.0031505004,-0.0025374282,-0.055415414,66.094185,156.9064,0.0047884034,1442826,812,504,1803,11225
72163094,4000,0,0.21046402,-1.4276981,-9.733196,-0.016030654,-0.005472799,-0.037412338,66.096954,156.9064,0.0047884034,1442826,341,393,4057,11226
72263927,4026,0,-0.24956453,-1.5304571,-10.182741,-0.0024256855,0.000147391,-0.044350386,66.06094,156.9064,0.0047884034,1442826,-76,10,391,11213
72364671,3988,0,-0.35079086,-0.009092789,-9.922398,0.008986037,0.003854047,-0.027404493,66.08864,156.9064,0.0047884034,1442826,-467,-875,-887,11223
72468711,4028,0,0.52176046,2.0204394,-9.602802,0.012258841,0.0087892935,-0.025890023,66.08033,156.9064,0.0047884034,1442826,496,-226,-581,11220
72572714,4044,0,0.67738223,0.6749039,-10.095311,0.014124307,-0.005510652,-0.035502184,66.08587,156.9064,0.0047884034,1442826,856,-491,1046,11222
72672683,4013,0,0.18519047,-0.5539076,-10.408035,-0.007005141,-0.012970242,-0.053927634,66.099724,156.9064,0.0047884034,1442826,145,-397,2070,11227
72772699,4020,0,0.65415996,-1.5210302,-9.968171,-0.0012564487,0.00069779786,-0.02675391,66.06371,156.9064,0.0047884034,1442826,67,1125,1319,11214
72876670,3958,0,0.041142393,-0.24404252,-9.916325,0.0014140179,-0.000114174596,-0.042026345,66.07756,156.9064,0.0047884034,1442826,-511,290,1710,11219
72976671,3976,0,-0.69595706,0.55278033,-9.523902,0.00037182256,0.009685541,-0.042061504,66.10803,156.9064,0.0047884034,1442826,-137,-424,923,11230
73078320,4006,0,0.053172443,1.7915208,-8.817653,-0.005372967,0.003598258,-0.041680098,66.08033,156.9064,0.0047884034,1442826,176,141,3436,11220
73178314,3937,0,0.93838984,1.1598935,-9.530834,0.0065423525,-0.009769019,-0.04574286,66.091415,156.9064,0.0047884034,1442826,576,347,3447,11224
73282314,3993,0,0.40495786,-1.3160819,-9.783713,0.0077523496,-0.008744596,-0.008984068,66.11911,156.9064,0.0047884034,1442826,612,474,4152,11234
73382350,3998,0,-0.2256257,-1.0984931,-10.510684,-0.0052502495,-0.0030007681,-0.06706755,66.08864,156.9064,0.0047884034,1442826,-102,-251,1067,11223
73486317,4003,0,-0.24977371,0.74651814,-9.81672,0.009896261,0.021035677,-0.039754674,66.10803,156.9064,0.0047884034,1442826,-321,-436,346,11230
73586329,4015,0,-0.2953293,1.0238804,-8.870578,-0.003674631,0.0022886228,-0.045455504,66.130196,156.9064,0.0047884034,1442826,-605,115,4021,11238
73686314,3984,0,0.09252072,1.6337205,-9.184823,-0.007553751,0.0010667739,-0.055315774,66.10249,156.9064,0.0047884034,1442826,-286,-330,-173,11228
73790314,4000,0,0.40886447,-0.57691807,-10.134883,-0.0062492155,-0.009260843,-0.04554642,66.11357,156.9064,0.0047884034,1442826,-448,-361,-492,11232
73890314,3951,0,0.15096779,-1.4273555,-9.784643,0.0041263895,-0.0011210316,-0.027438177,66.132965,156.9064,0.0047884034,1442826,401,524,3975,11239
73991896,3996,0,-0.084755465,-0.6550905,-9.633036,0.00042228785,-0.00063162646,-0.050273478,66.14681,156.9064,0.0047884034,1442826,-342,-682,1527,11244
74095900,3997,0,-0.35563567,1.279287,-8.955668,0.0053007845,0.010524949,-0.023346724,66.14681,156.9064,0.0047884034,1442826,492,-480,1399,11244
74199909,4015,0,-0.17745686,0.45538247,-9.683114,-0.000704926,-0.008192564,-0.045280132,66.14127,156.9064,0.0047884034,1442826,15,-1221,874,11242
74299969,4076,0,0.55930233,-0.6379957,-9.594965,-0.0041097645,-0.008103666,-0.04221024,66.130196,156.9064,0.0047884034,1442826,302,213,1457,11238
74403918,4024,0,-0.08759588,-1.0072407,-9.778231,0.00095026917,0.003211879,-0.027299229,66.11911,156.9064,0.0047884034,1442826,94,698,3981,11234
74503870,3970,0,0.32007745,0.22671098,-9.474637,0.00012290385,-0.00085508265,-0.03520806,66.15235,156.9064,0.0047884034,1442826,-959,545,1373,11246
74607871,4000,0,0.09033445,1.892378,-9.194495,-0.005217433,0.001015458,-0.057527732,66.14404,156.9064,0.0047884034,1442826,-94,401,768,11243
74708703,4010,0,0.59162307,1.0031996,-9.516795,0.005631374,-0.0056384,-0.029191956,66.174515,156.9064,0.0047884034,1442826,635,292,3396,11254
74809493,3981,0,0.6961756,-0.3057226,-9.785642,0.010655193,-0.008645552,-0.011928841,66.19391,156.9064,0.0047884034,1442826,844,11,3232,11261
74913500,4007,0,-0.008271681,-1.0178685,-9.903458,-0.0008603876,-0.001500966,-0.036009535,66.171745,156.9064,0.0047884034,1442826,475,654,3248,11253
75013511,4018,0,-0.12851983,-0.10591914,-9.994494,0.0075466614,0.008214489,-0.033758502,66.138504,156.9064,0.0047884034,1442826,-787,-1009,-1556,11241
75113536,4036,0,-0.40460944,0.7234864,-9.315698,0.008247208,0.016474806,-0.031647325,66.18559,156.9064,0.0047884034,1442826,-537,41,3759,11258
75217500,3999,0,0.3301845,1.481513,-9.817786,0.012193977,-0.0009349934,-0.02967761,66.18005,156.9064,0.0047884034,1442826,1383,-305,1691,11256
75317493,4000,0,-0.38608047,0.25490952,-10.270765,0.002986786,-0.007897361,-0.049939085,66.15512,156.9064,0.0047884034,1442826,45,-1000,527,11247
75421493,3999,0,0.51701516,-1.4132969,-10.346249,0.0068184547,0.00035754513,-0.028862245,66.15235,156.9064,0.0047884034,1442826,313,333,2286,11246
75523094,3994,0,-0.32560953,-0.4994323,-9.876452,-0.0017219514,0.0017377812,-0.040201727,66.16344,156.9064,0.0047884034,1442826,-370,-820,-435,11250
75623100,3984,0,-0.50449586,0.58189875,-8.98744,-0.0015491423,0.011612865,-0.029005617,66.18282,156.9064,0.0047884034,1442826,-912,-256,3669,11257
75723094,3961,0,0.17841898,1.8533459,-8.996014,-0.0065462356,0.0065665836,-0.0541987,66.14404,156.9064,0.0047884034,1442826,334,562,1286,11243
75827113,4019,0,0.6853163,0.7826107,-9.5946,0.0023411072,-0.0040991534,-0.04254751,66.16621,156.9064,0.0047884034,1442826,128,613,1211,11251
75927094,4001,0,0.78265244,-0.30896115,-10.156501,0.009373387,-0.015144819,-0.03767801,66.18559,156.9064,0.0047884034,1442826,1334,277,3015,11258
76031094,4000,0,0.2655102,-2.110215,-10.036186,0.001365626,-0.00792728,-0.027698413,66.19945,156.9064,0.0047884034,1442826,-1381,308,2373,11263
76131132,4038,0,-0.15953423,-0.5170298,-10.344216,0.011137049,0.0082720965,-0.042544767,66.19113,156.9064,0.0047884034,1442826,1025,-191,799,11260
76231133,4039,0,-0.7615392,0.42485392,-10.097295,0.0058688996,0.012123742,-0.03360312,66.16621,156.9064,0.0047884034,1442826,-912,-623,2876,11251
77154317,3997,0,-0.36152014,-1.1509845,-9.70888,-0.010868929,0.009310746,-0.043390535,66.19391,156.9064,0.0047884034,1442826,-464,447,3210,11261
77254313,3999,0,0.2244051,-0.30109033,-9.263871,0.0030386755,-0.008843212,-0.0219652,66.23269,156.9064,0.0047884034,1442826,-1022,327,3100,11275
77354340,4023,0,-0.31107304,1.2056079,-9.368355,0.007390597,0.0145851355,-0.040555462,66.22714,156.9064,0.0047884034,1442826,-148,-199,1968,11273
77458352,4038,0,-0.1146919,1.4551405,-10.040884,0.009969464,0.00013483106,-0.049048826,66.22714,156.9064,0.0047884034,1442826,-270,-690,1306,11273
77558314,3994,0,0.5486145,0.3421714,-9.515893,-0.005383604,-0.0060848817,-0.038199782,66.216064,156.9064,0.0047884034,1442826,250,107,882,11269
77658318,4004,0,0.26225072,-0.8436917,-10.374629,0.008118162,-0.003735225,-0.034909956,66.24377,156.9064,0.0047884034,1442826,1197,-410,471,11279
77762320,3980,0,0.13855869,-1.0946853,-10.206277,0.007845448,0.0049610115,-0.040129405,66.252075,156.9064,0.0047884034,1442826,141,-94,1008,11282
77862321,4007,0,-0.5357742,0.011486334,-9.286436,-0.0048510283,0.00974607,-0.028668592,66.24377,156.9064,0.0047884034,1442826,-233,44,4581,11279
77962355,4034,0,0.027918011,1.3141898,-9.2797165,-0.0036130543,0.0075298958,-0.03660855,66.23546,156.9064,0.0047884034,1442826,1,341,316,11276
78063883,4013,0,0.2621463,1.5495496,-8.970406,0.008544314,-0.0022528311,-0.04288631,66.257614,156.9064,0.0047884034,1442826,426,228,3656,11284
78167875,3961,0,0.59339,-0.33349887,-9.864242,0.009935223,-0.003837543,-0.00839263,66.26038,156.9064,0.0047884034,1442826,944,364,3558,11285
78271870,3993,0,0.119151846,-1.2265968,-9.89422,0.0052107987,-0.0032583708,-0.013067672,66.26316,156.9064,0.0047884034,1442826,-311,727,4161,11286
78371872,4002,0,-0.62431544,0.184142,-9.863939,0.0106606195,0.014165796,-0.034408033,66.27978,156.9064,0.0047884034,1442826,31,-492,994,11292
78471895,4022,0,-0.41021398,0.80835855,-9.447303,-0.0006756424,0.0052072746,-0.058920994,66.22714,156.9064,0.0047884034,1442826,-1337,-629,2084,11273
78575893,4000,0,-0.14002861,1.5418737,-9.858249,0.006767538,-0.0010881717,-0.044418853,66.2687,156.9064,0.0047884034,1442826,520,-838,916,11288
78675894,3974,0,-0.3294519,0.24417543,-9.771774,-0.011515549,-0.00233769,-0.0554341,66.26038,156.9064,0.0047884034,1442826,570,-760,2561,11285
78777494,4001,0,0.28465205,-1.4151828,-10.066592,-0.01598905,-0.010393215,-0.05725777,66.26316,156.9064,0.0047884034,1442826,-642,811,2636,11286
78877493,3984,0,0.28090304,-1.8746347,-9.96542,-0.00014094127,0.0006109945,-0.0038370655,66.27701,156.9064,0.0047884034,1442826,-323,442,1785,11291
78977494,3987,0,-0.16724353,-0.67989343,-10.035496,0.0048480146,0.0022835792,-0.04935968,66.254845,156.9064,0.0047884034,1442826,639,282,1880,11283
79081493,3965,0,0.25014427,1.5704103,-8.989932,0.0066154213,0.010031111,-0.008803649,66.28532,156.9064,0.0047884034,1442826,880,171,2284,11294
79181493,4000,0,-0.2792929,1.3626908,-9.291901,0.006315844,-0.0028684884,-0.04603506,66.252075,156.9064,0.0047884034,1442826,-375,-118,3531,11282
79285496,3996,0,0.17481866,-0.19447426,-10.203194,0.006649054,-0.013299067,-0.04814642,66.27147,156.9064,0.0047884034,1442826,336,142,2229,11289
79385500,4007,0,-0.00945047,-1.1860168,-10.351069,-0.010732931,0.00076838944,-0.043723196,66.249306,156.9064,0.0047884034,1442826,202,-352,1465,11281
79485493,3957,0,-0.05398104,-1.4803758,-9.721212,-0.006932,0.0041069323,-0.035101864,66.257614,156.9064,0.0047884034,1442826,-736,723,2752,11284
79591070,4000,0,-0.5840136,1.2024974,-8.984488,0.0006213577,0.009902092,-0.023721913,66.27424,156.9064,0.0047884034,1442826,257,-497,4007,11290
79691076,4006,0,0.18152209,2.233743,-9.123453,-0.017362908,0.0017482166,-0.061282434,66.28255,156.9064,0.0047884034,1442826,22,208,1402,11293
79791095,4025,0,0.6821956,1.2645452,-9.532938,0.0016948532,0.0014200723,-0.026945978,66.28255,156.9064,0.0047884034,1442826,-460,570,1822,11293
79895070,4000,0,0.010086532,-0.9784249,-10.572188,-0.008215523,0.0015980079,-0.051986,66.290855,156.9064,0.0047884034,1442826,648,-312,595,11296
79999109,4001,0,-0.38565078,-1.0226569,-9.722051,-0.004062904,0.009523572,-0.033153445,66.26593,156.9064,0.0047884034,1442826,-673,241,3710,11287
80099118,4042,0,-0.38915288,-0.18318188,-9.67426,-0.008836383,0.00953724,-0.039283026,66.30748,156.9064,0.0047884034,1442826,156,-41,2482,11302
80203079,4009,0,-0.30001408,1.6087638,-8.907413,-0.00039868825,0.0042935396,-0.038678825,66.28255,156.9064,0.0047884034,1442826,-304,-573,3817,11293
80303071,4000,0,0.0011842009,1.4103845,-9.436129,-0.011711777,0.004757735,-0.04560984,66.326866,156.9064,0.0047884034,1442826,1083,49,3365,11309
80404703,4003,0,-0.092622735,-0.43537685,-10.448434,-0.010994252,-0.0051609823,-0.052353635,66.30471,156.9064,0.0047884034,1442826,-116,-626,-304,11301
80504694,4001,0,0.64757663,-1.5063523,-10.159694,-0.00954299,0.00282606,-0.041621942,66.28255,156.9064,0.0047884034,1442826,-672,491,-655,11293
80608695,3963,0,-0.6563059,-0.0985734,-9.832485,-0.0049567674,0.015970346,-0.034183823,66.30748,156.9064,0.0047884034,1442826,-279,-110,1481,11302
80708702,4009,0,0.092889495,1.1704266,-8.831317,-0.004565877,0.00634035,-0.0440047,66.3241,156.9064,0.0047884034,1442826,-654,1190,3304,11308
80812693,3995,0,-0.082597,2.1530223,-9.662231,-0.014193897,0.0030853432,-0.059769996,66.28255,156.9064,0.0047884034,1442826,1357,-102,2390,11293
80916733,4034,0,0.12216234,-0.9884494,-10.042639,-0.0022873087,-0.008410364,-0.039374445,66.293625,156.9064,0.0047884034,1442826,470,122,5222,11297
81016703,4010,0,-0.27896258,-1.5077744,-10.416612,-0.010111042,-0.0030027707,-0.06319416,66.31579,156.9064,0.0047884034,1442826,-242,-632,14,11305
81116710,3996,0,0.38764775,-1.2762574,-9.770595,0.00031286525,-0.0013052146,-0.021610023,66.30471,156.9064,0.0047884034,1442826,-955,846,2421,11301
81218320,3996,0,-0.15337957,0.77243644,-9.098571,0.008661001,0.006586032,-0.0080856,66.34349,156.9064,0.0047884034,1442826,430,380,3557,11315
81322355,4016,0,0.78833294,1.8343086,-8.757212,-0.0007770187,-0.002323131,-0.022831332,66.329636,156.9064,0.0047884034,1442826,567,1011,4125,11310
81422314,4000,0,0.19775619,0.94482505,-10.167451,0.01398537,-0.0068900436,-0.0478488,66.36288,156.9064,0.0047884034,1442826,603,-425,585,11322
81522309,3995,0,-0.05717327,-0.36421812,-10.336703,0.0064972937,-0.012185977,-0.03847564,66.35734,156.9064,0.0047884034,1442826,840,-427,3959,11320
81626314,3988,0,-0.55638385,-1.2569177,-10.2799225,0.008145109,-0.002663326,-0.04171293,66.34349,156.9064,0.0047884034,1442826,642,23,3323,11315
81726314,3957,0,-0.5042351,-1.1207583,-9.825265,-0.01131608,0.012961781,-0.04094139,66.31579,156.9064,0.0047884034,1442826,-981,154,1117,11305
81830357,4005,0,-0.11371988,1.5809535,-9.287726,-0.010584745,0.010856954,-0.045040265,66.329636,156.9064,0.0047884034,1442826,-805,10,1878,11310
81934314,3955,0,0.085506774,1.4528406,-9.627508,-0.008820134,-0.00014090934,-0.05543584,66.36011,156.9064,0.0047884034,1442826,1289,375,2504,11321
82035070,3990,0,0.8214026,-0.10066194,-10.204139,0.012549766,-0.004292386,-0.0128138205,66.3518,156.9064,0.0047884034,1442826,734,-214,-171,11318
82135893,3986,0,-0.24039808,-1.1474528,-10.090675,-0.009515452,-0.010485254,-0.056394942,66.36288,156.9064,0.0047884034,1442826,283,-373,2953,11322
82239943,4040,0,-0.5824126,-0.17357297,-8.93779,-0.012318415,0.0017220607,-0.058995783,66.38504,156.9064,0.0047884034,1442826,-1054,-506,2565,11330
82339900,4006,0,0.44227442,0.98362935,-9.212694,0.0042453613,0.008574168,-0.01796373,66.4072,156.9064,0.0047884034,1442826,334,303,1049,11338
82443893,3993,0,0.19195808,0.83658904,-9.422866,0.016131215,-0.0038343049,-0.03805759,66.36011,156.9064,0.0047884034,1442826,1033,159,3103,11321
82543916,4002,0,0.6261787,-0.1857343,-9.858165,-0.006056184,-0.0019540593,-0.049160864,66.404434,156.9064,0.0047884034,1442826,1194,617,2763,11337
82643937,4023,0,0.45688698,-1.4213433,-10.557475,0.006271139,-0.007507587,-0.027987856,66.38227,156.9064,0.0047884034,1442826,193,-45,-382,11329
82743916,3990,0,-0.54504865,-1.4101733,-10.069377,-4.0536048e-05,-0.001574938,-0.043194648,66.3795,156.9064,0.0047884034,1442826,-510,-358,4147,11328
82848695,3989,0,-0.68710536,1.1041998,-9.288098,0.0035920732,0.0102419425,-0.040751208,66.36565,156.9064,0.0047884034,1442826,-842,-545,2225,11323
82949494,4001,0,-0.09165861,1.6950899,-9.580647,-0.008137111,0.008341462,-0.038667098,66.39889,156.9064,0.0047884034,1442826,-446,-331,1056,11335
83049494,4000,0,0.88641286,1.4132099,-9.136904,0.006857282,-0.0011254433,-0.043566268,66.38781,156.9064,0.0047884034,1442826,-234,607,2910,11331
83153519,4016,0,0.40506116,-1.0727031,-9.784218,0.0062242993,-0.011434151,-0.012942037,66.37396,156.9064,0.0047884034,1442826,376,508,3434,11326
83253494,3974,0,-0.15745446,-1.2288558,-10.567541,-0.0030599209,-0.0040878155,-0.056664675,66.4072,156.9064,0.0047884034,1442826,537,-338,1780,11338
83353494,4000,0,0.09392693,-0.90879065,-9.537697,-0.0041433997,0.008551043,-0.029211637,66.36288,156.9064,0.0047884034,1442826,105,468,627,11322
83457505,4003,0,0.09142591,1.4373835,-9.123056,0.00044196157,0.00574252,-0.04184529,66.42382,156.9064,0.0047884034,1442826,48,513,1218,11344
83557494,3986,0,-0.3662795,1.5353173,-9.183621,0.0044902507,0.004613947,-0.0342934,66.37119,156.9064,0.0047884034,1442826,133,-1019,715,11325
83659099,4006,0,0.17718564,0.72389305,-9.795506,-0.005041272,-0.008917489,-0.05171083,66.401665,156.9064,0.0047884034,1442826,1145,172,3901,11336
83759099,4006,0,1.110427,-0.8832451,-10.122683,-0.0032898292,-0.0106782,-0.030783113,66.40997,156.9064,0.0047884034,1442826,1177,884,2501,11339
83863093,3949,0,-0.28784886,-1.481499,-10.11279,-0.007912062,0.012353413,-0.028504305,66.39889,156.9064,0.0047884034,1442826,-429,377,-318,11335
83963131,4038,0,-0.14372934,0.015416373,-9.71003,0.008045093,0.010715693,-0.035781533,66.41551,156.9064,0.0047884034,1442826,-272,-186,1693,11341
84063093,4000,0,-0.491846,0.9540503,-9.329378,0.0069787735,0.018425526,-0.030108873,66.443214,156.9064,0.0047884034,1442826,35,-131,1746,11351
84167093,4000,0,-0.22370923,1.2514817,-10.027652,0.0045782607,-0.0072094966,-0.050242845,66.36288,156.9064,0.0047884034,1442826,21,-591,2452,11322
84271093,4000,0,-0.12105655,-0.98821163,-10.801602,-0.0051274165,-0.011048628,-0.06521088,66.42382,156.9064,0.0047884034,1442826,396,-411,68,11344
84371100,3966,0,-0.20143498,-1.1839509,-10.147649,-0.009048112,0.00047723675,-0.03693285,66.401665,156.9064,0.0047884034,1442826,-242,233,1997,11336
84476693,3979,0,-0.5947103,0.4558189,-9.669058,-0.003036073,0.014434128,-0.037788205,66.41274,156.9064,0.0047884034,1442826,-304,-59,2838,11340
84576694,3988,0,0.48131934,1.5145626,-8.694584,0.0046643475,0.015356682,-0.028782366,66.39612,156.9064,0.0047884034,1442826,369,995,2699,11334
84676732,4038,0,-0.36340308,1.6594591,-9.963998,0.00020884373,-0.0056322063,-0.06325545,66.43213,156.9064,0.0047884034,1442826,-1159,-1069,188,11347
84780701,4007,0,0.09857867,-0.2109702,-10.915395,-0.00083469506,-0.011902465,-0.054740276,66.42936,156.9064,0.0047884034,1442826,184,-639,259,11346
84880694,4000,0,0.8615085,-1.6252621,-10.253475,-0.010741983,-0.010243959,-0.05979502,66.42382,156.9064,0.0047884034,1442826,-1245,1088,1665,11344
84980694,3998,0,-0.056451447,-1.6034416,-10.945724,0.010066685,-0.00045242463,-0.041519694,66.45429,156.9064,0.0047884034,1442826,178,-257,-302,11355
85084694,3993,0,-0.84795594,0.606424,-9.436924,-0.007597032,0.0079385685,-0.038503412,66.42105,156.9064,0.0047884034,1442826,-1113,-355,2143,11343
85184694,3974,0,-0.3529322,1.6747599,-9.401523,0.00805866,0.012309808,-0.04445701,66.404434,156.9064,0.0047884034,1442826,1005,141,1133,11337
85286270,3958,0,0.4495686,0.93974406,-8.925545,-0.002859862,-0.0001761092,-0.05302439,66.42936,156.9064,0.0047884034,1442826,32,662,4001,11346
