timestamp,integral_dt,error_count,x,y,z,x_integral,y_integral,z_integral,temperature,range_m_s2,scaling,device_id,x_raw,y_raw,z_raw,temperature_raw
41329818,5222,0,0.02392623,1.6163343,-9.607999,-0.00047248416,0.0009711682,-0.05012165,49.875,78.0,0.0023928226,1114658,740,436,-3482,10820
41432786,5318,0,0.57168365,0.3601515,-9.795281,-0.0011895791,0.0070731295,-0.04943364,49.875,78.0,0.0023928226,1114658,-10,201,-1821,10822
41534600,5283,0,0.15231246,0.6974081,-9.731761,0.00517849,-0.0034350906,-0.05682538,50.0,78.0,0.0023928226,1114658,424,783,-4215,8193
41631171,4203,0,0.26490498,-0.77877825,-9.549215,0.007177184,0.0017847773,-0.04379791,49.875,78.0,0.0023928226,1114658,-251,1134,-2797,9977
41735181,4262,0,0.34373567,-1.0609545,-9.452217,-0.0024950968,-0.004909683,-0.037919182,49.875,78.0,0.0023928226,1114658,443,53,-3313,-9
41835983,4266,0,0.6576483,0.941296,-9.699197,-0.0011637831,-0.0136985,-0.041287072,50.0,78.0,0.0023928226,1114658,2430,99,-3579,-9
41937780,4205,0,0.45961452,0.34451163,-9.742126,-0.008459935,-0.0170794,-0.04339495,49.875,78.0,0.0023928226,1114658,1773,-190,-3298,2048
42043869,4251,0,-0.47703743,-1.6338391,-10.037827,0.00097554893,0.0055121626,-0.038505267,50.0,78.0,0.0023928226,1114658,-1052,1782,-3341,9969
42145668,4131,0,0.046022493,0.47808906,-9.6047125,0.00035927843,0.02273937,-0.035581347,49.75,78.0,0.0023928226,1114658,-1677,629,-3001,2048
42244367,4200,0,0.31878525,0.8023009,-9.547758,0.0015268257,0.016145201,-0.036899753,50.0,78.0,0.0023928226,1114658,-550,675,-3182,10828
42346246,4228,0,0.8443798,2.055262,-10.045903,-0.004299892,-0.0070938077,-0.04087025,49.75,78.0,0.0023928226,1114658,1389,-438,-2317,8193
42448068,4128,0,-0.66840094,-0.5631262,-9.755504,0.010974886,0.0056746854,-0.03787918,49.875,78.0,0.0023928226,1114658,-430,2067,-3644,8193
42554158,4240,0,-0.40118554,-0.6167372,-9.80104,0.0008125568,0.00055565435,-0.037752207,49.875,78.0,0.0023928226,1114658,-1466,255,-2916,2048
42651791,5273,0,-1.3109314,-0.68974876,-9.997171,0.0054947995,0.007853137,-0.049705636,49.875,78.0,0.0023928226,1114658,-1441,2853,-663,2049
42752570,4203,0,1.2443048,1.8004477,-9.76423,-0.0046537756,-0.008263164,-0.042849347,49.875,78.0,0.0023928226,1114658,2263,-224,-2603,8193
42858619,4201,0,-1.6365335,1.5068432,-8.745818,-0.011788715,-0.018950691,-0.035708874,49.875,78.0,0.0023928226,1114658,2723,1083,-7051,-9
42959417,4188,0,-2.0923378,-0.37572548,-10.058003,0.014458928,0.0012094812,-0.03178378,49.875,78.0,0.0023928226,1114658,-364,4421,-970,8193
43061267,4162,0,1.4495838,0.63248134,-9.863771,-0.016859116,0.016260173,-0.042390294,49.875,78.0,0.0023928226,1114658,-129,-2585,-4673,-9
43163137,5268,0,2.123806,0.32506633,-9.475519,-0.0015360874,0.0016913703,-0.058761463,49.75,78.0,0.0023928226,1114658,931,-3797,-3447,9972
43266018,6273,0,0.4153314,-0.17136191,-10.246029,-0.07134746,-0.0019586212,-0.046726435,50.0,78.0,0.0023928226,1114658,-45,-9491,-2058,2048
43367940,4272,0,0.53271097,0.7549125,-10.640535,-0.044814035,0.01014978,-0.04415536,49.875,78.0,0.0023928226,1114658,946,-4549,-194,10832
43467625,4208,0,0.48179218,0.06147893,-9.030365,-0.058648836,-0.0032191987,-0.02359758,49.875,78.0,0.0023928226,1114658,-830,-3875,-5883,10836
43569537,4270,0,1.3870031,-0.5816782,-9.216513,0.04760056,0.011282637,-0.0658931,49.875,78.0,0.0023928226,1114658,-1766,13,-7407,9972
43670316,4216,0,0.16692342,0.6661405,-10.693738,-0.04906798,0.010374631,-0.023242386,49.875,78.0,0.0023928226,1114658,469,-2888,-1127,10839
43774247,4193,0,-1.2028096,1.8683943,-10.2703705,0.018776013,0.0025773882,-0.034754362,49.875,78.0,0.0023928226,1114658,2649,6321,-1820,2048
43875086,4220,0,1.3642826,0.31616643,-10.880515,0.018234912,0.009114439,-0.063463554,49.875,78.0,0.0023928226,1114658,971,-2047,-5831,9970
43976868,4152,0,1.0645125,-0.990053,-11.27616,-0.025018323,-0.0027291093,-0.019679781,49.875,78.0,0.0023928226,1114658,-1946,-4979,531,9970
44082918,4200,0,-0.4513802,0.7314199,-9.484221,-0.04049605,0.0044376487,-0.045466445,49.875,78.0,0.0023928226,1114658,-403,-602,-6571,8193
44179518,4200,0,-0.9706173,1.7663001,-10.329015,0.04645899,-0.0054249982,-0.023323417,49.875,78.0,0.0023928226,1114658,1832,4920,-698,8192
44285607,4226,0,-0.5972211,-0.69283795,-10.90035,-0.010976925,-0.003759,-0.05320611,50.0,78.0,0.0023928226,1114658,1680,4347,-1329,2048
44384268,4169,0,-0.3851748,-1.1719161,-10.557734,-0.016535474,-0.008659792,-0.017964203,49.875,78.0,0.0023928226,1114658,1443,1960,-3587,10858
44486158,4232,0,0.26281384,-1.1582029,-11.770497,0.004365928,0.0070413933,-0.06181335,49.875,78.0,0.0023928226,1114658,139,-1013,-148,-9
44587978,5261,0,-0.8710836,0.7567697,-10.300759,0.012198836,0.010260202,-0.078880586,49.875,78.0,0.0023928226,1114658,99,3095,-5923,-9
44692968,4125,0,-0.10491841,1.4712032,-9.020526,0.02295914,-0.0059312447,-0.04455217,50.0,78.0,0.0023928226,1114658,2306,2378,-7804,10846
44792740,5257,0,0.86903673,0.14139836,-11.528147,-0.019238971,-0.010101666,-0.04326013,50.0,78.0,0.0023928226,1114658,1419,-2386,-1595,10849
44894606,5263,0,1.5461342,-1.053851,-11.56846,0.007997359,-0.010041142,-0.085089624,50.0,78.0,0.0023928226,1114658,868,-3022,-3528,8193
45000669,4251,0,0.41252536,0.3624969,-10.122793,0.0039740666,0.0075586746,-0.06331157,49.875,78.0,0.0023928226,1114658,-1746,-1552,-3825,9976
45099321,4157,0,1.1266372,1.1894257,-9.409374,-0.025213428,0.011952937,-0.05112953,49.875,78.0,0.0023928226,1114658,-1183,-4088,-3851,-9
45199168,4301,0,-1.1304432,1.2833704,-9.095477,0.0043833,0.004650084,-0.051817417,49.875,78.0,0.0023928226,1114658,586,4960,-4912,8193
45304113,4165,0,1.1170325,-0.59853363,-10.449575,-0.031286936,-0.008721479,-0.014164702,50.125,78.0,0.0023928226,1114658,536,-1816,-1905,8193
45401717,4150,0,-0.26648802,-1.4239634,-10.033404,-0.013512997,-0.0063671554,-0.031258427,49.875,78.0,0.0023928226,1114658,1461,3441,-4927,-9
45507768,5251,0,0.03333491,-0.06708862,-10.184992,0.0033097605,0.016984832,-0.05850924,49.875,78.0,0.0023928226,1114658,37,2552,-3733,8193
45612798,4192,0,-0.07023332,1.7965219,-8.595042,-0.014332644,-0.0069578947,-0.025538828,50.0,78.0,0.0023928226,1114658,1786,1518,-7662,10855
45710418,4125,0,-0.25367013,1.2513276,-7.687853,0.0072853463,-0.012004696,-0.046957463,49.875,78.0,0.0023928226,1114658,1956,2342,-9417,10867
45815418,4200,0,0.6577455,-1.0249646,-11.170726,-0.0060835644,0.002291591,-0.019574588,49.875,78.0,0.0023928226,1114658,2223,347,-4162,8192
45915179,4212,0,0.08608762,-1.8402593,-10.762798,-0.01451857,-0.0037206316,-0.033373404,50.125,78.0,0.0023928226,1114658,-380,-218,-3880,9977
46013867,6267,0,-0.33521202,-1.4018751,-10.703781,0.00851437,-0.0020192554,-0.101001255,50.0,78.0,0.0023928226,1114658,1099,2472,-2519,2048
46119940,4222,0,-0.0688671,1.6023026,-10.302052,-0.008820658,0.00036271982,-0.018037088,50.0,78.0,0.0023928226,1114658,-1821,-749,-822,10871
46218618,4200,0,0.25242868,1.7556047,-9.386952,0.034533456,-0.0015711007,-0.08372009,50.0,78.0,0.0023928226,1114658,1687,2065,-7847,8192
46320468,4200,0,0.58125013,-0.58375746,-9.962385,0.041170694,-0.0014432392,-0.057309583,49.875,78.0,0.0023928226,1114658,58,3052,-2122,10867
46422341,5236,0,-1.1606585,-1.6394253,-8.514208,-0.029816302,-0.02673241,-0.012459061,49.875,78.0,0.0023928226,1114658,1774,3166,-2960,10873
46523171,4254,0,-0.53799975,0.017808983,-8.398281,-0.03511197,0.00849986,-0.046417307,50.0,78.0,0.0023928226,1114658,-2545,-1508,-4014,10862
46624993,4184,0,-0.14143495,1.4925003,-8.315988,-0.0379346,0.00051740167,-0.015282199,49.875,78.0,0.0023928226,1114658,1352,-1398,-959,-9
46725768,4161,0,0.9150517,0.33021712,-8.75573,0.017901702,0.003124359,-0.07400439,49.875,78.0,0.0023928226,1114658,-156,-2062,-5295,10868
47135269,4094,0,0.56185323,-0.088375576,-10.237338,-0.027368749,-0.0021350814,-0.031553507,49.875,78.0,0.0023928226,1114658,2152,-2848,-575,10873
47338973,4206,0,0.3067595,-0.060624655,-9.270107,0.01748077,-0.003900936,-0.054756567,50.0,78.0,0.0023928226,1114658,-2221,-1082,-3954,8193
47439768,4158,0,0.046967816,1.7768892,-10.314375,0.028573535,0.008391628,-0.050875653,49.875,78.0,0.0023928226,1114658,531,1381,-870,-9
47541628,4183,0,1.0428722,1.0658373,-10.127497,-0.0019269293,-0.007481947,-0.00483118,50.0,78.0,0.0023928226,1114658,2120,-2513,-641,-9
47644517,4184,0,-0.1917198,-1.1232338,-9.261975,-0.02086196,-0.0029814811,-0.025506772,49.875,78.0,0.0023928226,1114658,588,763,-6919,-9
47746368,4201,0,-0.14004678,-0.43854618,-9.6950865,0.008259508,0.0057277577,-0.04204572,49.875,78.0,0.0023928226,1114658,-824,1975,-2187,9961
47852418,4199,0,-0.08873889,1.4360856,-10.469373,-0.029758222,0.011091662,-0.050795943,49.875,78.0,0.0023928226,1114658,1133,-2272,454,8193
47950108,5284,0,-0.11816467,1.3819574,-8.597067,0.03826196,-0.008674014,-0.036435485,50.0,78.0,0.0023928226,1114658,2823,4184,-6563,8193
48055208,4341,0,1.105928,-1.0716096,-11.887758,-0.02135672,-0.005046939,-0.08398554,50.0,78.0,0.0023928226,1114658,-930,-2974,2020,8193
48156918,4150,0,-0.27284092,-0.37147862,-9.449903,-0.0074206325,0.0033363847,-0.05038392,49.875,78.0,0.0023928226,1114658,216,1181,-10133,9954
48256735,5317,0,-1.2437168,1.0171714,-9.890827,-0.0011576457,0.020423451,-0.017281385,50.0,78.0,0.0023928226,1114658,-242,4099,24,9963
48357542,4272,0,-0.12943375,2.0462615,-9.680904,0.02801065,0.012938237,-0.06531255,49.875,78.0,0.0023928226,1114658,433,2997,-4958,10896
48458373,4268,0,-0.08033859,1.3201151,-9.825551,0.03968325,0.00076331245,-0.03255263,50.0,78.0,0.0023928226,1114658,1608,4347,-5009,10907
48562275,4258,0,1.7709076,-0.6623814,-11.000083,0.0010239598,0.0021627897,-0.026615513,50.0,78.0,0.0023928226,1114658,689,-4322,-1373,9957
48664100,4115,0,2.1199818,-0.9198667,-11.64349,-0.014752071,0.01082057,-0.052174978,49.875,78.0,0.0023928226,1114658,-756,-5013,867,8193
48764868,4112,0,-1.1702212,0.788941,-8.524461,0.049794104,0.0028864979,-0.014007584,50.0,78.0,0.0023928226,1114658,385,6026,-2352,10896
48866717,4199,0,1.3256758,1.3056203,-9.472246,-0.039827447,0.0016488447,-0.012539862,50.0,78.0,0.0023928226,1114658,1168,-3790,-795,-8
48967518,4196,0,1.1523107,0.19768742,-10.092182,0.025400633,-0.006879546,-0.07974826,49.875,78.0,0.0023928226,1114658,1579,-548,-8105,10905
49069367,4199,0,0.3438567,-1.2431365,-9.908223,0.036990106,-0.0029736722,-0.04812174,50.0,78.0,0.0023928226,1114658,34,1973,-6771,2049
49172268,4156,0,-0.9221457,-0.8693333,-9.592881,0.04975058,0.009743061,-0.03786005,49.875,78.0,0.0023928226,1114658,-786,2922,-5831,10908
49269917,4200,0,-0.82525355,0.7315264,-9.921599,-0.046569746,0.021896813,-0.045979653,49.875,78.0,0.0023928226,1114658,187,-532,-3141,8193
49370717,4199,0,1.2446016,1.405948,-9.457398,-0.024948621,0.009977717,-0.057071,49.875,78.0,0.0023928226,1114658,-1398,-5149,-4761,2048
49472608,4219,0,-0.8136565,1.3447795,-7.458003,0.06288585,-0.005640745,-0.030906456,50.0,78.0,0.0023928226,1114658,2540,5852,-6434,8193
49575468,4194,0,0.2911618,0.2446518,-7.0356126,0.06593244,0.00095955865,-0.03529754,49.875,78.0,0.0023928226,1114658,678,1493,-5675,10911
49677328,4170,0,-2.8399017,-0.2803962,-8.053054,0.053392455,0.015395742,-0.04332726,49.875,78.0,0.0023928226,1114658,234,10673,-650,2049
49779215,4248,0,-1.7732676,0.54481554,-8.030442,0.08081902,-0.003448619,-0.014575561,50.0,78.0,0.0023928226,1114658,2038,7713,-1841,10922
49881059,5291,0,1.6964072,-0.19868189,-8.666531,-0.048129473,-0.00093576335,-0.05808686,50.0,78.0,0.0023928226,1114658,215,-6252,-3491,10917
49982867,5243,0,-2.784706,-1.0125813,-8.432471,0.0056583337,-0.00790646,-0.04572896,50.0,78.0,0.0023928226,1114658,-913,7045,-5490,-8
50083668,4200,0,0.70857024,0.45481104,-10.566959,-0.016176658,0.019777253,-0.05322175,49.875,78.0,0.0023928226,1114658,-521,-2413,866,2048
50185547,4230,0,0.84141916,1.5713944,-9.079703,0.037438825,-0.0007711309,-0.025496107,50.0,78.0,0.0023928226,1114658,513,-808,-3602,10930
50286341,4183,0,-0.7701613,2.3395321,-9.358025,0.0067899204,0.010854128,-0.06143182,50.0,78.0,0.0023928226,1114658,271,5288,-6238,10927
50387169,4252,0,-0.29893932,0.9941776,-10.590123,-0.046635527,-0.009849632,-0.024794973,50.0,78.0,0.0023928226,1114658,886,678,398,10916
50488967,6276,0,1.6494272,-0.50786453,-11.092768,-0.01849676,-0.02206189,-0.08830161,50.0,78.0,0.0023928226,1114658,1885,-4424,-1963,0
50595089,4270,0,-1.209891,-0.32471058,-9.803743,-0.016257914,0.0049275267,-0.021381358,50.0,78.0,0.0023928226,1114658,-226,3530,-4277,9937
50696878,4127,0,-0.90033805,1.8112088,-9.926966,-0.033372022,0.020413537,-0.034794904,50.0,78.0,0.0023928226,1114658,1076,-1211,-1039,10927
50797673,4119,0,1.3048303,2.3702354,-10.499405,-0.0032244646,0.0065874094,-0.07689938,50.0,78.0,0.0023928226,1114658,-549,-5090,-1733,9940
50898469,4096,0,0.4038156,1.9459194,-9.917123,0.0368211,-0.007951972,-0.09000407,50.0,78.0,0.0023928226,1114658,2180,1593,-9321,10929
51002418,4149,0,2.3756578,-1.451914,-11.57013,0.009840723,-0.015468804,-0.058124796,50.0,78.0,0.0023928226,1114658,1766,-4314,-1985,10938
51104268,4168,0,0.67463845,-2.2798345,-11.8530855,0.02296251,-0.012430136,-0.048541375,50.0,78.0,0.0023928226,1114658,258,-1884,965,8192
51205105,4237,0,-0.9963933,-0.11289752,-11.526463,0.033057816,0.0054602353,-0.05157344,49.875,78.0,0.0023928226,1114658,-449,5100,2399,8193
51302717,4199,0,0.06323566,0.25881308,-9.619828,-0.051432867,0.014513438,-0.058880746,50.0,78.0,0.0023928226,1114658,-1643,-3726,-5321,-9
51403518,4198,0,1.5831027,1.5793132,-9.352727,0.0009481365,0.0061281845,-0.047371328,50.125,78.0,0.0023928226,1114658,-1624,-4084,-3832,-9
51507468,4193,0,1.2429774,0.47139108,-10.121508,0.008622089,-0.0059771542,-0.061781365,49.875,78.0,0.0023928226,1114658,641,-4874,-5858,9950
51608275,4175,0,-1.1513923,-1.2006807,-9.805909,0.033727143,-0.011679253,-0.01786789,49.875,78.0,0.0023928226,1114658,806,6438,-2101,10949
51716418,6290,0,-0.4263393,-0.21521415,-8.314063,0.048666816,0.015782848,-0.052674826,50.125,78.0,0.0023928226,1114658,-1703,-1602,-4777,8193
51814106,4239,0,-0.17984185,1.1703027,-8.863867,-0.05294093,0.018690225,-0.053716496,50.0,78.0,0.0023928226,1114658,-554,-2375,-3965,8193
51914869,4202,0,0.36585873,1.4936048,-9.928858,0.031200027,-0.003941876,-0.039962567,50.0,78.0,0.0023928226,1114658,201,2520,1336,8193
52016724,5256,0,-0.22197343,0.1708792,-8.509465,-0.036881976,-0.013447968,-0.04061728,50.0,78.0,0.0023928226,1114658,2937,143,-7839,10941
52118606,5285,0,1.5278713,-1.5251906,-10.878491,-0.024230402,0.00055738667,-0.0758517,50.125,78.0,0.0023928226,1114658,-116,-5259,-979,8193
52220418,5250,0,-0.3951792,-1.2905827,-9.406154,0.04638253,0.01085378,-0.038041867,49.875,78.0,0.0023928226,1114658,-1002,1604,-4421,8192
52321217,4198,0,-1.4243705,1.3030391,-9.001661,0.025032714,0.007033473,-0.047375336,50.0,78.0,0.0023928226,1114658,-354,6667,-2000,8192
52423175,4308,0,-1.3634496,2.0432184,-8.477246,-0.015356994,0.0030718518,-0.02178947,50.0,78.0,0.0023928226,1114658,133,4361,-4587,8193
52528097,4157,0,-0.0050282646,0.32088035,-10.520929,-0.003988666,-0.02041013,-0.011289092,50.0,78.0,0.0023928226,1114658,2483,3208,-1973,8193
52625718,4171,0,2.0669405,-1.3016102,-10.420053,0.023604916,-0.01929777,-0.053164527,50.0,78.0,0.0023928226,1114658,-1031,-3525,-1000,10964
52731768,5251,0,0.6876661,-0.43233675,-10.143012,-0.0058967853,0.01649428,-0.035783175,50.0,78.0,0.0023928226,1114658,-614,-3977,-339,8193
52832607,4220,0,-0.2618318,0.9666684,-8.531941,0.018493095,0.007460155,-0.056810796,49.875,78.0,0.0023928226,1114658,-1469,3216,-5642,8193
52930269,5301,0,1.1017418,1.3019031,-8.973065,-0.029480493,0.011051962,-0.05288119,50.0,78.0,0.0023928226,1114658,-315,-3930,-2665,9967
53033158,4240,0,1.5593189,1.0768263,-10.882879,0.0018549754,-0.0036818683,-0.046086393,50.0,78.0,0.0023928226,1114658,2127,-3006,189,8192
53134967,4147,0,0.3313793,-1.3451803,-9.223089,0.030312264,-0.007375795,-0.053641535,50.0,78.0,0.0023928226,1114658,763,1597,-9752,10964
53237868,4200,0,-0.78157294,-1.9394572,-10.04208,0.03056593,-0.0038219313,-0.045506004,50.0,78.0,0.0023928226,1114658,-1384,3642,-1648,2048
53339718,4200,0,-0.92586815,0.8510177,-8.686978,0.0155784255,0.008023397,-0.05955331,49.75,78.0,0.0023928226,1114658,-89,4937,-6107,-9
53441582,4215,0,-0.9048642,2.0873573,-8.660035,0.010757623,0.002855818,-0.009628229,50.125,78.0,0.0023928226,1114658,359,4027,-3590,8193
53541317,4148,0,-0.4400085,1.3936661,-9.8156,-0.04254052,0.0065946346,-0.040275175,50.0,78.0,0.0023928226,1114658,2230,-905,-5782,8192
53640018,6300,0,0.18558283,1.0466738,-9.83245,0.031704776,-0.012426706,-0.097258605,50.125,78.0,0.0023928226,1114658,1843,-2585,-3102,10968
54859175,5357,0,-0.2473694,-1.6067182,-10.148613,-0.019308163,-0.023800164,-0.027251227,50.0,78.0,0.0023928226,1114658,1235,3781,1157,8193
54964097,4178,0,-0.8447349,-0.24929114,-9.700456,0.042204358,0.0071638217,-0.037465725,50.0,78.0,0.0023928226,1114658,195,5019,-1942,8193
55061718,4151,0,-0.058128014,0.8391016,-9.412968,-0.018315531,0.013181991,-0.012052803,50.0,78.0,0.0023928226,1114658,-650,-1437,-2229,9974
55166717,4199,0,-0.8363705,1.6133554,-9.378472,-0.014236651,-0.012397818,-0.029894028,50.0,78.0,0.0023928226,1114658,515,3316,-1966,16968
55268605,4215,0,-0.0113163665,-0.19274387,-9.733007,-0.011006037,-0.014754297,-0.053732112,50.125,78.0,0.0023928226,1114658,1203,1470,-5042,8193
55370418,4149,0,0.07596007,-1.455226,-10.052582,-0.017053246,-0.011402187,-0.017326877,50.0,78.0,0.0023928226,1114658,1830,124,-5566,10997
55470167,4199,0,-1.1509107,-1.0735178,-9.998326,-0.032841176,0.008892494,-0.04792891,50.0,78.0,0.0023928226,1114658,-1751,1125,-1870,0
55570967,4184,0,-0.13833228,0.56804043,-9.779121,-0.02308652,0.007888113,-0.0012903165,50.0,78.0,0.0023928226,1114658,8,-1416,-58,10996
55670717,5138,0,0.28780237,1.4663509,-10.725156,0.0096163405,0.011804616,-0.07570375,50.0,78.0,0.0023928226,1114658,-1023,-2235,-3837,-9
55773629,6311,0,1.1683631,1.5889633,-9.971934,0.0051260865,-0.0043511693,-0.07010507,50.0,78.0,0.0023928226,1114658,-42,-2275,559,10997
55875468,4185,0,1.6248204,-1.007687,-11.0928135,-0.014481228,-0.011791496,-0.06332976,50.125,78.0,0.0023928226,1114658,1373,-4066,-1317,9970
55979418,4176,0,-0.5386309,-1.6328868,-10.300683,-0.049309418,0.0076087485,-0.04619678,50.0,78.0,0.0023928226,1114658,-939,-1833,-4696,8193
56080240,4222,0,-0.7997495,0.2137265,-9.648625,-0.034585185,0.009113389,-0.008645259,50.0,78.0,0.0023928226,1114658,-830,-5,-480,10992
56182106,4238,0,0.58961684,1.7148061,-9.56166,-0.055201136,0.010853316,-0.048558205,50.0,78.0,0.0023928226,1114658,654,-4796,-4155,8193
56288159,4204,0,-0.08259208,-0.8955287,-9.78033,0.029613445,-0.0039018597,-0.05720286,50.0,78.0,0.0023928226,1114658,509,4812,-8147,11014
56386817,4164,0,1.1259556,-1.2485595,-11.098518,-0.042255584,-0.00981121,-0.036029667,50.0,78.0,0.0023928226,1114658,2727,-3330,-322,16968
56488749,5332,0,1.1480293,-1.9014313,-10.0424795,-0.041573625,0.011939637,-0.034567304,50.0,78.0,0.0023928226,1114658,-924,-5142,-3049,11021
56590518,5251,0,0.4453116,-0.6465202,-10.706255,0.021404363,0.017168151,-0.06042965,49.875,78.0,0.0023928226,1114658,-2238,-3266,687,2049
56689218,4175,0,-0.5995689,1.5558757,-9.107955,-0.03201248,0.0042767404,-0.0073804217,49.875,78.0,0.0023928226,1114658,-795,2995,-597,0
56791168,4300,0,0.5137731,1.2007991,-9.583733,-0.04064359,0.0023508603,-0.07567202,50.125,78.0,0.0023928226,1114658,-742,-1863,-1798,8193
56891893,4225,0,1.6009585,1.0729749,-10.3153,0.03712376,-0.012892216,-0.051430993,50.125,78.0,0.0023928226,1114658,2578,-1374,-3227,11019
56993718,4178,0,0.17671654,-1.5959879,-8.893629,0.04152599,-0.010186795,-0.06994552,50.0,78.0,0.0023928226,1114658,1162,4002,-11321,11024
57101889,4212,0,1.050431,0.2605645,-8.878782,0.0022724825,0.012544313,-0.07197662,50.0,78.0,0.0023928226,1114658,-1980,-3428,-7881,-9
57203718,5238,0,-0.59614426,2.4954956,-9.200657,0.043286297,0.0050219283,-0.049986225,50.0,78.0,0.0023928226,1114658,1266,5025,-4622,8192
57304517,4200,0,-1.0015574,0.36499935,-9.018489,-0.013521496,-0.0099194255,-0.047903318,50.125,78.0,0.0023928226,1114658,-278,5833,-5544,-9
57405318,4156,0,1.066381,-0.30398998,-11.440998,-0.017035691,-0.012480048,-0.06259579,50.125,78.0,0.0023928226,1114658,1253,-1449,1904,8192
57507181,4172,0,1.2332635,-1.7172899,-10.543657,0.0009902308,-0.00129465,-0.051876463,50.0,78.0,0.0023928226,1114658,-1667,-3736,453,11008
57611183,4219,0,0.89478797,0.36088622,-10.450653,0.0067640785,0.006671595,-0.05299754,50.0,78.0,0.0023928226,1114658,-2178,-4140,-83,8192
57715129,5312,0,1.22833,1.9938868,-9.554603,-0.021349449,-0.0010048812,-0.07417849,50.0,78.0,0.0023928226,1114658,254,-4976,-6569,8193
57813768,4192,0,1.5811799,1.5518075,-10.225953,0.017405452,-0.0039323363,-0.04042562,50.0,78.0,0.0023928226,1114658,342,-1133,-1002,9962
57914606,4207,0,0.55817926,-0.6120715,-10.653679,0.03635362,0.0020233798,-0.07893853,50.0,78.0,0.0023928226,1114658,-49,1627,-4895,8193
58018519,4148,0,0.6048128,-1.773404,-10.377455,0.012295207,0.013294032,-0.05814959,50.125,78.0,0.0023928226,1114658,-1696,-2946,-6053,-9
58119333,4184,0,-1.428021,-0.4138934,-10.130672,0.04077758,0.0046315077,-0.044298436,50.0,78.0,0.0023928226,1114658,103,3607,-2247,-9
58221168,4200,0,-0.9766426,1.9003919,-8.479887,0.0366069,0.0068215025,-0.05149787,50.0,78.0,0.0023928226,1114658,829,4804,-8524,8192
58323045,5277,0,-1.6220573,1.4602757,-9.758199,-0.0081724115,0.0019279906,-0.032125372,50.0,78.0,0.0023928226,1114658,876,5754,-1726,2049
58425918,4200,0,-0.6226906,-1.2505547,-9.773318,0.030496433,-0.0055410564,-0.056765366,49.875,78.0,0.0023928226,1114658,318,5756,-6279,8193
58522519,4140,0,1.8107795,-1.2751392,-10.86815,0.0019311765,-0.0061605764,-0.08625164,50.125,78.0,0.0023928226,1114658,-635,-3430,-2190,11045
58629618,5251,0,-0.95726234,0.09433381,-9.33371,-0.05212061,0.021159152,-0.04797218,50.0,78.0,0.0023928226,1114658,-1074,-400,-3089,11046
58730419,4150,0,1.1392437,1.5019262,-10.105546,-0.007878197,0.013514855,-0.022300381,50.125,78.0,0.0023928226,1114658,-613,-4838,991,11054
58834402,5239,0,1.3030871,1.4834529,-10.425126,-0.0051928004,0.0032189772,-0.07576867,50.0,78.0,0.0023928226,1114658,1222,-3004,-2281,9939
58937293,4190,0,2.2573786,-0.97573787,-10.210017,-0.014543408,0.0015788028,-0.03182692,50.125,78.0,0.0023928226,1114658,19,-6134,-3345,-9
59033868,4200,0,0.004449149,-1.1477003,-9.694995,0.0065754303,-0.017652476,-0.03641426,50.125,78.0,0.0023928226,1114658,1356,4344,-4186,9922
59135717,4198,0,-0.99692386,-1.1780714,-10.1053,0.0022118376,0.009829256,-0.04037711,50.0,78.0,0.0023928226,1114658,115,4808,-1106,-9
59241771,4157,0,0.8246102,2.252984,-9.289116,0.02251791,0.0025224523,-0.070679545,50.125,78.0,0.0023928226,1114658,658,-1643,-5190,2048
59339418,5251,0,-0.4350868,1.4279951,-9.23628,-0.026708145,0.008281062,-0.055621028,50.0,78.0,0.0023928226,1114658,-1139,1249,-3002,8193
59442354,4195,0,-0.6918805,0.25132915,-10.041576,-0.013974105,-0.01984952,-0.011571159,50.0,78.0,0.0023928226,1114658,1532,2613,1358,11055
59542108,4215,0,1.8031477,-0.9492185,-9.168708,-0.026160646,-0.007848608,-0.027826926,50.0,78.0,0.0023928226,1114658,1725,-4231,-6527,8193
59647137,4270,0,-0.69154197,-0.21894683,-10.434249,-0.025042946,0.013227368,-0.022273367,50.0,78.0,0.0023928226,1114658,-564,1112,715,8193
59748919,4158,0,-0.59272873,1.4728552,-8.802478,-0.026716357,0.010466957,-0.023987647,50.25,78.0,0.0023928226,1114658,-266,685,-4595,-9
59850792,5252,0,-0.88257605,1.8608055,-9.23777,-0.03861341,-0.0052080927,-0.06692807,50.0,78.0,0.0023928226,1114658,590,877,-5851,2049
59952724,5356,0,-0.50092536,0.9109672,-8.401677,-0.035853907,-0.021961296,-0.029668873,50.0,78.0,0.0023928226,1114658,3167,-434,-3206,9934
60055556,4239,0,-0.8953311,-1.4833198,-9.72471,-0.0008343825,-0.009474142,-0.07149671,50.125,78.0,0.0023928226,1114658,742,3415,-7435,-9
60157368,4198,0,-1.3017886,-0.5699332,-10.131574,0.0066524344,-0.0020319123,-0.03516236,50.125,78.0,0.0023928226,1114658,579,4508,-1203,11054
60259218,5250,0,-1.1194273,1.8731976,-8.219154,0.009582511,0.012994666,-0.026032057,50.125,78.0,0.0023928226,1114658,821,4409,-5650,11067
60360046,4139,0,-0.7554715,1.6674517,-8.898958,0.00972103,0.0072226473,-0.047925565,50.125,78.0,0.0023928226,1114658,-284,6056,-4186,8193
60460821,4131,0,-0.6475473,0.93345493,-10.144414,0.011060826,-0.0012509378,-0.02551092,50.0,78.0,0.0023928226,1114658,2147,4892,-2445,11075
60562667,4199,0,-0.59636617,-1.1849207,-10.059772,0.020607548,-0.013439618,-0.053422794,50.0,78.0,0.0023928226,1114658,-70,3877,-5343,11070
60662426,5258,0,-0.8337382,-1.8192296,-9.610428,0.017004142,-0.0070218197,-0.07601399,50.0,78.0,0.0023928226,1114658,-144,4752,-8025,11078
60764267,5222,0,-1.8034303,-0.43602183,-10.11112,0.021143384,0.0012329002,-0.040054504,50.125,78.0,0.0023928226,1114658,1155,6022,-1707,8192
60869282,4181,0,0.46254897,2.1982052,-10.012945,-0.010099502,0.002930272,-0.06797366,50.0,78.0,0.0023928226,1114658,-1259,-2613,-1210,0
60971158,4218,0,0.01621517,1.3225441,-10.220131,-0.04926988,-0.0035440167,-0.022694968,50.0,78.0,0.0023928226,1114658,1579,-2158,-1448,11085
61075129,4237,0,-1.1593426,-1.1238308,-10.737067,-0.015758818,-0.0019814565,-0.052669805,49.875,78.0,0.0023928226,1114658,1056,4685,-2240,8193
61173768,4195,0,0.6203215,-1.0407397,-10.500453,-0.026276955,4.162478e-05,-0.04338944,50.0,78.0,0.0023928226,1114658,2424,-2866,-4163,11080
61275617,4200,0,-0.65288204,0.198773,-9.64145,-0.009295501,0.0006634911,-0.0019846356,50.125,78.0,0.0023928226,1114658,283,2270,-1329,2049
61377540,5323,0,-1.0818012,1.4598438,-8.309649,-0.011011403,0.009199271,-0.02970292,50.25,78.0,0.0023928226,1114658,337,4382,-5710,11082
61478348,4243,0,-0.8413092,1.6806178,-9.816771,0.009148597,-0.0014048931,-0.06417493,50.0,78.0,0.0023928226,1114658,831,6472,-2301,11084
61580158,4203,0,-0.21734478,-0.06383798,-10.1186905,0.024270954,-0.007942399,-0.037153203,50.0,78.0,0.0023928226,1114658,1914,3918,-3832,-9
61680918,4157,0,-0.29659858,-1.3233931,-9.351882,0.031115107,-0.00943679,-0.03134619,50.0,78.0,0.0023928226,1114658,331,3831,-6967,11085
61782768,4161,0,-0.26196313,-0.5882217,-10.456588,0.036778685,0.012791626,-0.06604313,50.0,78.0,0.0023928226,1114658,-190,2273,-4499,-9
61883606,4238,0,0.8250359,1.0974429,-9.81842,0.025853906,0.0053011994,-0.036848024,50.0,78.0,0.0023928226,1114658,-96,-299,-1664,8193
61985469,4251,0,0.8717925,1.9125495,-8.824739,0.01934371,0.00030185573,-0.04175167,50.0,78.0,0.0023928226,1114658,-12,-1899,-4077,9940
62091467,4187,0,-1.077279,-0.7224529,-11.395329,-0.02161643,-0.008999186,-0.035628006,50.0,78.0,0.0023928226,1114658,2147,1736,-871,11088
62192267,4162,0,-0.7114777,-1.2043698,-10.51121,-0.0203134,0.00030778328,-0.015035297,50.0,78.0,0.0023928226,1114658,-454,3122,273,8192
62294159,4243,0,-1.442255,0.2004599,-8.766413,-0.0020195479,0.012430859,-0.030037316,50.125,78.0,0.0023928226,1114658,-532,5585,-4857,2048
62394937,4190,0,-0.695282,1.2881619,-8.361257,0.013481355,0.0038308955,-0.07098887,50.0,78.0,0.0023928226,1114658,-381,4626,-8059,2049
62496789,4177,0,-0.28768218,1.0987374,-9.47662,0.035709925,-0.007954943,-0.053284656,50.0,78.0,0.0023928226,1114658,846,4862,-2621,11094
62600768,4251,0,1.69295,-1.3649765,-10.515645,0.011948381,-0.011550657,-0.044237368,50.125,78.0,0.0023928226,1114658,9,-3903,-1664,11095
62701549,4231,0,1.1359354,-1.7820975,-10.239701,-0.016987743,-0.007454107,-0.06517585,50.0,78.0,0.0023928226,1114658,-1678,-3618,-1544,11101
62803367,4171,0,0.15970747,-0.14695674,-9.371194,-0.034181606,0.013147483,-0.05421089,50.0,78.0,0.0023928226,1114658,-930,-2650,-5676,-9
62903142,4192,0,-0.32504588,0.8685339,-9.363131,-0.028502641,0.00944436,-0.04605931,50.0,78.0,0.0023928226,1114658,227,-814,-4895,11102
63003946,4228,0,-0.1717807,1.7358899,-9.34254,-0.021887075,0.0060534896,-0.039717205,50.0,78.0,0.0023928226,1114658,1599,1423,-3552,11102
63107978,4311,0,-0.096322335,-0.22400035,-9.860026,0.03681656,-0.019116726,-0.03259723,50.125,78.0,0.0023928226,1114658,2342,2012,-4338,-9
63212871,4072,0,0.055398874,-1.3736212,-10.016665,-0.042363558,0.01502974,-0.061592657,50.125,78.0,0.0023928226,1114658,-1375,-1552,-3452,11112
63314723,4205,0,-0.8407548,1.2232418,-9.735804,-0.0042784866,0.00904781,-0.054844804,50.0,78.0,0.0023928226,1114658,478,2791,-3289,2049
63416605,5288,0,0.7073897,1.4762567,-8.971291,0.03209639,0.0035922122,-0.040062614,50.0,78.0,0.0023928226,1114658,705,3862,-2899,8193
63515268,4112,0,-0.16516113,1.5213907,-9.231504,0.03032546,-0.0047470517,-0.021846956,50.125,78.0,0.0023928226,1114658,3603,3098,-6202,11105
63619252,4183,0,1.4328828,-1.881523,-9.980635,-0.0048776916,-0.00800784,-0.047114268,50.125,78.0,0.0023928226,1114658,-1228,-3247,-5283,8192
63720030,4161,0,-0.070326865,-1.557858,-10.178133,-0.03940493,-0.0048456015,-0.05433177,50.0,78.0,0.0023928226,1114658,-864,-1165,-5586,-9
63821879,4211,0,-0.5812758,0.11151447,-10.026919,0.018008247,0.009801818,-0.07278882,50.0,78.0,0.0023928226,1114658,-857,4395,-779,2048
63922667,4197,0,0.4785427,1.8938413,-9.581141,0.031470314,0.0019357947,-0.06653758,50.125,78.0,0.0023928226,1114658,1997,131,-5828,8192
64022417,4171,0,1.7816011,1.375132,-10.568439,0.00020833948,0.001772744,-0.05157012,50.0,78.0,0.0023928226,1114658,-938,-4141,-706,-9
64123247,4152,0,0.02496359,1.4249425,-10.202169,-0.028084988,-0.0015002524,-0.026813604,50.0,78.0,0.0023928226,1114658,2609,449,-1081,9952
64229274,4173,0,0.5725485,-1.5691406,-10.376752,-0.0024365806,0.0033431288,-0.05096811,50.125,78.0,0.0023928226,1114658,-2089,-1235,-4059,8193
64331142,5274,0,-0.80704963,-0.39746267,-9.550775,-0.021174986,0.019654345,-0.04828523,50.0,78.0,0.0023928226,1114658,-1918,1248,-4142,11121
64434017,6300,0,-0.38690004,1.5654175,-9.885534,0.015464939,0.017930955,-0.072065644,50.125,78.0,0.0023928226,1114658,278,357,1553,2048
64535940,4273,0,0.4204615,1.927369,-8.885544,-0.026636804,0.0005739735,-0.014818698,50.125,78.0,0.0023928226,1114658,89,-614,-3031,11131
64635618,4195,0,-0.56528944,0.5766837,-9.23993,-0.0054980824,-0.006090566,-0.056986846,50.125,78.0,0.0023928226,1114658,1504,4492,-7627,-9
64736417,4199,0,0.0054143234,-0.64368206,-9.8739195,0.037274238,-0.006157402,-0.06893224,50.0,78.0,0.0023928226,1114658,1992,4016,-6767,2048
64838316,4211,0,0.91349286,-0.40937862,-10.977146,0.0011289363,0.0059158173,-0.06126142,50.0,78.0,0.0023928226,1114658,488,-3452,1421,11121
64940158,4218,0,0.3653648,0.9205156,-9.227283,-0.012197338,0.002275918,0.0037917953,50.0,78.0,0.0023928226,1114658,403,-1989,-2418,11113
65040918,4179,0,-0.71264434,1.5360757,-8.497086,-0.013653582,-0.0032045203,-0.025052529,50.0,78.0,0.0023928226,1114658,1885,1543,-6293,9953
65144883,4075,0,0.55196965,-0.39765188,-10.436221,0.037786648,-0.010096563,-0.060869552,50.125,78.0,0.0023928226,1114658,223,768,-1136,9961
65244689,5322,0,0.78110117,-1.115615,-10.778876,0.021611951,-0.015175413,-0.06910779,50.125,78.0,0.0023928226,1114658,1874,-1548,-4756,9962
65349618,4148,0,-0.76609695,-0.030641586,-9.22626,-0.018384881,0.014385973,-0.037977245,50.125,78.0,0.0023928226,1114658,-880,392,-7529,11135
65451468,4200,0,-0.014930395,1.377025,-9.015414,0.010103503,0.019253625,-0.045844544,50.0,78.0,0.0023928226,1114658,-1450,2998,-3049,9984
65552268,4163,0,-0.41639286,1.6969347,-9.556129,0.026034521,0.009295712,-0.03967276,50.25,78.0,0.0023928226,1114658,1648,4121,-4400,11126
65654159,4241,0,1.3739793,-0.3186019,-10.365537,0.010292076,-0.021381086,-0.05252211,50.125,78.0,0.0023928226,1114658,1243,-906,-586,11139
65755999,4231,0,0.88130283,-1.1517605,-9.750019,-0.017644452,-0.0021262718,-0.037676055,50.0,78.0,0.0023928226,1114658,921,-2611,-7899,11136
65855717,4199,0,-0.21765253,-0.45748633,-8.608426,-0.00780071,0.0013702895,-0.033885725,50.0,78.0,0.0023928226,1114658,-52,885,-7257,-9
65959667,5250,0,0.47620475,1.0036924,-10.394931,0.024518026,0.013606747,-0.0724886,50.125,78.0,0.0023928226,1114658,-1050,2289,-2194,8192
66062605,4230,0,0.3810587,1.120786,-9.732189,-0.03583328,-0.003911907,-0.01141601,50.125,78.0,0.0023928226,1114658,893,-2272,-572,8193
66160262,4231,0,0.2699737,0.32045886,-10.798376,-0.020676931,-0.005897174,-0.029228806,50.125,78.0,0.0023928226,1114658,1692,-547,1379,11142
66261026,4195,0,0.011524994,-1.2021675,-10.338987,-0.022714231,-0.011919285,-0.029106263,50.0,78.0,0.0023928226,1114658,1557,248,-2353,9967
66364968,4177,0,0.09567615,-0.7595298,-9.728577,0.006436029,0.007129577,-0.04440012,50.0,78.0,0.0023928226,1114658,-1619,-1316,-2795,9967
66471069,5295,0,0.44974658,1.1289899,-9.605431,0.038529858,0.0038634092,-0.064969,50.0,78.0,0.0023928226,1114658,-73,1731,-2424,9987
66571869,4251,0,0.16905168,0.1741006,-11.265796,-0.015778784,0.0010439744,-0.049205083,50.125,78.0,0.0023928226,1114658,181,-361,2246,9969
66673670,4146,0,0.08462452,-0.7457019,-10.626684,0.01734268,0.0011400323,-0.038816515,50.125,78.0,0.0023928226,1114658,1241,3721,-310,-8
66774494,4175,0,0.866518,-1.0605721,-11.081503,0.0014854597,0.0077903946,-0.02505648,49.875,78.0,0.0023928226,1114658,454,-2782,1543,-8
66878418,4143,0,0.2885149,0.807629,-9.050289,0.021594375,0.0032455004,-0.04722469,50.125,78.0,0.0023928226,1114658,-267,2059,-5590,11146
66977118,4200,0,0.42515808,1.6689708,-9.552547,0.01625919,0.0020977764,-0.036205117,50.125,78.0,0.0023928226,1114658,-528,-390,-2094,11149
67081100,4194,0,-0.0016248944,1.347356,-9.746011,0.009130424,-0.010057534,-0.085312456,50.125,78.0,0.0023928226,1114658,1304,4500,-5134,8193
67180820,5231,0,1.4528375,-0.044268884,-10.562334,0.017941,-0.0132421395,-0.07524461,50.125,78.0,0.0023928226,1114658,933,-1414,-4614,11156
67281618,4172,0,-1.0605732,-1.4971977,-10.829118,-0.022451218,-0.008722008,-0.049698867,50.125,78.0,0.0023928226,1114658,1534,2974,-2503,11162
67385603,5286,0,1.4373287,-1.0701813,-10.103832,-0.0027256226,8.091246e-05,-0.035495993,50.0,78.0,0.0023928226,1114658,-33,-4594,-2268,8193
67486400,4233,0,-0.31855124,0.78328204,-8.855476,-0.028334761,0.015564146,-0.0038673254,50.125,78.0,0.0023928226,1114658,779,237,-4066,11152
67588217,4197,0,-0.73843545,1.6057085,-8.642159,0.014232456,0.002316153,-0.02882707,50.125,78.0,0.0023928226,1114658,587,4973,-4169,11156
67693263,4245,0,1.0652231,-0.78092325,-10.554068,-0.03478787,-0.003745329,-0.05611687,50.125,78.0,0.0023928226,1114658,-14,-2583,-1778,-9
67795163,4296,0,-0.261655,-1.1142672,-10.475849,-0.009868164,-0.0038650257,-0.018971216,50.125,78.0,0.0023928226,1114658,638,2297,966,8193
67896918,5250,0,-0.89659745,-0.012297644,-9.210914,0.0175826,0.004317191,-0.028258936,50.125,78.0,0.0023928226,1114658,-608,4514,-1991,11166
67997718,4163,0,0.67011076,2.0564628,-8.69104,0.029818976,0.009839616,-0.042692196,50.25,78.0,0.0023928226,1114658,-433,298,-5697,11164
68096431,6261,0,0.25326753,1.3764586,-8.6802225,0.01508609,0.002735306,-0.07176142,50.125,78.0,0.0023928226,1114658,-254,3642,-6714,8192
68200367,4199,0,1.0088003,0.0792318,-10.417838,0.007984643,-0.011378872,-0.051314257,50.0,78.0,0.0023928226,1114658,2009,-2830,-242,8192
68302271,4253,0,1.5500399,-1.5736855,-10.531699,-0.005452575,-0.0070223594,-0.064671315,50.0,78.0,0.0023928226,1114658,-16,-3695,-5998,9992
68403075,4231,0,0.5498629,-0.9642474,-11.037674,-0.0052325963,0.0068303524,-0.01841905,50.0,78.0,0.0023928226,1114658,-1264,-2164,3104,9985
68504868,4094,0,0.4035931,0.6175236,-9.860141,-0.0020045969,0.011922872,-0.05719183,50.0,78.0,0.0023928226,1114658,6,-1633,-4371,-9
68606717,5200,0,0.7402343,1.4684429,-9.646266,-0.013004961,0.0038751923,-0.03692851,50.0,78.0,0.0023928226,1114658,55,-2170,-875,8192
68709618,4172,0,1.4423541,-0.42322442,-11.845208,-0.018900242,-0.009035725,-0.040179983,50.125,78.0,0.0023928226,1114658,369,-2275,3005,8193
68812517,4200,0,0.39158127,-1.5607562,-10.802263,-0.038683303,0.0044236802,-0.04932578,50.125,78.0,0.0023928226,1114658,417,-3436,-4558,8192
68914417,4248,0,0.18396553,0.27514726,-9.484573,-0.01572993,0.011341477,-0.01646128,50.125,78.0,0.0023928226,1114658,-489,-1004,-2807,11167
69014119,4201,0,1.1352345,1.916643,-10.667246,-0.011394959,0.011888744,-0.048903532,50.0,78.0,0.0023928226,1114658,-686,-4577,2821,8192
69118080,5262,0,0.45095336,2.145947,-10.909242,-0.030630834,-0.004306289,-0.075460404,50.0,78.0,0.0023928226,1114658,856,-2470,756,8193
69218867,4176,0,1.3835402,-0.654544,-10.657641,-0.019771248,-0.010938332,-0.05892972,50.0,78.0,0.0023928226,1114658,1483,-4691,-6456,0
69317577,4200,0,1.1744257,-1.5354428,-10.917036,0.03217792,-0.0034482689,-0.05738313,50.125,78.0,0.0023928226,1114658,1844,549,-5111,8193
69419417,5223,0,-0.4716709,-1.9645743,-9.2389,0.015117008,0.0018900245,-0.074980676,50.0,78.0,0.0023928226,1114658,-811,3783,-7906,8192
69521268,5250,0,-2.1292944,0.5454698,-8.616774,-0.0006664988,0.012272897,-0.011530873,50.125,78.0,0.0023928226,1114658,-45,4776,-4174,-9
69622100,4232,0,-0.22562751,2.091968,-9.53627,-0.031531326,0.015532655,-0.035543878,50.125,78.0,0.0023928226,1114658,-236,384,-250,8193
69726064,5252,0,-0.15908073,1.1703655,-8.914749,-0.038483948,-0.010307627,-0.047657367,50.125,78.0,0.0023928226,1114658,2229,-2593,-6750,2049
69828961,4196,0,1.1634626,-1.630755,-10.087204,-0.02857298,-0.009308861,-0.01363016,50.125,78.0,0.0023928226,1114658,1134,-3424,-1733,-9
69930770,5250,0,0.7340342,-1.5761898,-10.686365,0.023744,0.005362303,-0.06650496,50.0,78.0,0.0023928226,1114658,448,-1186,-2744,2049
70027368,4169,0,-0.06882964,-1.1143726,-10.58659,-0.03711745,0.012673044,-0.0040109367,50.125,78.0,0.0023928226,1114658,-1349,-2465,378,8192
70131321,4146,0,0.07644648,1.4677541,-9.393643,-0.039482407,0.021125846,-0.04564362,50.125,78.0,0.0023928226,1114658,-1412,-2693,-1769,8192
70232137,4164,0,0.98113364,1.6397918,-9.046185,-0.012972473,-0.015127128,-0.039758243,50.125,78.0,0.0023928226,1114658,-68,-4146,-4616,8192
70333968,4200,0,1.5030638,-0.09765351,-10.791985,0.024786975,-0.012389207,-0.055443667,50.0,78.0,0.0023928226,1114658,2331,-761,-2418,-9
70435870,5270,0,-0.79017794,-1.823939,-9.107716,0.012022395,0.00032247056,-0.07575449,50.25,78.0,0.0023928226,1114658,-1368,3720,-8568,9989
70536645,4209,0,-0.22975683,-0.4562424,-10.1900215,-0.029751401,0.008757362,-0.031612847,50.125,78.0,0.0023928226,1114658,-78,-1564,-761,2049
70640598,5272,0,0.9189879,1.2921766,-8.70581,-0.029705461,0.008723186,-0.061371416,50.125,78.0,0.0023928226,1114658,-906,-4001,-5178,8193
70737167,4200,0,-1.3226689,2.366108,-9.3683605,0.019402223,0.019091332,-0.073055096,50.125,78.0,0.0023928226,1114658,480,4857,-4922,8192
70841158,4240,0,0.551967,1.1377963,-9.912828,0.038061205,-0.013613094,-0.060758326,50.125,78.0,0.0023928226,1114658,2290,2286,-3178,11212
70941918,4200,0,-1.5749816,-0.20051445,-10.826122,0.021697002,-0.00688371,-0.031029377,50.125,78.0,0.0023928226,1114658,1347,6652,-1240,8193
71043768,4168,0,-0.8115145,-1.4905323,-9.356581,-0.008190152,-0.0032282982,-0.04553594,50.125,78.0,0.0023928226,1114658,-1086,3325,-4482,8193
71146689,4221,0,-1.0438482,0.53526926,-9.348506,0.015661076,0.0065875673,-0.038135882,50.125,78.0,0.0023928226,1114658,-1183,5477,-1028,-9
71247501,5212,0,-0.8168812,1.9283051,-8.161502,-0.013591913,0.010895167,-0.020747537,50.0,78.0,0.0023928226,1114658,-25,3011,-5626,-9
71350389,6290,0,-0.67542356,1.9604918,-9.794109,-0.01830357,-0.0029691379,-0.06070827,50.125,78.0,0.0023928226,1114658,1483,5644,-1802,8193
71452217,5244,0,-0.90877306,-0.20795114,-9.272077,0.00083079527,-0.020434186,-0.041404847,50.125,78.0,0.0023928226,1114658,1482,5605,-5069,2049
71554105,5265,0,-0.38244948,-1.9018437,-10.668407,-0.016945042,-0.015279971,-0.01347174,50.0,78.0,0.0023928226,1114658,1102,2994,972,8193
71650668,4200,0,1.6731158,-1.7870759,-10.362928,-0.00974208,-0.010813229,-0.043943692,50.125,78.0,0.0023928226,1114658,-177,-4303,-2273,11212
71754618,4200,0,0.5504063,-0.32387012,-10.389658,-0.022573086,0.011134696,-0.02196355,50.125,78.0,0.0023928226,1114658,-1493,-3955,120,-9
71858609,4197,0,-0.03722786,2.0340693,-9.32214,-0.041354544,0.009019425,-0.053350184,50.25,78.0,0.0023928226,1114658,452,-1202,-5077,8193
71959368,4162,0,0.7590563,1.6659952,-9.90644,-0.025794359,-0.0039495956,-0.022631863,50.125,78.0,0.0023928226,1114658,1174,-3338,-2080,11224
72061217,4200,0,1.2905222,-0.095536485,-10.687316,0.008621918,-0.009670865,-0.077626325,50.125,78.0,0.0023928226,1114658,75,-3810,-3118,-9
72162017,4186,0,1.9017514,-1.29243,-10.686386,0.029125685,-0.01229183,-0.024360593,50.125,78.0,0.0023928226,1114658,421,-1384,45,2049
72263983,5365,0,-1.3459288,-2.0712638,-9.217443,0.03461003,0.00997055,-0.076596424,50.125,78.0,0.0023928226,1114658,-1124,4157,-8793,11213
72366775,4158,0,-1.5697316,0.73504305,-8.72896,0.03341033,0.0030156272,-0.02616494,50.125,78.0,0.0023928226,1114658,-368,6136,-2685,2048
72468645,4224,0,-0.69335747,2.2368152,-9.195965,-0.0059172884,0.0205106,-0.06591527,50.125,78.0,0.0023928226,1114658,-785,3714,-5614,2049
72571518,4174,0,-0.69868374,1.3058369,-9.769158,-0.01559436,-0.0018025443,-0.0038623977,50.125,78.0,0.0023928226,1114658,2334,2818,-3691,2048
72671268,4120,0,1.9477364,-0.14887369,-10.272068,0.014522363,-0.010937574,-0.0652063,50.25,78.0,0.0023928226,1114658,693,-4596,-6103,11223
72772105,4121,0,0.04112717,-1.6237248,-10.454112,0.040116508,-0.005657583,-0.03364083,50.0,78.0,0.0023928226,1114658,1554,4089,-2587,8193
72876033,4164,0,-1.3546398,-0.42602226,-9.442836,0.0033128725,0.0036246285,-0.056697797,50.125,78.0,0.0023928226,1114658,-1003,5502,-6162,11222
72974733,4215,0,0.72962016,0.12590393,-9.847251,-0.0038713038,0.015296295,-0.06838077,50.0,78.0,0.0023928226,1114658,-227,-3667,-1187,8193
73076606,4239,0,-1.1354915,2.283723,-8.75972,0.04517899,-0.00073465734,-0.040944494,50.0,78.0,0.0023928226,1114658,1031,1407,-5460,8193
73178420,4109,0,-0.36720702,1.4541886,-8.760557,0.034345124,-0.0052263853,-0.064430505,50.125,78.0,0.0023928226,1114658,1284,6554,-8354,11224
73280268,5189,0,-0.7530529,-0.44792303,-10.804466,-0.036345717,-0.014574194,-0.03408902,50.125,78.0,0.0023928226,1114658,2839,950,-2114,11231
73381113,4246,0,1.1246014,-1.2270402,-9.939489,-0.03635596,-0.0011143901,-0.03630754,50.125,78.0,0.0023928226,1114658,722,-5637,-4535,8193
73487144,4226,0,-1.3165544,1.2376598,-9.3356085,-0.03148305,0.017189218,-0.018076679,50.125,78.0,0.0023928226,1114658,-1598,2909,-1871,11225
73587918,5240,0,0.9668479,1.3794738,-8.973322,-0.014810326,0.0020821283,-0.046550114,50.25,78.0,0.0023928226,1114658,834,-4097,-7839,9980
73687668,4167,0,1.1016443,1.848151,-9.888908,0.021783521,0.0016344897,-0.070264995,50.25,78.0,0.0023928226,1114658,-31,-1810,-1199,9984
73788467,4157,0,-0.23478131,-0.0015898217,-10.396397,0.03627166,-0.002302206,-0.04653509,50.0,78.0,0.0023928226,1114658,1264,4667,-2549,11236
73888218,5240,0,0.13752383,-0.6703485,-10.527735,-0.038999822,-0.022281645,-0.023983981,50.125,78.0,0.0023928226,1114658,3947,-1470,-1500,11227
73990106,5288,0,0.634188,-1.074667,-9.73179,-0.028224887,0.004746732,-0.019075261,50.125,78.0,0.0023928226,1114658,65,-2370,-140,8193
74095147,4279,0,0.034079824,1.4884161,-9.62997,-0.037474774,0.017712595,-0.038725667,50.0,78.0,0.0023928226,1114658,-71,-2189,1837,8193
74199085,4267,0,1.8447928,1.1763937,-10.723244,-0.024224,-0.0011152714,-0.024782134,50.125,78.0,0.0023928226,1114658,2362,-4647,-408,9981
74299902,4285,0,1.0025896,-0.5606948,-9.471961,0.045638025,-0.013132022,-0.03723071,50.125,78.0,0.0023928226,1114658,1895,77,-4721,9983
74401668,4152,0,-0.30769208,-1.6851984,-9.029153,0.012911391,-0.0007640531,-0.054768912,50.125,78.0,0.0023928226,1114658,-631,1232,-10339,9980
74502475,4115,0,-1.0608456,-0.18041678,-9.661876,0.0064990562,0.008896387,-0.049290627,50.125,78.0,0.0023928226,1114658,-2011,5658,-426,2048
74604318,4178,0,-1.2136793,1.6244042,-8.99855,-0.0048310542,0.002047742,-0.012112397,50.0,78.0,0.0023928226,1114658,-362,2480,-1720,8192
74706212,5274,0,-1.3564821,1.7758008,-9.281361,-0.01855187,0.00048264244,-0.0596477,50.125,78.0,0.0023928226,1114658,1618,3686,-4879,2049
74808018,5250,0,-0.6058803,0.68530416,-10.554245,-0.026263773,-0.016096415,-0.01749944,50.25,78.0,0.0023928226,1114658,3242,2470,-811,9986
74908848,4173,0,0.34672642,-1.0957608,-10.146072,-0.029254267,-0.0044068526,-0.03245109,50.0,78.0,0.0023928226,1114658,1229,-1737,-5149,0
75013818,4200,0,-1.0776676,0.06654092,-9.729319,-0.0029559277,0.016366739,0.008893558,50.0,78.0,0.0023928226,1114658,-238,2696,-2586,11241
75115668,4192,0,-1.2137575,1.230282,-8.774053,-0.010565547,0.02095966,-0.040853836,50.125,78.0,0.0023928226,1114658,-1480,2187,-6434,-9
75217554,5287,0,-0.7314799,1.6211212,-10.130861,-0.02551707,0.0008605756,-0.050158493,50.125,78.0,0.0023928226,1114658,32,2969,39,11256
75319378,5220,0,-1.3749735,-0.19264376,-9.607488,-0.029814374,-0.023412747,-0.035976943,50.25,78.0,0.0023928226,1114658,1160,3285,-3528,-9
75420203,4189,0,-0.31306216,-1.6590598,-10.271245,-0.034725435,-0.005399338,-0.05311705,50.0,78.0,0.0023928226,1114658,1138,1168,-4240,-9
75522058,4240,0,-0.34469667,-0.24798508,-9.683627,-0.0353962,0.005264079,-0.010531293,50.125,78.0,0.0023928226,1114658,1668,-1807,-3010,2049
75622818,4199,0,0.63025564,0.64132667,-9.462387,-0.005796543,0.020457795,-0.026873156,50.125,78.0,0.0023928226,1114658,-974,-4516,-1987,2048
75724741,4245,0,0.65803266,2.1244466,-9.38139,0.025536876,0.012125029,-0.07600933,50.125,78.0,0.0023928226,1114658,-341,-1690,-2960,11238
75825540,4237,0,-1.3005683,1.7750367,-9.746225,0.034490515,-0.0063721216,-0.03680161,50.125,78.0,0.0023928226,1114658,1689,6858,-3544,11254
75927318,4168,0,-1.1688284,-0.34315845,-9.343353,0.022798024,-0.019834062,-0.057321444,50.125,78.0,0.0023928226,1114658,1495,6159,-7104,-9
76031268,4113,0,-1.3703222,-2.0896423,-9.8836355,0.027007073,-0.007487075,-0.01321336,50.125,78.0,0.0023928226,1114658,1020,5535,-5457,11263
76132084,4191,0,-1.8625685,-0.47885323,-9.646615,-0.007234342,0.009475715,-0.057649966,50.125,78.0,0.0023928226,1114658,-664,4892,-4675,8193
76229717,4167,0,-0.056502555,-0.6677257,-10.236266,-0.014001144,0.015687088,-0.07261188,50.125,78.0,0.0023928226,1114658,-2767,-3556,-811,11254
76743195,4227,0,-0.8146939,0.52455693,-9.64602,0.043061364,0.005339256,-0.032321896,50.125,78.0,0.0023928226,1114658,77,5198,-1776,11253
77150570,4170,0,-0.18334426,-2.1434383,-10.136468,0.035088446,-0.0071757426,-0.028483769,50.125,78.0,0.0023928226,1114658,34,3351,-4475,8193
77252417,4199,0,-2.0137901,-0.4831651,-9.503959,-0.01588388,0.004602017,-0.058543917,50.125,78.0,0.0023928226,1114658,-1442,5706,-2960,8193
77356368,4182,0,-1.7563604,2.4395673,-8.0926695,-0.010596343,0.018586485,-0.018880384,50.25,78.0,0.0023928226,1114658,481,3661,-6278,8192
77457168,4196,0,0.8935677,1.8905417,-10.174316,-0.02629601,0.0058069355,-0.065044925,50.25,78.0,0.0023928226,1114658,1054,-4135,-2389,8193
77559069,4251,0,1.0840328,0.20588572,-9.497276,0.046568736,-0.00997634,-0.039593454,50.25,78.0,0.0023928226,1114658,1304,-372,-3944,10011
77658793,5247,0,-1.1083436,-1.3349922,-9.73905,-0.017966723,-0.017349452,-0.0554268,50.125,78.0,0.0023928226,1114658,355,3518,-5359,0
77759600,4234,0,0.5852567,-1.5121925,-10.609054,-0.028580794,-0.000264357,-0.022925105,50.125,78.0,0.0023928226,1114658,947,-3399,-407,8193
77863518,5150,0,-0.8770614,-0.18727316,-10.57778,-0.012158152,0.027607244,-0.05622594,50.25,78.0,0.0023928226,1114658,-581,-3859,-1372,10008
77962289,4272,0,-0.26554158,1.5581058,-9.343134,0.051093817,0.016381701,-0.027414678,50.125,78.0,0.0023928226,1114658,-456,3352,-4140,10006
78064124,4199,0,-0.8978664,1.6162668,-8.388632,0.009437623,0.0020177283,-0.05095484,50.25,78.0,0.0023928226,1114658,362,5205,-8223,8193
78164868,4122,0,0.70288324,1.2329183,-10.520147,-0.03580242,-0.0068707946,-0.02598002,50.25,78.0,0.0023928226,1114658,3690,-2780,-2603,11281
78270933,4215,0,-1.5195853,-1.3836435,-10.462018,-0.0074981274,-0.005289642,-0.05634676,50.0,78.0,0.0023928226,1114658,-674,6003,-55,2048
78368613,5295,0,1.1628855,-1.3137192,-10.784205,-0.017960304,0.019402282,-0.05900384,50.125,78.0,0.0023928226,1114658,-1506,-5891,-541,8193
78470461,5294,0,0.5323526,0.19562297,-9.212742,0.030752428,0.01005861,-0.043683443,50.25,78.0,0.0023928226,1114658,-1989,-2426,-2514,-9
78573327,4209,0,1.3492991,2.3954577,-10.5559,-0.01715015,0.0022026848,-0.057193194,50.125,78.0,0.0023928226,1114658,223,-4284,1006,8192
78675171,5254,0,1.4545007,0.8236764,-9.266804,0.021784585,-0.01875701,-0.049807813,50.125,78.0,0.0023928226,1114658,2238,-3718,-7009,11287
78778105,4238,0,0.8752097,-1.0617869,-10.320317,0.0048769563,-0.014322313,-0.050131902,50.25,78.0,0.0023928226,1114658,2776,-3717,-2866,8193
78879968,5300,0,0.6740027,-1.5658869,-9.472572,0.025143204,0.0006976751,-0.024177086,50.125,78.0,0.0023928226,1114658,-210,-1250,-3715,10015
78976517,4158,0,-1.3377527,-1.1430928,-9.069787,-0.03691634,0.0032767104,-0.04287755,50.125,78.0,0.0023928226,1114658,-546,2643,-4802,16968
79080469,4202,0,-0.7109507,1.5846747,-9.255753,-0.028292345,0.006659635,-0.03886348,50.0,78.0,0.0023928226,1114658,-1431,4119,13,-9
79182367,4209,0,-0.3822834,1.5650674,-8.795088,-0.037945386,0.006671483,-0.021670455,50.0,78.0,0.0023928226,1114658,1962,-336,-7010,11282
79282106,5288,0,1.286437,1.0032647,-9.271185,0.04008606,-0.00663243,-0.06904624,50.25,78.0,0.0023928226,1114658,490,-1311,-5637,8193
79384967,4150,0,1.5501297,-1.2535383,-11.048127,0.009682782,-0.004852947,-0.049411837,50.25,78.0,0.0023928226,1114658,611,-2734,-1840,8192
79488919,4173,0,0.31007767,-0.85414726,-9.832064,-0.016243162,0.014147462,-0.058402877,50.125,78.0,0.0023928226,1114658,-2269,-4210,-4519,0
79590771,4167,0,0.67949075,1.2810907,-9.752387,-0.0032259007,0.0017516577,-0.03418211,50.125,78.0,0.0023928226,1114658,-1158,-3786,1213,2048
79696818,5191,0,-0.41515374,1.5091579,-10.206752,-0.030499263,-0.018033283,-0.027487328,50.125,78.0,0.0023928226,1114658,2927,808,-2697,11292
79799752,4235,0,-0.9641671,-0.9189152,-10.480839,-0.003493385,-0.012024793,-0.060911987,50.125,78.0,0.0023928226,1114658,1643,4550,-3944,8192
79901604,4236,0,-0.91328734,-1.5068964,-9.918375,-0.0028522315,-0.0037111538,-0.035980877,50.125,78.0,0.0023928226,1114658,17,3960,-2257,8193
80003422,5255,0,-0.8739254,0.038038254,-9.219284,-0.014388787,0.022988798,-0.05792066,50.125,78.0,0.0023928226,1114658,-488,3928,-3472,-9
80104256,4212,0,-1.0792357,1.3314164,-8.925709,-0.014727275,0.014715284,-0.012935476,50.125,78.0,0.0023928226,1114658,-1472,4211,-1986,-9
80206105,4237,0,-0.8765196,1.3487765,-9.308127,-0.026261386,-0.0017556023,-0.0514756,50.125,78.0,0.0023928226,1114658,583,3732,-4552,8193
80307942,4188,0,-1.2084564,0.2201937,-10.293235,-0.026709076,-0.014436175,-0.029958466,50.25,78.0,0.0023928226,1114658,1304,3262,-2525,10012
80406637,4198,0,0.9313392,-0.91329205,-10.659031,-0.031936996,-0.008639451,-0.014397138,50.0,78.0,0.0023928226,1114658,203,-3249,614,2048
80508467,4200,0,1.46618,-1.338496,-9.976533,-0.04633153,0.015436103,-0.032938283,50.25,78.0,0.0023928226,1114658,-1388,-6899,-4176,8192
80610360,5254,0,-0.046812166,0.027155556,-10.748559,-0.0071526417,0.01724791,-0.07805767,50.125,78.0,0.0023928226,1114658,-2742,-1796,1830,11309
80712168,5218,0,1.3401273,1.7322797,-9.164308,-0.0024257712,0.002198027,-0.039690007,50.25,78.0,0.0023928226,1114658,-1151,-3908,-2645,11309
80812967,4158,0,2.2140675,1.6096998,-9.528536,0.0010352574,-0.008040721,-0.06382265,50.25,78.0,0.0023928226,1114658,235,-4906,-5389,11293
80916918,5243,0,-0.035342775,-0.97535735,-10.735008,-0.021498978,-0.00877955,-0.035825312,50.125,78.0,0.0023928226,1114658,185,-5141,-1595,11297
81013567,5291,0,-1.0167458,-1.1062897,-9.62447,0.017511541,-0.021489944,-0.030096402,50.125,78.0,0.0023928226,1114658,1033,4855,-2336,8192
81119605,4238,0,2.1613379,-0.71854717,-9.694496,0.014529418,0.00063431356,-0.020485368,50.125,78.0,0.0023928226,1114658,-1433,-3990,-3279,8193
81218374,4269,0,-2.2517211,1.0083951,-8.893334,0.021404782,0.013634576,-0.024199847,50.125,78.0,0.0023928226,1114658,-1115,5893,-2370,11315
81322289,4272,0,0.21258181,2.5439107,-9.398829,0.034560286,0.0024687324,-0.022403205,50.125,78.0,0.0023928226,1114658,1158,4581,-1537,10007
81423053,4191,0,-1.5552443,0.7689228,-9.177423,0.0076329354,-0.007042549,-0.054706108,50.125,78.0,0.0023928226,1114658,1243,5035,-7495,8193
81524909,4163,0,-0.3382079,-1.1518301,-10.856429,-0.021548703,-0.01208173,-0.027104765,50.125,78.0,0.0023928226,1114658,2372,1391,-2786,-9
81624678,4261,0,0.695266,-1.6970054,-9.931191,-0.029268205,-0.0031830226,-0.031066041,50.125,78.0,0.0023928226,1114658,-873,-3925,-2539,10011
81725469,4252,0,0.4629142,-1.7176284,-10.624961,0.03623325,0.0047130575,-0.057833023,50.25,78.0,0.0023928226,1114658,508,-788,-340,10001
81831468,4175,0,1.5269136,1.8233392,-10.111168,-0.010209296,0.0044489596,-0.040040515,50.25,78.0,0.0023928226,1114658,-748,-4479,-178,-9
81933317,5212,0,0.020590736,2.7059724,-8.528436,0.041721176,-0.008857584,-0.07326271,50.125,78.0,0.0023928226,1114658,2723,2091,-8942,-9
82034157,4239,0,-0.8209432,0.01874727,-10.144374,-0.00857392,-0.0056856126,-0.028601846,50.0,78.0,0.0023928226,1114658,1180,5062,-1874,-9
82138105,5265,0,-0.7395504,-1.6496918,-10.092458,-0.06653486,0.0053931805,-0.07183038,50.25,78.0,0.0023928226,1114658,161,-1591,-3226,8193
82239997,5327,0,1.3226006,-0.38295454,-8.453695,0.00010908021,0.009169342,-0.026187629,50.25,78.0,0.0023928226,1114658,-820,-5021,-5667,11330
82340785,4259,0,0.09129672,1.5267423,-10.072197,0.033167373,0.0074524176,-0.059613857,50.125,78.0,0.0023928226,1114658,69,3753,1557,-9
82442616,4205,0,-1.4537863,1.2182113,-8.565746,-0.037715647,-0.0001562127,-0.01810631,50.25,78.0,0.0023928226,1114658,1344,3449,-3944,8193
82543368,4167,0,1.1854861,-0.34175363,-9.809342,0.04868134,-0.008410032,-0.08554766,50.25,78.0,0.0023928226,1114658,73,510,-5616,11339
82643180,5312,0,-0.59225243,-0.7025871,-10.37153,-0.026435444,-0.002499016,-0.06136477,50.25,78.0,0.0023928226,1114658,1291,3281,-2707,-9
82744012,4295,0,-0.0652898,-1.9140992,-9.451879,-0.045961335,0.00039248963,-0.027381409,50.25,78.0,0.0023928226,1114658,-738,-2506,-5340,-9
82849968,4200,0,-1.432002,1.9605303,-8.392825,-0.03967024,0.011377259,-0.025649572,50.125,78.0,0.0023928226,1114658,48,1870,-6677,11323
82946608,4234,0,-0.70046574,1.7271173,-9.389283,0.045669664,0.007103217,-0.07428181,50.125,78.0,0.0023928226,1114658,-392,4985,-5045,8193
83052669,4251,0,1.652298,1.075087,-9.959867,0.022714617,-0.0023338934,-0.08952054,50.125,78.0,0.0023928226,1114658,253,-916,-5376,9987
83149218,4182,0,0.21453924,0.24638209,-10.682859,-0.047904268,0.0037219645,-0.049866747,50.25,78.0,0.0023928226,1114658,1517,-2390,-1069,0
83253168,4200,0,0.679457,-1.4031564,-10.027517,-0.050978553,-0.0075622266,-0.05447981,50.125,78.0,0.0023928226,1114658,599,-4083,-5381,-9
83355069,4252,0,0.7780225,-0.42241445,-9.592172,0.024548825,0.0115993805,-0.03204944,50.125,78.0,0.0023928226,1114658,-851,-3184,-132,9973
83455889,4272,0,-1.4699206,1.0990889,-8.069055,0.022250237,0.0021141965,-0.054159913,50.125,78.0,0.0023928226,1114658,-926,5638,-8616,9979
83557679,4117,0,-0.30118555,2.0366871,-9.443519,-0.03771439,-0.0012624159,-0.006164028,50.25,78.0,0.0023928226,1114658,1457,-1494,-1266,8192
83657478,4260,0,1.295269,1.3501998,-9.385281,0.03689547,-0.0077514015,-0.067280896,50.125,78.0,0.0023928226,1114658,842,-1246,-7304,9974
83762418,4173,0,2.071793,-1.5007383,-10.186509,-0.016357921,-0.00843437,-0.05371637,50.125,78.0,0.0023928226,1114658,1108,-5362,-5991,11339
83862187,4220,0,-0.27900705,-1.3941616,-10.545737,0.030664241,-0.0010057301,-0.043993212,50.125,78.0,0.0023928226,1114658,700,1467,-3152,2049
83962967,4152,0,-1.7731208,0.027789239,-8.888332,-0.008283459,0.0037399312,-0.047436517,50.125,78.0,0.0023928226,1114658,-787,5489,-6742,-9
84064818,4149,0,-1.049137,1.6580306,-8.48331,-0.025784614,0.011879895,0.0028503505,50.125,78.0,0.0023928226,1114658,-92,1936,-3199,9984
84168836,4235,0,-0.88054925,1.1326808,-10.296967,-0.035031106,-0.0035507565,-0.03428098,50.375,78.0,0.0023928226,1114658,2534,1530,-2866,0
84269607,4240,0,1.7481685,-0.26119432,-9.824515,-0.027180647,-0.013181931,-0.035371296,50.25,78.0,0.0023928226,1114658,2265,-5451,-7106,2048
84373564,4243,0,0.19300458,-0.73269135,-9.988105,-0.028555317,0.0036401444,-0.017685985,50.125,78.0,0.0023928226,1114658,971,-2871,-1717,11332
84474374,4216,0,0.4934735,-0.5737375,-10.085917,0.016877577,0.0137295,-0.087173715,50.25,78.0,0.0023928226,1114658,-1520,-2205,-2667,11351
84574106,5247,0,-1.1825093,1.1619049,-9.324254,-0.01917253,0.01875493,-0.016016193,50.25,78.0,0.0023928226,1114658,305,2248,-2808,8193
84679152,4285,0,-1.8994681,1.5560987,-9.687296,-0.02021226,-0.012957403,-0.035221703,50.25,78.0,0.0023928226,1114658,-220,6114,-199,8193
84780918,4144,0,0.9666501,-0.05980523,-11.359543,-0.05161841,-0.010737513,-0.04440442,50.25,78.0,0.0023928226,1114658,2690,-1948,-644,11346
84879638,4218,0,0.03536948,-1.7086536,-9.732636,0.034907088,-0.012625244,-0.029703869,50.375,78.0,0.0023928226,1114658,1527,4666,-7214,-9
84983605,4237,0,-1.7824045,-1.6356907,-9.596521,0.020319259,0.0042244536,-0.0282417,50.125,78.0,0.0023928226,1114658,-497,5355,-3681,8193
85080179,4167,0,-0.8697119,-1.9410641,-9.517437,0.044362474,0.017283473,-0.06823241,50.125,78.0,0.0023928226,1114658,-1052,4274,-9277,11347
85184161,4162,0,-1.3260866,1.6407518,-8.5123415,-0.026661938,-0.00052632194,-0.046823982,50.125,78.0,0.0023928226,1114658,400,2600,-7072,11347
85284935,4180,0,1.6769197,1.5547789,-8.594253,0.022675665,0.002211565,-0.047978263,50.0,78.0,0.0023928226,1114658,1157,-2092,-3644,9962
85386772,5232,0,-0.13486315,0.050993156,-11.125895,-0.052296884,-0.017857539,-0.03309351,50.25,78.0,0.0023928226,1114658,2556,-191,569,8192
85487606,4239,0,2.0685332,-1.7853416,-11.376141,0.042506147,-0.0055117453,-0.06190978,50.25,78.0,0.0023928226,1114658,599,-1770,61,8193
85593618,4149,0,-1.3588364,0.39181235,-9.114735,0.057969168,0.007911607,-0.016708985,50.25,78.0,0.0023928226,1114658,-876,6405,-4196,11355
85690245,4228,0,-0.6648336,0.33941478,-8.505911,0.038942598,0.0064893775,-0.062576614,50.25,78.0,0.0023928226,1114658,-2551,2596,-7782,2049
85792096,4159,0,1.3479267,1.7017435,-10.070348,-0.043734144,0.0028356076,-0.022460967,50.125,78.0,0.0023928226,1114658,1195,-5327,-4811,8193
85896032,4143,0,-0.008103588,-0.1486704,-9.238126,0.04808887,-0.008570621,-0.053055346,50.125,78.0,0.0023928226,1114658,79,3566,-7813,11346
85996831,4162,0,2.0458899,-1.2220426,-10.4009075,-0.042466,-0.0037652296,-0.013423666,50.125,78.0,0.0023928226,1114658,2223,-7149,-3938,11346
86097618,4149,0,-2.617712,-1.5035595,-10.243889,-0.0007472791,-0.008149064,-0.026711093,50.125,78.0,0.0023928226,1114658,-295,6579,-732,11360
86201611,4224,0,0.20453613,1.1281726,-10.160263,-0.026292466,0.008906424,-0.008798408,50.125,78.0,0.0023928226,1114658,-368,-2851,-270,8193
86301317,5211,0,-1.6260828,1.7242182,-9.423434,-0.036480155,0.009538879,-0.044167284,50.125,78.0,0.0023928226,1114658,-376,3405,-416,-9
86402161,4243,0,0.8987465,1.2328511,-8.771649,0.042106688,-0.002200222,-0.059075933,50.125,78.0,0.0023928226,1114658,1813,444,-8768,8192
86503968,4201,0,0.13586171,-1.6055675,-10.251648,-0.037871122,-0.01377073,-0.01817456,50.125,78.0,0.0023928226,1114658,828,-1422,-2342,11358
86604769,4169,0,-1.3675361,-1.6645122,-10.084146,0.011875667,0.0061282166,-0.02992403,50.125,78.0,0.0023928226,1114658,-688,4870,-2675,10003
86706617,4199,0,0.99513066,-0.25552395,-10.7373905,0.04554488,0.008800132,-0.037440043,50.125,78.0,0.0023928226,1114658,-576,-1170,1244,16968
86810605,4208,0,-1.750071,2.3929658,-9.587383,0.015355151,0.007829225,-0.03717618,50.125,78.0,0.0023928226,1114658,595,7753,-195,8193
86911368,4173,0,1.2152593,1.5132191,-10.283595,-0.009230176,-0.009898923,-0.07732881,50.125,78.0,0.0023928226,1114658,1451,-4875,-3842,11356
87017446,4192,0,0.5266747,-1.1815065,-11.046058,0.03467378,0.0053628883,-0.04359991,50.25,78.0,0.0023928226,1114658,969,2455,-850,8192
87116160,4174,0,0.70911926,-0.36148375,-9.705513,-0.039752394,0.0057843216,-0.01847409,50.125,78.0,0.0023928226,1114658,1075,-3849,-4771,11369
87217967,4199,0,-2.1677005,0.24478142,-9.087192,0.027003478,0.004508653,-0.022337435,50.125,78.0,0.0023928226,1114658,-1285,7784,-1740,11346
87320868,4122,0,-0.19616413,1.9048843,-10.172312,-0.056432366,0.0070547545,-0.03941443,50.125,78.0,0.0023928226,1114658,1166,-2489,199,11371
