timestamp,integral_dt,error_count,x,y,z,x_integral,y_integral,z_integral,temperature,range_m_s2,scaling,device_id,x_raw,y_raw,z_raw,temperature_raw
52487350,4000,0,0.7249305,-0.124875225,-10.000849,0.0022902712,0.0043984894,-0.041540522,47.232685,156.9064,0.0047884034,1442826,-146,-178,2030,4416
52587354,3991,0,0.32932505,1.4333432,-9.610015,0.00045831618,0.0012460765,-0.038054474,47.260387,156.9064,0.0047884034,1442826,71,36,1951,4426
52691350,3934,0,0.6666072,0.27745578,-10.453091,0.004128363,0.01740536,-0.034703285,47.232685,156.9064,0.0047884034,1442826,-818,-198,1546,4416
52791388,4029,0,-0.19582959,-2.8463535,-10.535382,-0.0009508883,-0.0038020615,-0.0421393,47.25208,156.9064,0.0047884034,1442826,-246,-130,2148,4423
52891364,4013,0,0.09125277,-0.8749836,-10.411431,-0.0007883628,-0.016592935,-0.045405336,47.265926,156.9064,0.0047884034,1442826,621,110,2331,4428
52995353,3996,0,0.037338328,-0.9197724,-10.60564,0.0023786917,0.0023055915,-0.03753146,47.29363,156.9064,0.0047884034,1442826,-281,-250,1543,4438
53095351,3974,0,0.50925803,-0.11345084,-10.063646,0.004882584,0.009584479,-0.03530814,47.31579,156.9064,0.0047884034,1442826,-485,-240,1984,4446
53199387,4036,0,0.63181865,0.87731665,-9.482771,-6.0190345e-05,-0.0022473454,-0.041318875,47.301937,156.9064,0.0047884034,1442826,315,74,2367,4441
53299414,4007,0,0.11411202,-0.34066674,-9.865172,-0.0015367786,-0.007768845,-0.03907323,47.32133,156.9064,0.0047884034,1442826,416,132,2296,4448
53399408,4024,0,-0.07419761,-0.79038656,-10.084339,0.0016204552,0.005850738,-0.037184544,47.32964,156.9064,0.0047884034,1442826,-557,-257,2030,4451
53503398,4027,0,1.0488408,1.5712196,-9.480065,0.0032532993,0.00011799659,-0.041485082,47.33518,156.9064,0.0047884034,1442826,353,109,2410,4453
53603378,4000,0,0.53526664,0.44623545,-9.986616,-0.00652837,-0.012691159,-0.043025747,47.31302,156.9064,0.0047884034,1442826,865,417,2235,4445
53703371,3993,0,-0.6180221,-1.2079155,-10.2885895,-0.001769681,-0.0013113506,-0.041142497,47.37673,156.9064,0.0047884034,1442826,74,-13,2058,4468
53807357,3979,0,1.1243647,0.8095982,-9.633421,0.009759051,0.010027851,-0.034567337,47.3795,156.9064,0.0047884034,1442826,-414,-239,1929,4469
53907350,3988,0,1.0959697,1.1600504,-9.54127,-0.0069541577,-0.0032377485,-0.041787677,47.36288,156.9064,0.0047884034,1442826,304,604,2054,4463
54011363,3976,0,-0.26816446,-0.5347706,-10.147945,0.005382783,0.0035332013,-0.038706377,47.38781,156.9064,0.0047884034,1442826,-62,-473,2219,4472
54111351,3983,0,1.2731991,1.0760264,-9.753052,0.0055945097,0.0054835114,-0.03946521,47.396122,156.9064,0.0047884034,1442826,235,61,1990,4475
54215390,4033,0,-0.6677803,-0.75567895,-10.336855,0.012170737,0.0049523674,-0.03585811,47.38781,156.9064,0.0047884034,1442826,-451,-895,1697,4472
54315391,4036,0,0.38591823,0.12840152,-9.8683195,-0.0114854835,-0.0066905427,-0.04519936,47.412743,156.9064,0.0047884034,1442826,276,505,2225,4481
54415351,3992,0,0.65138817,-0.21398664,-9.85198,-0.010750343,-0.010774757,-0.03968875,47.415512,156.9064,0.0047884034,1442826,240,498,2343,4482
54519351,3986,0,0.83077544,0.46993268,-9.675728,0.0063387332,0.006770979,-0.02712226,47.42105,156.9064,0.0047884034,1442826,-264,65,2622,4484
54619389,4038,0,-0.47726166,-0.9771139,-10.31361,0.00040073635,-0.009294186,-0.046061613,47.445984,156.9064,0.0047884034,1442826,57,-584,2802,4493
54719397,4026,0,0.8169111,0.3731315,-9.910331,0.022324562,0.00038206193,-0.050267022,47.434902,156.9064,0.0047884034,1442826,-329,-455,1697,4489
54823384,4013,0,-0.60176605,0.42367172,-9.663612,0.002120029,0.0012203162,-0.04383485,47.473682,156.9064,0.0047884034,1442826,119,-709,2289,4503
55543392,4036,0,-0.7981478,-0.08690329,-10.050355,0.0037931686,0.003999044,-0.05156369,47.548477,156.9064,0.0047884034,1442826,-148,-1021,1968,4530
55643357,4006,0,-0.06323041,0.22587155,-10.535722,0.00823902,-0.0006777388,-0.026090953,47.548477,156.9064,0.0047884034,1442826,330,-1246,1162,4530
55747359,4008,0,0.62369186,0.021214433,-9.980099,-0.005367309,-0.0063869455,-0.039615557,47.542934,156.9064,0.0047884034,1442826,-260,825,2087,4528
55847351,3984,0,0.45617867,0.48241818,-9.47194,0.0064958683,0.00021178246,-0.033294655,47.531857,156.9064,0.0047884034,1442826,116,82,1965,4524
55947351,3990,0,-0.20376608,0.76799935,-10.96783,0.0072913654,0.009073152,-0.04146261,47.559555,156.9064,0.0047884034,1442826,341,-913,1317,4534
56051389,4000,0,0.67560416,0.38758537,-11.367352,0.013421954,-0.0073103714,-0.039715905,47.609417,156.9064,0.0047884034,1442826,134,184,2504,4552
56151386,4035,0,0.46519965,-0.5766308,-10.778244,0.002595365,-0.00766625,-0.03918261,47.578945,156.9064,0.0047884034,1442826,-398,181,3560,4541
56251379,3954,0,-0.042197127,-0.20060563,-11.835713,-0.0031827353,0.0021229004,-0.043109395,47.609417,156.9064,0.0047884034,1442826,-365,458,2276,4552
56355395,4024,0,-0.32460105,0.90185815,-11.522121,-0.001038135,0.0131592825,-0.04225566,47.60111,156.9064,0.0047884034,1442826,-119,-1672,1292,4549
56459371,3968,0,0.33896133,0.8535957,-11.705018,-0.0020948602,-0.007954338,-0.04957599,47.609417,156.9064,0.0047884034,1442826,112,-50,2617,4552
56559391,4013,0,0.07483682,0.07594982,-11.753979,-0.00014336256,-0.008373275,-0.048159048,47.606647,156.9064,0.0047884034,1442826,442,-66,2287,4551
56663378,3993,0,0.42230895,-0.65072936,-11.997762,0.0018439766,-0.0013603827,-0.04043825,47.628807,156.9064,0.0047884034,1442826,-6,17,2641,4559
56763378,3980,0,-0.43331853,0.6183089,-11.32507,0.004254194,0.011757883,-0.0347502,47.609417,156.9064,0.0047884034,1442826,-214,-204,2144,4552
56867366,4016,0,0.4439459,1.8597639,-10.577858,0.0074039446,0.0029534677,-0.044193193,47.63712,156.9064,0.0047884034,1442826,717,-73,2292,4562
56967377,4027,0,0.48370045,-0.13749698,-10.202116,-0.0016291807,-0.0025596174,-0.040846385,47.67313,156.9064,0.0047884034,1442826,185,156,1728,4575
57067377,4007,0,0.5087304,-0.6442081,-9.874137,-0.0048897006,0.0009820625,-0.038753346,47.68421,156.9064,0.0047884034,1442826,-107,449,1897,4579
57171350,3993,0,-0.24955754,0.561934,-9.598902,-0.0024506797,0.00437174,-0.03816159,47.69806,156.9064,0.0047884034,1442826,-427,-627,2428,4584
57271351,4000,0,-0.22822466,1.5392779,-9.759098,-0.0019193303,0.0064182864,-0.039989114,47.69806,156.9064,0.0047884034,1442826,225,-862,2641,4584
57375366,3986,0,0.72760713,0.018279789,-11.05411,0.0017930099,-0.010244893,-0.051905066,47.70637,156.9064,0.0047884034,1442826,138,-117,1303,4587
57475377,3988,0,0.13530628,-0.3511517,-10.719228,0.0014155159,-8.8770874e-05,-0.03431402,47.717453,156.9064,0.0047884034,1442826,-25,-113,2947,4591
57575350,3999,0,0.16667268,-0.53239286,-10.690983,-0.0019030259,-0.0017294323,-0.036292877,47.74792,156.9064,0.0047884034,1442826,-133,459,1667,4602
57679358,4007,0,0.035328448,1.1956019,-9.591314,0.0116231525,0.0043471986,-0.038001128,47.71468,156.9064,0.0047884034,1442826,42,-521,822,4590
57779370,3996,0,0.061170187,1.070524,-9.513435,0.016074294,-0.0040994314,-0.029870735,47.759003,156.9064,0.0047884034,1442826,301,-519,1582,4606
57879371,3967,0,-0.102563016,-0.15533279,-9.205784,-0.0037725733,-0.0016263934,-0.030255686,47.722992,156.9064,0.0047884034,1442826,280,-523,1868,4593
57983387,3961,0,-0.18376292,-0.03169521,-8.915927,-8.798856e-05,0.0051776,-0.025516737,47.797783,156.9064,0.0047884034,1442826,-340,-584,2034,4620
58084951,4001,0,0.043634295,0.71990967,-8.063385,-0.013101457,0.003154985,-0.031494834,47.781162,156.9064,0.0047884034,1442826,-273,330,2345,4614
58184997,4009,0,0.24534883,1.184391,-9.234163,0.008422528,-0.0048954943,-0.020500276,47.759003,156.9064,0.0047884034,1442826,331,-113,618,4606
58288951,3964,0,0.47791025,-0.18080124,-9.55623,0.010964225,-0.00915521,-0.029100139,47.78393,156.9064,0.0047884034,1442826,334,-2,888,4615
58389009,4032,0,0.021168329,-0.24786502,-9.466381,-0.0072923633,0.004419599,-0.04245024,47.825485,156.9064,0.0047884034,1442826,-52,-100,1445,4630
58488971,3994,0,0.3121493,0.37088415,-8.820507,0.002188814,0.006578557,-0.041996296,47.831024,156.9064,0.0047884034,1442826,-358,481,1603,4632
58592979,3987,0,0.13755469,0.5707499,-8.306017,0.011818929,0.0020650788,-0.03629873,47.831024,156.9064,0.0047884034,1442826,912,-337,1937,4632
58692978,4000,0,1.0065259,-0.31073722,-8.63218,-0.011350581,0.0038852417,-0.027670588,47.795013,156.9064,0.0047884034,1442826,4,1396,1329,4619
58792978,4015,0,-0.28670147,-0.18009758,-8.061623,-0.006123127,-0.00027322164,-0.03691595,47.861496,156.9064,0.0047884034,1442826,229,-256,2950,4643
58896983,3977,0,-0.13253179,0.8143935,-8.012452,-0.0076083257,-0.0006868718,-0.03796454,47.869804,156.9064,0.0047884034,1442826,-209,-27,2232,4646
58996951,3991,0,-0.13501301,0.6817389,-9.1508875,0.017564386,-0.00695934,-0.020313514,47.905815,156.9064,0.0047884034,1442826,-76,-1280,-18,4659
59096951,3958,0,0.8292475,-0.14637414,-8.056937,-0.0016573459,0.00021485123,-0.02200082,47.878117,156.9064,0.0047884034,1442826,476,1202,3449,4649
59201024,4067,0,-0.051471982,0.18791175,-8.215439,0.008050027,-0.00062376284,-0.01679257,47.90859,156.9064,0.0047884034,1442826,446,-331,2175,4660
59300951,4000,0,0.008188184,0.6574292,-8.976919,-0.008981265,0.0010513889,-0.050017446,47.92798,156.9064,0.0047884034,1442826,-43,615,1758,4667
59404962,4012,0,0.33244237,-0.17352961,-9.258048,-0.01789765,-0.00015782198,-0.041170403,47.9446,156.9064,0.0047884034,1442826,141,207,1306,4673
59504952,3954,0,0.39817992,-0.7944683,-10.296914,0.0009309272,0.00014578528,-0.034348093,47.94183,156.9064,0.0047884034,1442826,-432,74,-521,4672
59604974,4017,0,0.0039576595,0.07108085,-9.413106,-0.0022694254,-0.0022419565,-0.04506168,47.958447,156.9064,0.0047884034,1442826,237,-578,1081,4678
59708957,4006,0,0.44832176,1.3138144,-9.056355,0.0055712196,0.0020386726,-0.035966486,47.96953,156.9064,0.0047884034,1442826,712,651,2068,4682
59808971,4020,0,-0.14531513,1.01463,-9.909989,0.008139706,0.00012001829,-0.06015701,47.99723,156.9064,0.0047884034,1442826,83,-500,1005,4692
59908995,4024,0,0.18639079,-0.36150256,-9.521103,-0.0072912686,-0.0023568412,-0.05305346,47.97784,156.9064,0.0047884034,1442826,-771,-19,2333,4685
60012971,3983,0,0.28469345,0.04805441,-9.01486,0.013479181,0.013044256,-0.03128812,48.00277,156.9064,0.0047884034,1442826,414,805,3176,4694
60113012,4041,0,-0.22797756,0.9080488,-8.974048,0.014983578,0.00043093204,-0.033295453,48.01385,156.9064,0.0047884034,1442826,-993,-604,2069,4698
60217002,4024,0,-0.12065791,0.7633288,-9.2702675,0.013726431,-0.0024189593,-0.025266469,47.98061,156.9064,0.0047884034,1442826,878,-63,4186,4686
60316979,4001,0,0.33237243,-0.46144336,-10.305634,0.002554424,-0.0022459733,-0.042962573,48.01939,156.9064,0.0047884034,1442826,871,699,1965,4700
60416985,4033,0,-0.020145351,-0.52339727,-10.656601,-0.0005425826,-0.003958616,-0.04195179,48.03601,156.9064,0.0047884034,1442826,-1453,-246,915,4706
60520975,4025,0,-0.16504647,1.3714123,-9.542237,-0.012513497,0.0140348235,-0.05439272,48.069252,156.9064,0.0047884034,1442826,-459,-256,818,4718
60620978,3990,0,0.11874322,1.3241646,-9.91204,-0.0032011345,-0.006110279,-0.05997057,48.066483,156.9064,0.0047884034,1442826,-351,324,2206,4717
60720987,4037,0,0.44834384,0.7432751,-10.358682,-0.0049620857,-0.0050814617,-0.042387526,48.102493,156.9064,0.0047884034,1442826,-235,651,2393,4730
60824974,4024,0,0.040643837,-0.75701976,-10.141919,0.0129203675,-0.007499531,-0.024671338,48.069252,156.9064,0.0047884034,1442826,442,305,4506,4718
60928951,4001,0,-0.0023766465,0.008704514,-10.398326,-0.011337128,0.0015833022,-0.037684802,48.085873,156.9064,0.0047884034,1442826,-1557,362,2357,4724
61028951,3986,0,-0.28452715,1.396975,-10.439639,0.0052280505,0.008873172,-0.040878944,48.09418,156.9064,0.0047884034,1442826,166,92,1584,4727
61128951,3994,0,0.28416163,0.808336,-10.334859,-0.0003750636,0.0019074343,-0.044309586,48.132965,156.9064,0.0047884034,1442826,714,130,3462,4741
61228951,3958,0,0.42513058,-0.24716733,-11.554454,0.010771218,-0.009551154,-0.047257785,48.166206,156.9064,0.0047884034,1442826,552,-332,3259,4753
61332952,3959,0,-0.258263,-0.6144609,-11.43606,-0.009435879,0.0055779093,-0.05351865,48.13019,156.9064,0.0047884034,1442826,-288,-803,1708,4740
61432977,3987,0,-0.14283326,0.5215971,-10.424432,0.005189386,0.0031349694,-0.027443586,48.121883,156.9064,0.0047884034,1442826,-641,383,3655,4737
61532980,3983,0,-0.21495686,1.2966462,-10.826907,-0.0040564938,0.008082545,-0.050531883,48.146812,156.9064,0.0047884034,1442826,-154,-261,818,4746
61636989,4039,0,0.37762135,0.25339022,-11.1967535,-0.007133126,-0.010807411,-0.064735875,48.193905,156.9064,0.0047884034,1442826,-84,-390,925,4763
61736978,4000,0,0.25853178,-0.78330106,-11.041879,-0.0037853897,-0.00094392535,-0.04077494,48.177284,156.9064,0.0047884034,1442826,646,-378,3962,4757
61840979,4001,0,0.06459219,-0.9567029,-10.869719,-0.0017908403,-0.0025831459,-0.039436582,48.218838,156.9064,0.0047884034,1442826,-934,360,1882,4772
61940986,4008,0,0.021060692,1.0415235,-10.084886,-0.0036950265,0.012204529,-0.036085308,48.232685,156.9064,0.0047884034,1442826,64,111,1073,4777
63082570,4020,0,0.10358024,-0.35069683,-10.580751,0.011448003,0.0054498683,-0.042344272,48.34903,156.9064,0.0047884034,1442826,392,-677,-196,4819
63182550,3954,0,-0.016565852,-0.38348278,-10.337014,-0.0160428,0.008122733,-0.050084665,48.33518,156.9064,0.0047884034,1442826,343,31,1591,4814
63286573,4022,0,-0.20799772,1.4667735,-10.275454,-0.013902938,0.013425068,-0.056901366,48.393353,156.9064,0.0047884034,1442826,174,-345,1699,4835
63386590,4033,0,0.15782519,1.475553,-9.9380665,-0.0064508095,0.0018457043,-0.038733248,48.3795,156.9064,0.0047884034,1442826,350,683,3328,4830
63486587,4011,0,0.9332291,0.5240542,-11.076118,0.002620243,0.0010054128,-0.058913358,48.36842,156.9064,0.0047884034,1442826,185,508,1400,4826
63590619,4049,0,0.33972764,-0.9092397,-11.60673,-0.005157957,-0.0017710614,-0.040632837,48.40443,156.9064,0.0047884034,1442826,109,65,722,4839
63690582,3997,0,0.03407175,-0.47244406,-10.925415,0.00822764,-0.0014632422,-0.050293684,48.393353,156.9064,0.0047884034,1442826,-594,82,2097,4835
63790583,4030,0,-0.3894274,1.1738256,-9.645839,0.0008997153,0.015107053,-0.051398404,48.409973,156.9064,0.0047884034,1442826,380,-342,1410,4841
63894580,4002,0,0.016888011,0.578934,-9.651924,0.0012666242,0.001330853,-0.05376906,48.42382,156.9064,0.0047884034,1442826,-360,-52,2506,4846
63998580,3999,0,0.8620512,-0.8694281,-10.017635,-0.0075354497,-0.0028560697,-0.025173727,48.390583,156.9064,0.0047884034,1442826,304,478,1366,4834
64098556,3952,0,-0.36898908,-0.19902466,-9.69195,-0.0077782343,0.015722897,-0.045411944,48.454292,156.9064,0.0047884034,1442826,357,-307,1506,4857
64202550,3960,0,0.19880524,1.0992348,-8.988495,-0.0069175204,0.0055617066,-0.03329685,48.473682,156.9064,0.0047884034,1442826,-1035,339,3792,4864
64306551,3984,0,1.0467973,0.40988964,-10.0234585,0.0005687077,-0.0030593204,-0.019975698,48.476456,156.9064,0.0047884034,1442826,1076,639,1776,4865
64410553,3999,0,0.11443332,-1.0909562,-10.546915,0.008103745,-0.0030349637,-0.044719554,48.470913,156.9064,0.0047884034,1442826,-167,-6,1225,4863
64510603,4052,0,-0.6159255,-0.049435757,-9.908632,-0.007326478,0.011343236,-0.04412153,48.504154,156.9064,0.0047884034,1442826,-386,-894,861,4875
64610551,3990,0,0.39967912,0.89207613,-9.348599,0.0119026285,0.0011060047,-0.03234059,48.498615,156.9064,0.0047884034,1442826,-337,17,1794,4873
64714586,4035,0,0.7729146,1.0935405,-10.162796,0.016643636,-0.0017960746,-0.040107775,48.542934,156.9064,0.0047884034,1442826,534,-203,311,4889
64814550,3999,0,0.11177118,-0.08302035,-9.711431,-0.014881286,-0.004689198,-0.049096055,48.559555,156.9064,0.0047884034,1442826,40,-743,1556,4895
64914565,4014,0,0.5489702,-0.65076494,-10.197213,0.00522485,-0.004776993,-0.037252594,48.523544,156.9064,0.0047884034,1442826,-18,293,1992,4882
65018623,4043,0,-0.21730262,0.37784156,-10.081048,0.017070174,0.00426617,-0.038168795,48.559555,156.9064,0.0047884034,1442826,-265,-107,950,4895
65122652,4078,0,0.4451405,1.1870191,-9.232448,0.014545801,-0.0026917872,-0.04394491,48.576176,156.9064,0.0047884034,1442826,-349,-180,3253,4901
65222586,4012,0,0.027736502,0.28900453,-9.933729,-0.0087469965,-0.0018357319,-0.060094178,48.578945,156.9064,0.0047884034,1442826,-314,-570,1736,4902
65326578,4022,0,0.1755432,-0.64987284,-9.956879,-0.0046994193,0.0039020977,-0.033744022,48.59834,156.9064,0.0047884034,1442826,-154,332,2330,4909
65426597,4009,0,0.18400458,-0.4232666,-9.564592,-0.0008696958,0.005353287,-0.026248889,48.59834,156.9064,0.0047884034,1442826,-332,-67,948,4909
65526553,3937,0,0.21483654,1.1092541,-9.269272,0.011520999,-0.0010012643,-0.032275066,48.603878,156.9064,0.0047884034,1442826,-546,15,2920,4911
65630557,3942,0,0.5621407,0.6551123,-10.328177,0.008663803,-0.010554683,-0.04058162,48.67313,156.9064,0.0047884034,1442826,-598,-251,221,4936
65730575,4019,0,0.05722836,-0.25451374,-10.436041,0.004493607,-0.0013325897,-0.039016824,48.66759,156.9064,0.0047884034,1442826,1347,-440,1903,4934
65834550,3966,0,0.029190447,-0.35487267,-10.109735,0.0053404756,0.0018951976,-0.04594467,48.66759,156.9064,0.0047884034,1442826,144,-363,1934,4934
65934558,3966,0,-0.11258631,0.84519756,-9.57977,0.0005200745,0.009978844,-0.041486632,48.65928,156.9064,0.0047884034,1442826,-170,-204,1678,4931
66038613,4036,0,0.22970374,1.3132411,-9.4147005,0.008759087,0.00046766223,-0.044363238,48.68975,156.9064,0.0047884034,1442826,454,-636,2929,4942
66138609,4053,0,0.43468168,0.20822068,-10.233965,0.0068558785,-0.004010984,-0.04541582,48.67867,156.9064,0.0047884034,1442826,394,-187,1678,4938
66238553,3998,0,0.20324114,-1.0982659,-10.733674,-0.0041438034,-0.0035174163,-0.043138288,48.7313,156.9064,0.0047884034,1442826,132,-300,1690,4957
66342557,4006,0,-0.32119316,0.06827186,-10.0540695,0.0041868906,0.010034003,-0.041077547,48.74515,156.9064,0.0047884034,1442826,192,-850,611,4962
66442584,4033,0,-0.40150407,0.7582484,-9.926852,0.007861721,0.01104566,-0.041810587,48.76731,156.9064,0.0047884034,1442826,-732,-602,1508,4970
66542610,4034,0,-0.46095935,1.5655237,-9.331398,-0.0076490887,0.008662999,-0.045552496,48.75069,156.9064,0.0047884034,1442826,-247,-1370,2446,4964
66646574,3999,0,0.116764955,0.26518664,-10.36208,0.0048133316,-0.01001807,-0.051370658,48.753464,156.9064,0.0047884034,1442826,629,-788,2952,4965
66750588,4017,0,-0.0822153,-1.1170502,-10.197569,0.007757645,-0.009036509,-0.038198378,48.786705,156.9064,0.0047884034,1442826,-1153,-304,1379,4977
66852183,4030,0,0.17864624,0.39562577,-9.468246,0.008420566,0.004156411,-0.043038905,48.80332,156.9064,0.0047884034,1442826,367,-151,2048,4983
66952153,3993,0,-0.12314238,1.3348365,-9.638257,0.011589978,0.0032941364,-0.035640627,48.806095,156.9064,0.0047884034,1442826,152,-449,2135,4984
67056160,4006,0,0.88360125,0.4956367,-9.998026,0.003668229,-0.012223886,-0.029612856,48.817173,156.9064,0.0047884034,1442826,238,526,3224,4988
67156174,3962,0,0.5091521,-0.23728773,-10.469093,0.010259698,-0.00640833,-0.050295155,48.847645,156.9064,0.0047884034,1442826,536,244,1885,4999
67256256,4082,0,0.012371699,-0.95451176,-10.399803,0.0027731592,-0.0045653977,-0.047473144,48.831024,156.9064,0.0047884034,1442826,729,-369,1515,4993
67360199,4025,0,0.0015063807,0.6994224,-9.25503,0.004827425,0.001807485,-0.027498445,48.828255,156.9064,0.0047884034,1442826,-253,-124,2476,4992
67464157,3971,0,0.77846134,1.1924332,-9.61611,-0.0014984062,-0.0017180657,-0.052289188,48.839336,156.9064,0.0047884034,1442826,-537,20,2590,4996
67568181,3997,0,0.130915,-0.92432874,-10.4581,-0.0031287675,0.0015764842,-0.04113564,48.858727,156.9064,0.0047884034,1442826,385,-294,1477,5003
67668182,4000,0,-0.32743433,-1.1146613,-9.837105,-0.009674596,0.0008678688,-0.038703606,48.861496,156.9064,0.0047884034,1442826,-935,-332,3032,5004
67772162,3980,0,0.041579437,1.0484357,-10.007238,0.014739538,0.008631403,-0.0464373,48.90859,156.9064,0.0047884034,1442826,-420,-530,1435,5021
67876199,4034,0,0.49385422,1.2846371,-9.781656,0.0063070226,-0.0030010012,-0.02354862,48.878117,156.9064,0.0047884034,1442826,299,-185,757,5010
67976183,4029,0,0.6735608,0.6726137,-10.504966,0.015379406,-0.006224732,-0.036875796,48.880886,156.9064,0.0047884034,1442826,978,-311,656,5011
68076202,4045,0,0.0077333706,-0.54754096,-10.89136,0.00807624,-0.009119766,-0.047904786,48.914127,156.9064,0.0047884034,1442826,-19,-598,1660,5023
68180190,4036,0,0.2526765,-0.51462793,-9.906709,0.009906655,-0.0018853506,-0.020859899,48.911358,156.9064,0.0047884034,1442826,268,-63,228,5022
68280160,3996,0,0.25863838,0.8263139,-9.722724,0.01323344,0.005666808,-0.032843176,48.939056,156.9064,0.0047884034,1442826,83,-146,1781,5032
68380185,4031,0,-0.078262135,1.2036934,-9.7198925,0.009339369,0.0036820443,-0.033238787,48.952908,156.9064,0.0047884034,1442826,468,-430,2374,5037
68484158,3994,0,0.90569454,0.34355366,-10.154685,0.009615248,-0.010219771,-0.026480371,48.972298,156.9064,0.0047884034,1442826,1090,266,1465,5044
68584155,3957,0,0.53440934,-0.53039104,-10.838906,0.009399794,-0.010427232,-0.040593415,48.99446,156.9064,0.0047884034,1442826,3,375,439,5052
68684198,4040,0,0.3948534,-0.95089376,-10.27133,0.0030217145,-0.0045086043,-0.046663363,48.96399,156.9064,0.0047884034,1442826,-548,148,2206,5041
68788228,4047,0,-0.19135158,0.7358185,-9.566177,-0.0050041405,0.0034439731,-0.038465258,48.99446,156.9064,0.0047884034,1442826,-517,-608,1630,5052
68892188,4010,0,0.51352143,0.90104043,-9.825478,0.011076415,-0.00065953645,-0.031225955,48.975067,156.9064,0.0047884034,1442826,992,288,1842,5045
68992196,4042,0,0.66760665,0.11122152,-10.363558,0.008010806,-0.0068789795,-0.03178421,49.02493,156.9064,0.0047884034,1442826,564,487,2373,5063
69096183,3992,0,-0.47067335,-0.61917883,-10.234846,-0.008352487,0.010440572,-0.04229159,49.05817,156.9064,0.0047884034,1442826,-192,-607,1128,5075
69196192,4011,0,-0.51642734,0.11056523,-9.811807,-0.0017629922,0.011231161,-0.037441336,49.02493,156.9064,0.0047884034,1442826,-494,-1089,2560,5063
69296175,3974,0,-0.28395623,1.0916415,-9.603899,0.005176906,0.0062398505,-0.044886608,49.063713,156.9064,0.0047884034,1442826,-275,-886,3246,5077
69400154,3961,0,0.59017307,0.79894996,-10.410492,0.009907983,-0.0068122027,-0.034000367,49.047092,156.9064,0.0047884034,1442826,722,-209,800,5071
69500153,4000,0,0.49043936,-0.35106742,-10.657756,0.013870563,-0.003980359,-0.04750136,49.07756,156.9064,0.0047884034,1442826,1070,88,1364,5082
69604159,4005,0,0.58066374,-1.0854224,-9.943267,0.0014527035,-0.0047904737,-0.018284239,49.105263,156.9064,0.0047884034,1442826,-761,1373,3343,5092
69704156,4002,0,0.1971371,0.4636515,-9.703492,0.011088015,-0.00041420606,-0.02556901,49.121883,156.9064,0.0047884034,1442826,-557,179,1609,5098
69808154,4000,0,0.43137872,1.5961918,-9.162067,-0.0035034497,0.0030693924,-0.031307403,49.121883,156.9064,0.0047884034,1442826,-544,882,2266,5098
69908201,4047,0,0.66750604,0.6467964,-9.873364,0.0026133258,-0.0075844033,-0.0277773,49.102493,156.9064,0.0047884034,1442826,223,60,2136,5091
70008217,4057,0,0.41078007,-0.12916034,-10.5706215,0.012308042,-0.008149137,-0.04054507,49.09141,156.9064,0.0047884034,1442826,884,-67,1161,5087
70112194,4036,0,0.3965394,-1.054362,-10.1753435,0.009251922,0.001440507,-0.040229414,49.132965,156.9064,0.0047884034,1442826,484,235,1594,5102
70212180,4026,0,-0.55727,-0.0359481,-9.835599,0.0036204495,0.0070678433,-0.04894185,49.171745,156.9064,0.0047884034,1442826,-714,-616,1693,5116
70312183,4009,0,-0.3441781,1.1105294,-9.408051,-0.016314827,0.014176518,-0.05310194,49.174515,156.9064,0.0047884034,1442826,49,-740,1763,5117
70412217,4043,0,0.55035424,1.5127842,-9.289551,-0.0032906053,0.0005884082,-0.038946282,49.171745,156.9064,0.0047884034,1442826,-202,357,2680,5116
70516151,3940,0,0.7407915,0.0036062119,-9.992673,0.004155374,-0.0053079245,-0.026914261,49.177284,156.9064,0.0047884034,1442826,410,653,2020,5118
70616166,3985,0,0.2585396,-0.75427073,-10.188425,0.013882523,-0.007978355,-0.035675656,49.213295,156.9064,0.0047884034,1442826,301,-46,2532,5131
70720171,3989,0,-0.13812013,-0.12114322,-10.038446,0.01063063,-0.0018532507,-0.034631815,49.199444,156.9064,0.0047884034,1442826,-844,-193,2393,5126
70821771,3955,0,-0.09237841,1.2659249,-9.429454,-4.0141516e-05,0.016128028,-0.036121607,49.23546,156.9064,0.0047884034,1442826,77,-526,221,5139
70921819,4021,0,0.42624664,1.3766903,-9.277582,-0.004400271,0.0059278863,-0.03432077,49.204987,156.9064,0.0047884034,1442826,221,643,2747,5128
71021771,3953,0,0.6632332,0.86742306,-10.0572195,0.013753795,-0.012299677,-0.039989352,49.238228,156.9064,0.0047884034,1442826,825,9,3226,5140
71125790,4019,0,-0.017907312,-1.0073285,-10.217342,0.010698976,-0.0009309592,-0.03995178,49.277008,156.9064,0.0047884034,1442826,458,-271,2613,5154
71225778,4000,0,-0.08845549,-0.681247,-9.999778,-0.0057476833,0.0041926177,-0.03269847,49.246536,156.9064,0.0047884034,1442826,-929,372,2397,5143
71325778,4015,0,0.07098472,0.96895915,-9.532235,0.009711605,0.0018207097,-0.037636347,49.27147,156.9064,0.0047884034,1442826,-546,-27,1440,5152
71429784,4032,0,0.19070885,1.620546,-9.892473,0.015301211,-0.009679307,-0.041094407,49.28809,156.9064,0.0047884034,1442826,347,-568,2963,5158
71529792,4036,0,0.43614355,0.15860951,-9.894128,-0.01491931,-0.0010199283,-0.044056516,49.282547,156.9064,0.0047884034,1442826,289,310,2080,5156
71633751,3968,0,0.024010688,-0.9381368,-10.243212,-0.012036654,-0.00024869607,-0.04350562,49.282547,156.9064,0.0047884034,1442826,-617,580,2403,5156
71733751,4001,0,0.26759866,-0.30923918,-10.169545,0.007737673,0.005433554,-0.039965525,49.32964,156.9064,0.0047884034,1442826,-773,-6,456,5173
71837758,4008,0,0.37689677,1.61481,-9.322837,0.0043318397,-0.001071767,-0.052454572,49.3241,156.9064,0.0047884034,1442826,313,385,2183,5171
71937760,3973,0,-0.06535429,0.9698939,-9.990418,-0.0029954421,-0.0017105925,-0.05528469,49.34349,156.9064,0.0047884034,1442826,215,-546,2038,5178
72037759,3959,0,0.7098145,-0.3590474,-10.259857,-0.0015059082,-0.0035577398,-0.033601075,49.35734,156.9064,0.0047884034,1442826,900,685,1396,5183
72141831,4072,0,0.19718242,-0.69887984,-9.842927,-0.010767906,0.008032544,-0.04396817,49.35734,156.9064,0.0047884034,1442826,-423,264,1723,5183
72245787,4030,0,-0.01700266,1.0919633,-9.424534,-0.009906364,0.0119585255,-0.037426874,49.37673,156.9064,0.0047884034,1442826,-264,-238,893,5190
72345751,4000,0,0.24021213,1.0870814,-9.132243,0.006978716,-0.009761458,-0.027896829,49.396122,156.9064,0.0047884034,1442826,-268,-68,3173,5197
72445802,4031,0,0.7155079,0.30541027,-10.017766,0.015254737,0.0003132341,-0.04118504,49.38781,156.9064,0.0047884034,1442826,713,266,2440,5194
72549771,3991,0,0.26996496,-1.2337872,-10.265491,-0.0027433953,-0.0017114333,-0.030609889,49.407204,156.9064,0.0047884034,1442826,94,757,1643,5201
72649771,3963,0,0.3112954,-0.6683727,-9.78684,0.012050068,0.0059335087,-0.019253753,49.41828,156.9064,0.0047884034,1442826,-65,51,1825,5205
72753753,3990,0,0.4884042,1.8129249,-9.344224,-0.00215293,-0.0017895953,-0.032511454,49.407204,156.9064,0.0047884034,1442826,-688,1048,2821,5201
72853766,3988,0,0.68104184,1.7545409,-9.8177185,0.011691613,0.0018906984,-0.027375627,49.432133,156.9064,0.0047884034,1442826,756,-185,1588,5210
72953784,4006,0,0.01514221,0.9718444,-9.966067,0.015125787,-0.0075057144,-0.04685755,49.432133,156.9064,0.0047884034,1442826,60,-626,2670,5210
73057757,4007,0,0.33180767,-1.2713757,-10.793578,0.009642377,-0.009588168,-0.041527342,49.454292,156.9064,0.0047884034,1442826,206,-9,1932,5218
73161758,3974,0,0.52056205,-0.3465627,-9.656857,0.0029678121,0.0008497052,-0.03818904,49.470913,156.9064,0.0047884034,1442826,-1155,312,1246,5224
73261757,3994,0,-0.049499083,1.3195609,-8.873266,0.010341923,0.006392976,-0.03286463,49.493073,156.9064,0.0047884034,1442826,119,-118,4464,5232
73365750,3998,0,0.21114835,0.94043946,-9.885783,0.0079613,-0.012156041,-0.036906723,49.462605,156.9064,0.0047884034,1442826,-52,-508,2700,5221
73465751,3999,0,0.2602836,-0.10308263,-10.3201685,-0.003882841,-0.004661047,-0.046001058,49.520775,156.9064,0.0047884034,1442826,817,-168,1582,5242
73569788,4037,0,-0.4965105,-0.529046,-9.703782,-0.0023416465,0.0057250517,-0.039287858,49.462605,156.9064,0.0047884034,1442826,-99,-588,3029,5221
73669794,4044,0,-0.05866751,0.027673224,-9.242103,-0.0051606884,0.011249338,-0.045193028,49.470913,156.9064,0.0047884034,1442826,-852,-122,2243,5224
73769794,4037,0,0.2562755,1.4212626,-9.240948,-0.0033587902,0.009010633,-0.036593378,49.531857,156.9064,0.0047884034,1442826,64,775,2807,5246
73873751,4000,0,0.030546201,0.61415523,-9.699191,-0.007856635,-0.0031054758,-0.03723675,49.534626,156.9064,0.0047884034,1442826,75,106,2715,5247
73973777,4006,0,0.81765294,-0.5041486,-9.950814,-0.001239693,-0.005269081,-0.029379807,49.565098,156.9064,0.0047884034,1442826,313,537,3266,5258
74073855,4084,0,0.5004258,-1.1750026,-10.287715,0.0010249179,-0.00056379964,-0.040067554,49.565098,156.9064,0.0047884034,1442826,-372,769,1966,5258
74177804,3994,0,0.2367601,0.23568244,-9.731305,-0.005897343,0.0061978055,-0.031888567,49.56233,156.9064,0.0047884034,1442826,-625,290,1103,5257
74279352,3907,0,0.13025984,1.4759916,-9.371531,-0.0016193194,0.007094187,-0.033722393,49.559555,156.9064,0.0047884034,1442826,218,843,1858,5256
74379394,4005,0,0.37347758,1.0464127,-9.834233,0.00016486348,-0.01114867,-0.037345763,49.59834,156.9064,0.0047884034,1442826,664,-104,1785,5270
74483414,4055,0,0.64935654,-0.8122436,-10.004394,-0.008296402,-0.006412494,-0.03126135,49.626038,156.9064,0.0047884034,1442826,15,339,2875,5280
74583371,3992,0,0.059915,-1.2182128,-9.956639,-0.0085799815,0.009222415,-0.03123476,49.578945,156.9064,0.0047884034,1442826,-404,603,1593,5263
74683371,3967,0,0.30405983,-0.49001563,-9.467974,-0.007726242,0.0064379545,-0.025123686,49.6205,156.9064,0.0047884034,1442826,-716,881,2558,5278
74787378,4007,0,-0.22941668,1.5899339,-9.35555,0.006929804,0.0045290547,-0.052341826,49.60111,156.9064,0.0047884034,1442826,153,-566,3022,5271
74891350,3980,0,0.6951551,0.0022691118,-10.360267,0.003011806,-0.0031813236,-0.043983027,49.63435,156.9064,0.0047884034,1442826,383,127,846,5283
74991378,4014,0,0.53132516,-0.6784934,-9.987998,-0.0011795824,0.0016445128,-0.024830613,49.63989,156.9064,0.0047884034,1442826,-373,161,1650,5285
75095392,4007,0,0.42783374,0.44401985,-9.016868,0.004213789,0.00018879678,-0.03529536,49.67036,156.9064,0.0047884034,1442826,146,-191,1884,5296
75195378,4000,0,0.23567918,0.94116455,-9.472191,-0.006634664,0.0065461607,-0.04717294,49.67313,156.9064,0.0047884034,1442826,-290,515,272,5297
75303374,3977,0,0.66553694,-0.49915498,-10.030772,-0.008397843,-0.0027580776,-0.045973107,49.68421,156.9064,0.0047884034,1442826,-472,296,679,5301
75403365,3977,0,-0.12394737,-0.38046873,-10.379897,0.005170515,-0.00029737293,-0.041412063,49.6759,156.9064,0.0047884034,1442826,355,-909,2916,5298
75503358,3957,0,0.73160404,-0.31134638,-9.735661,0.005445657,-0.0023618918,-0.033058118,49.69529,156.9064,0.0047884034,1442826,-661,640,2008,5305
75607377,4024,0,0.035403065,1.065045,-9.705821,0.014140605,0.00026274705,-0.038916834,49.700832,156.9064,0.0047884034,1442826,328,-791,1425,5307
75707362,3986,0,0.7006755,0.65331274,-9.932344,0.0027037084,-0.0044258907,-0.04708374,49.69806,156.9064,0.0047884034,1442826,564,249,969,5306
75807387,4003,0,0.3148786,-0.12926403,-9.7720995,-0.0030072299,-0.0022769389,-0.038460523,49.72853,156.9064,0.0047884034,1442826,-339,-357,3386,5317
75911369,4010,0,0.21992174,-1.2223504,-10.099171,0.0009159311,-0.0005250219,-0.023928093,49.72576,156.9064,0.0047884034,1442826,61,513,1246,5316
76015351,3970,0,-0.1374964,1.0915375,-9.4530525,0.0119542545,0.010441727,-0.035321012,49.756233,156.9064,0.0047884034,1442826,582,-873,1340,5327
76115351,3994,0,0.53434783,0.93231994,-9.780439,0.0104194265,-0.008074272,-0.03283927,49.761772,156.9064,0.0047884034,1442826,120,214,2461,5329
76215379,3996,0,0.64952284,0.62655944,-10.211033,0.0059496337,-0.00570063,-0.049749006,49.72853,156.9064,0.0047884034,1442826,288,-83,1619,5317
76319383,4012,0,0.04452014,-0.77436507,-10.262667,-0.006727634,-0.0009320176,-0.040392492,49.759003,156.9064,0.0047884034,1442826,-563,-276,2383,5328
76419371,3976,0,0.027555557,-0.09564404,-9.976018,-0.0011240088,0.0058678016,-0.03341421,49.792244,156.9064,0.0047884034,1442826,-748,-272,2916,5340
76523397,4019,0,0.16983762,1.3911675,-9.531267,0.0074719195,0.003973698,-0.032108538,49.795013,156.9064,0.0047884034,1442826,609,-553,628,5341
76623371,3993,0,0.078087345,0.5722106,-10.008235,0.005850327,-0.0019471375,-0.03665285,49.786705,156.9064,0.0047884034,1442826,335,-40,2542,5338
76723385,3993,0,0.33154017,-0.7735852,-10.304314,-0.0060929595,-0.004908299,-0.043668777,49.833794,156.9064,0.0047884034,1442826,187,-617,1277,5355
76827350,4000,0,-0.20702174,-0.3721394,-10.296868,0.0047372365,0.004803125,-0.044523943,49.814404,156.9064,0.0047884034,1442826,154,-730,950,5348
76927351,4001,0,-0.57873064,0.485462,-9.74198,0.00062267086,0.011420732,-0.034863774,49.839336,156.9064,0.0047884034,1442826,-257,-414,2021,5357
77027390,3995,0,0.28885734,1.4425822,-9.087893,-0.013623185,0.011396785,-0.04490236,49.822716,156.9064,0.0047884034,1442826,-495,404,2303,5351
77131392,4042,0,0.11135614,0.94679993,-10.083305,-0.0088428315,-0.002168621,-0.04441038,49.850414,156.9064,0.0047884034,1442826,590,-312,2093,5361
77235426,4075,0,0.49907365,-0.94401294,-10.233382,-0.011362061,-0.0034518144,-0.04946884,49.836563,156.9064,0.0047884034,1442826,222,483,2870,5356
77339376,4011,0,-0.106727965,-0.27847672,-9.384056,-0.0037182942,0.009870989,-0.032704357,49.889194,156.9064,0.0047884034,1442826,-1051,419,3783,5375
77436988,4038,0,0.050743576,0.69274306,-9.403336,0.0029832933,0.0102847535,-0.042829655,49.878117,156.9064,0.0047884034,1442826,-130,-59,1847,5371
77540979,4029,0,-0.07449359,1.403927,-9.657794,0.010649434,0.0016742906,-0.034796372,49.897507,156.9064,0.0047884034,1442826,-173,-683,1653,5378
77640953,3996,0,0.5687663,0.20766577,-10.217014,-0.008882195,-0.00434751,-0.06755838,49.92521,156.9064,0.0047884034,1442826,332,182,1993,5388
77744957,3994,0,0.51108974,-1.2336596,-9.881447,-0.01065574,-0.005537085,-0.047233503,49.905815,156.9064,0.0047884034,1442826,-598,1020,4317,5381
77844952,4001,0,0.028469281,-0.59310704,-10.14815,0.012326826,0.00028029236,-0.02256056,49.936287,156.9064,0.0047884034,1442826,-653,-225,1622,5392
77948990,3996,0,0.0412743,1.9099808,-9.732472,0.012412836,0.010801547,-0.038692728,49.94737,156.9064,0.0047884034,1442826,575,-639,463,5396
78048952,3963,0,0.06316145,1.5579177,-9.839657,-0.010243308,0.0031119143,-0.037498686,49.98061,156.9064,0.0047884034,1442826,685,-234,1951,5408
78148951,3974,0,1.0030234,0.6157806,-9.988548,0.0038219334,-0.012491544,-0.022499116,49.98615,156.9064,0.0047884034,1442826,381,492,2587,5410
78252967,4010,0,0.66743696,-0.91109467,-10.75137,0.0042598667,-0.0051313206,-0.030460197,49.952908,156.9064,0.0047884034,1442826,223,248,868,5398
78353009,4032,0,-0.18918228,-0.39558458,-10.011206,0.0030281518,0.0042108926,-0.03730088,49.97784,156.9064,0.0047884034,1442826,330,-804,1330,5407
78452977,4006,0,0.06308892,-0.022665933,-9.3175125,-0.0032748722,0.006320756,-0.024820957,50.01939,156.9064,0.0047884034,1442826,-730,370,2422,5422
78556981,4010,0,0.38390708,1.2292949,-9.75079,-0.007506139,-0.003220562,-0.03396381,50.01939,156.9064,0.0047884034,1442826,82,411,2843,5422
78660950,3972,0,0.8808426,-0.27849457,-9.81392,-0.0023839516,-0.0033726494,-0.014243156,50.02216,156.9064,0.0047884034,1442826,911,1006,3110,5423
78761020,4028,0,0.41385862,-0.9102463,-10.290424,0.0062386873,-0.007667535,-0.03610652,50.03878,156.9064,0.0047884034,1442826,-351,-187,1267,5429
78865029,4051,0,0.3170346,0.4719737,-9.551981,0.001449141,0.002309053,-0.060214065,50.0277,156.9064,0.0047884034,1442826,-891,227,1531,5425
78965006,4027,0,0.28451204,1.5513172,-9.116493,0.0058919927,0.010436859,-0.04129875,50.06094,156.9064,0.0047884034,1442826,1044,178,2049,5437
79068966,4015,0,0.73968375,0.40497863,-10.104956,0.012513705,-0.007757807,-0.032695588,50.05263,156.9064,0.0047884034,1442826,738,721,2335,5434
79172955,3998,0,0.36438212,-1.5117304,-10.129764,-0.008501088,-0.004397544,-0.045914248,50.049862,156.9064,0.0047884034,1442826,-368,1022,2893,5433
79272951,3981,0,0.49337018,-1.1449989,-10.387896,0.002335731,-0.0037697386,-0.027575145,50.083103,156.9064,0.0047884034,1442826,-250,203,1285,5445
79376963,4006,0,0.33363777,1.2066092,-9.110561,-0.002154886,0.007852309,-0.018308716,50.07479,156.9064,0.0047884034,1442826,-15,695,2043,5442
79480954,3971,0,0.6145133,1.0975112,-9.50551,-0.0042637773,0.00055004936,-0.033902336,50.07202,156.9064,0.0047884034,1442826,1267,518,3347,5441
79580951,4000,0,0.49102178,-0.31502792,-10.170171,0.0073729027,-0.012082128,-0.04868837,50.124653,156.9064,0.0047884034,1442826,-42,-417,1938,5460
79685014,4064,0,-0.052131694,-0.80119085,-10.032158,0.0040880293,-0.0041149054,-0.03155532,50.121883,156.9064,0.0047884034,1442826,-489,-125,2378,5459
79784951,4000,0,0.37899,0.54881096,-9.351027,0.01170958,0.009477988,-0.020222235,50.138504,156.9064,0.0047884034,1442826,-174,46,2338,5465
79884951,3955,0,-0.20509389,1.4551922,-9.773414,0.010003316,0.011612477,-0.04025896,50.163433,156.9064,0.0047884034,1442826,-155,-418,665,5474
79984974,3962,0,-0.23173063,1.6402223,-9.905409,0.00065952144,0.0041315574,-0.042855192,50.149586,156.9064,0.0047884034,1442826,585,-1378,1652,5469
80089009,4038,0,0.5732683,-0.46587577,-10.303603,0.0079300525,-0.005049157,-0.046401978,50.146812,156.9064,0.0047884034,1442826,-166,391,2363,5468
80189015,4044,0,0.49042642,-0.9280419,-10.094316,-0.003178122,0.003428663,-0.05055163,50.213295,156.9064,0.0047884034,1442826,498,591,1412,5492
80292963,3985,0,-0.50571805,0.40167892,-9.680492,-0.0076653785,0.01538856,-0.037194006,50.185596,156.9064,0.0047884034,1442826,-72,67,2079,5482
80392979,4001,0,-0.050622635,1.4067901,-9.414691,-0.009496908,0.006277768,-0.04071735,50.174515,156.9064,0.0047884034,1442826,-927,-111,2254,5478
80492953,3974,0,0.0144872,1.308254,-9.721458,-0.0025701122,-0.00064979243,-0.03172828,50.216064,156.9064,0.0047884034,1442826,-422,-285,1653,5493
80594600,4029,0,0.54063416,-0.036593188,-10.179461,-0.0069206897,0.00040342286,-0.03125043,50.204987,156.9064,0.0047884034,1442826,1256,414,1995,5489
80698575,3955,0,-0.02469351,-0.70925343,-10.066476,0.006829966,0.0030397635,-0.02591407,50.224377,156.9064,0.0047884034,1442826,139,-440,1070,5496
80798575,4000,0,-0.28258243,0.14276585,-9.341867,0.006251937,0.004270869,-0.040175367,50.224377,156.9064,0.0047884034,1442826,-472,-310,2698,5496
80898579,3963,0,-0.31390128,1.076606,-9.2838545,0.005048949,0.0058814734,-0.030916838,50.23546,156.9064,0.0047884034,1442826,-861,-1197,2924,5500
81002585,4022,0,0.5697652,1.0211697,-10.026855,0.012096997,-0.0031598448,-0.05426124,50.265926,156.9064,0.0047884034,1442826,222,-298,1786,5511
81106578,4026,0,0.66537434,-0.67575336,-10.328222,-0.006750413,-0.0023672802,-0.028317824,50.277008,156.9064,0.0047884034,1442826,625,933,2824,5515
81206585,4035,0,0.24571621,-0.6635431,-10.194014,0.00040982186,0.01323475,-0.05667784,50.268696,156.9064,0.0047884034,1442826,-301,21,194,5512
81310550,4000,0,-0.35621852,1.1127313,-9.830273,0.00025171088,0.0059220283,-0.042806625,50.301937,156.9064,0.0047884034,1442826,-143,-928,1152,5524
81410551,3994,0,-0.3163583,1.7224178,-9.526297,-0.00017961976,0.0048848246,-0.054139946,50.30748,156.9064,0.0047884034,1442826,276,-614,3347,5526
81514560,4010,0,0.7137193,-0.35388872,-10.909002,0.0047989567,-0.010913951,-0.032200813,50.30471,156.9064,0.0047884034,1442826,967,438,1304,5525
81614565,3983,0,0.43343782,-1.2113364,-10.663669,0.0039049105,-0.009842238,-0.044863485,50.31302,156.9064,0.0047884034,1442826,-292,218,865,5528
81714550,3948,0,0.12049396,-0.48003557,-10.274552,0.009548005,-0.0050075417,-0.03410933,50.31579,156.9064,0.0047884034,1442826,-171,30,1696,5529
81818652,4102,0,0.08822249,1.0486876,-9.768724,-0.0015844409,0.007266801,-0.042136203,50.337948,156.9064,0.0047884034,1442826,-120,-21,413,5537
81918551,3979,0,-0.1277313,1.0345896,-9.69652,-0.0061706873,-0.0015468665,-0.04971304,50.318558,156.9064,0.0047884034,1442826,-544,-430,2354,5530
82022557,4003,0,0.32087326,-0.6664865,-10.755833,0.004398589,-0.00877197,-0.042868815,50.34903,156.9064,0.0047884034,1442826,704,-453,450,5541
82126551,4000,0,-0.14461571,-1.099374,-9.724132,-0.009575837,0.0066633327,-0.04317843,50.32964,156.9064,0.0047884034,1442826,-1121,922,3128,5534
82226586,3979,0,-0.19728689,0.04523149,-9.176035,-0.006046109,0.015080858,-0.035416,50.36565,156.9064,0.0047884034,1442826,-402,352,2279,5547
82326575,3958,0,0.120219626,1.0215508,-8.974119,-0.0026609772,0.0069892486,-0.031166915,50.3795,156.9064,0.0047884034,1442826,-817,386,4916,5552
82430577,4014,0,0.4877281,0.26657632,-9.9689,-0.0016488996,-0.0019462052,-0.054878563,50.415512,156.9064,0.0047884034,1442826,662,-550,576,5565
82530564,3986,0,0.6752801,-0.61563754,-10.063797,-0.0021337494,-0.0039184885,-0.042924434,50.39889,156.9064,0.0047884034,1442826,405,739,2972,5559
83246594,4043,0,0.13365243,1.7953075,-9.589478,-0.0033145025,0.0050005848,-0.031318534,50.45706,156.9064,0.0047884034,1442826,-220,643,2631,5580
83346556,3990,0,0.39733955,0.9390091,-9.913299,-0.0012302666,-0.0056206617,-0.046915054,50.465374,156.9064,0.0047884034,1442826,-351,424,1504,5583
83448186,4033,0,0.84444517,-0.30287126,-9.802938,-0.008080219,-0.005409114,-0.027794242,50.454292,156.9064,0.0047884034,1442826,938,673,2764,5579
83552199,3984,0,-0.48976666,-0.6717923,-9.648029,-0.006555449,0.0020187774,-0.047701463,50.498615,156.9064,0.0047884034,1442826,410,-491,3293,5595
83656205,4052,0,0.019358411,1.0362073,-9.328385,0.008752656,-0.0014712224,-0.03584069,50.479225,156.9064,0.0047884034,1442826,-34,-282,3322,5588
83756195,4035,0,0.10086515,1.3834528,-9.532615,0.005564142,0.0041195084,-0.03495245,50.504154,156.9064,0.0047884034,1442826,169,-327,1386,5597
83856154,4000,0,-0.084166065,0.79578245,-10.01224,0.011346073,-0.0007721675,-0.040649645,50.523544,156.9064,0.0047884034,1442826,352,-1054,952,5604
83960211,4058,0,0.25898772,-1.3164319,-10.725955,0.0010288967,-0.0072348667,-0.0372382,50.551247,156.9064,0.0047884034,1442826,447,180,1025,5614
84060175,3985,0,0.17268747,-0.7972644,-10.230665,0.009453426,-0.0034225367,-0.03147595,50.504154,156.9064,0.0047884034,1442826,-354,108,2062,5597
84164154,3915,0,0.11100748,1.100797,-8.850677,-0.003080336,0.011173578,-0.038363013,50.554016,156.9064,0.0047884034,1442826,-574,782,3602,5615
84264165,4011,0,0.29402262,1.4814974,-9.005812,-0.008142572,0.008530283,-0.04849827,50.548477,156.9064,0.0047884034,1442826,465,1138,2929,5613
84364174,4000,0,0.90593755,0.6622209,-9.878014,-0.0065720496,-0.012620929,-0.04181342,50.565098,156.9064,0.0047884034,1442826,-76,551,2761,5619
84468186,4012,0,0.1290923,-1.0452174,-10.335339,-0.012466264,-0.0032361858,-0.041756257,50.548477,156.9064,0.0047884034,1442826,-1008,-382,1470,5613
84568174,3951,0,-0.014182678,-0.12495269,-9.629858,0.002709621,0.014174842,-0.022948906,50.595566,156.9064,0.0047884034,1442826,300,-421,1834,5630
84668174,3955,0,-0.34925967,0.3742682,-8.872516,-0.0068488824,0.0092305625,-0.030801823,50.576176,156.9064,0.0047884034,1442826,-362,-80,3771,5623
84772181,4000,0,-0.053157587,1.6221322,-9.941261,0.0144270025,-0.002425463,-0.055201165,50.58172,156.9064,0.0047884034,1442826,460,-166,2580,5625
84872185,4000,0,0.11103937,0.8707222,-10.345685,0.006772591,-0.01005286,-0.047384236,50.603878,156.9064,0.0047884034,1442826,698,-799,1882,5633
84972188,4039,0,0.24517491,-0.51260877,-10.559836,0.00157114,-0.005960544,-0.04712213,50.63158,156.9064,0.0047884034,1442826,458,-344,555,5643
85076159,4001,0,0.025343584,-0.34603816,-9.499432,0.001114866,-0.0065540336,-0.03128161,50.61496,156.9064,0.0047884034,1442826,-1083,15,2719,5637
85176180,4027,0,0.2550099,0.9843476,-8.868704,-0.00011208754,0.0018965395,-0.040166993,50.63158,156.9064,0.0047884034,1442826,-620,-27,2198,5643
85280157,3993,0,0.11760971,0.77865726,-9.941921,-0.010580503,-0.0060476717,-0.04572557,50.64266,156.9064,0.0047884034,1442826,-274,-117,2586,5647
85380198,4044,0,0.74433804,-0.4444213,-10.106347,-0.004317595,-0.0025355201,-0.039108526,50.63435,156.9064,0.0047884034,1442826,1039,462,1965,5644
85480174,4016,0,0.46751305,-1.0223228,-9.906001,-0.008468503,-0.00050403347,-0.032392792,50.65374,156.9064,0.0047884034,1442826,-36,677,3121,5651
85584167,3987,0,-0.42448398,0.34068948,-9.914358,0.004923985,0.0068531493,-0.037473366,50.65928,156.9064,0.0047884034,1442826,251,-689,1144,5653
85684158,3994,0,-0.103535876,1.074845,-9.577296,0.0040681255,0.009109398,-0.040322788,50.68975,156.9064,0.0047884034,1442826,72,-649,1322,5664
85788154,4000,0,0.15725505,0.46001992,-10.087782,0.0074247736,-0.0036433619,-0.051530674,50.69806,156.9064,0.0047884034,1442826,1141,-312,2687,5667
85888157,3974,0,0.39938197,-0.7960238,-10.262942,-0.00028079172,-0.010315672,-0.047747996,50.664818,156.9064,0.0047884034,1442826,-406,-291,2330,5655
85988213,4001,0,-0.01828467,-0.97779614,-10.523118,-0.00091114803,0.0013987357,-0.03549854,50.69806,156.9064,0.0047884034,1442826,3,-563,813,5667
86092190,4006,0,-0.0931028,1.055125,-9.541158,0.015156741,0.010660823,-0.038040016,50.71745,156.9064,0.0047884034,1442826,960,-448,1802,5674
86192174,3994,0,-0.10748274,1.6601998,-9.81793,0.010163325,0.0057563237,-0.03673129,50.72576,156.9064,0.0047884034,1442826,-159,-798,1170,5677
86292186,4000,0,-0.10384288,1.0870036,-9.620265,0.003244485,0.001565324,-0.048937812,50.74515,156.9064,0.0047884034,1442826,-30,-711,1728,5684
86397805,4055,0,0.2547504,-0.85784864,-10.231776,0.006859485,-0.0064372467,-0.03061283,50.756233,156.9064,0.0047884034,1442826,856,-307,1941,5688
86497759,4002,0,0.16431692,-0.481388,-9.759695,0.009200945,0.00651196,-0.029203845,50.73407,156.9064,0.0047884034,1442826,-683,-166,2120,5680
86597783,4011,0,-0.69593483,0.56780225,-9.862959,0.0025338847,0.012074253,-0.048185382,50.786705,156.9064,0.0047884034,1442826,-577,-545,2068,5699
86697806,3999,0,-0.22248197,1.563797,-9.122288,-0.005033128,0.008910372,-0.034365933,50.786705,156.9064,0.0047884034,1442826,260,-515,2892,5699
86801785,3972,0,-0.24749133,1.2840848,-10.215532,0.012413431,-0.0072154896,-0.032884747,50.756233,156.9064,0.0047884034,1442826,1324,-1014,1457,5688
86901771,3989,0,0.35017565,-0.4545698,-10.293817,-0.005444783,-0.0056331544,-0.059269864,50.78393,156.9064,0.0047884034,1442826,292,22,2321,5698
87005778,4000,0,-0.19099483,-0.73212355,-9.665487,0.008951529,0.010095367,-0.027262855,50.76454,156.9064,0.0047884034,1442826,172,-23,2583,5691
87105786,4016,0,-0.62610346,0.45443642,-9.65211,-0.0056465217,0.01062814,-0.044148616,50.800552,156.9064,0.0047884034,1442826,69,-663,905,5704
87205778,3974,0,0.18257071,1.4639773,-9.244678,-0.009108069,0.012212232,-0.03767784,50.795013,156.9064,0.0047884034,1442826,136,654,1447,5702
87309793,4036,0,-0.060576126,0.8966688,-10.210239,-0.010400569,0.00013155377,-0.05052318,50.814404,156.9064,0.0047884034,1442826,411,-590,1120,5709
87409762,3974,0,0.999819,-0.5412933,-9.876456,-0.00078866293,-0.0068084523,-0.02898113,50.855957,156.9064,0.0047884034,1442826,-460,900,2441,5724
87509751,3990,0,0.29609117,-1.2850472,-10.681775,0.010150339,-0.0044174427,-0.03934138,50.825485,156.9064,0.0047884034,1442826,978,238,1190,5713
87613796,4046,0,0.46016732,-0.3652005,-9.763457,0.005877202,-0.0023588613,-0.041165233,50.858727,156.9064,0.0047884034,1442826,-695,3,1246,5725
87717758,3976,0,0.51983273,1.3744687,-9.246622,-0.0012815318,0.0074515007,-0.023677973,50.842106,156.9064,0.0047884034,1442826,800,1014,1788,5719
87817759,4002,0,0.35158324,0.9993459,-9.663255,0.016898997,0.001040421,-0.038835876,50.878117,156.9064,0.0047884034,1442826,937,-36,3141,5732
87917759,4008,0,0.10706861,-0.51410985,-10.380257,0.0012904175,-0.0067781117,-0.046543412,50.869804,156.9064,0.0047884034,1442826,-103,-355,1486,5729
88021751,3938,0,0.043070417,-0.5605231,-9.869951,0.007720556,0.007128061,-0.032343198,50.894737,156.9064,0.0047884034,1442826,-366,122,2313,5738
88121788,3999,0,-0.48210007,0.33358195,-9.928341,0.009774074,0.007889062,-0.049972877,50.914127,156.9064,0.0047884034,1442826,-1037,-1106,1329,5745
88221771,3954,0,-0.31675512,1.3304396,-9.31791,-0.000558996,0.013236431,-0.036321647,50.903046,156.9064,0.0047884034,1442826,541,-682,1606,5741
88321775,3997,0,-0.056915827,1.4529004,-9.324885,-0.004067205,0.007015797,-0.03811954,50.92521,156.9064,0.0047884034,1442826,100,228,3949,5749
88425783,4010,0,0.61848277,-0.2900342,-10.220497,0.010489067,-0.004200911,-0.027386919,50.897507,156.9064,0.0047884034,1442826,1147,379,2774,5739
88525778,3957,0,0.046277698,-1.1580415,-10.34743,0.001411531,-0.008696718,-0.045056023,50.972298,156.9064,0.0047884034,1442826,-713,-318,1872,5766
88629778,4015,0,0.022490496,0.36201784,-9.890852,0.010769472,0.005182043,-0.033145297,50.97784,156.9064,0.0047884034,1442826,-126,-59,1315,5768
88729808,4030,0,0.08181336,1.1553096,-9.510125,0.008388681,0.0034359433,-0.03430498,50.98615,156.9064,0.0047884034,1442826,-276,-146,1659,5771
88829780,4000,0,-0.12023382,1.3844414,-9.491137,0.005404989,0.0062275636,-0.045268595,50.958447,156.9064,0.0047884034,1442826,353,-224,1680,5761
88933750,4000,0,0.8257875,-0.52612513,-10.32128,0.007193472,-0.0037118904,-0.03791548,50.98338,156.9064,0.0047884034,1442826,1137,610,1591,5770
89035371,4001,0,-0.18691315,-1.429637,-10.413122,0.004152286,-0.009070896,-0.0287878,50.958447,156.9064,0.0047884034,1442826,-489,-375,677,5761
89135371,3994,0,0.2318458,-0.104707964,-9.770995,0.016236592,0.0053637405,-0.028410785,51.01939,156.9064,0.0047884034,1442826,170,297,2970,5783
89235391,4013,0,0.19822031,1.3057989,-9.355342,-0.0002883511,0.005261603,-0.04650361,51.00831,156.9064,0.0047884034,1442826,371,-36,1723,5779
89339353,3987,0,0.5804244,0.5584765,-9.820411,0.0038662807,-0.012471557,-0.035254057,51.03878,156.9064,0.0047884034,1442826,86,-140,2094,5790
89439378,4008,0,0.29823864,-0.58328444,-9.970749,0.010198496,-0.007977027,-0.028483305,51.04432,156.9064,0.0047884034,1442826,498,1,2267,5792
89543363,4001,0,0.40488112,-1.1816784,-9.855985,0.0029769535,-0.009414698,-0.021293154,51.03047,156.9064,0.0047884034,1442826,281,890,3506,5787
89643351,4001,0,0.09689924,0.3821179,-9.900605,0.009721206,0.005228083,-0.034209758,51.0277,156.9064,0.0047884034,1442826,-92,-85,2123,5786
90659371,3962,0,0.39774835,0.1945745,-8.903967,0.0072422842,-0.0012284294,-0.02552345,51.157894,156.9064,0.0047884034,1442826,-1404,443,3329,5833
90759380,3991,0,-0.41702342,1.3873068,-9.801848,0.014116066,0.00928188,-0.041718032,51.157894,156.9064,0.0047884034,1442826,90,-495,2166,5833
90859392,4014,0,0.51614434,1.3701262,-9.602136,-0.005546583,0.0017410968,-0.043386865,51.193905,156.9064,0.0047884034,1442826,-217,390,2847,5846
90963427,4042,0,0.5227964,-0.73765415,-9.979172,-0.004604307,0.0010778126,-0.041096374,51.155125,156.9064,0.0047884034,1442826,1126,52,3452,5832
91063378,3988,0,0.41577402,-1.2361728,-10.1155405,0.0022610917,-0.002246104,-0.032574292,51.185596,156.9064,0.0047884034,1442826,-83,695,1110,5843
91167370,4020,0,0.23623613,0.26527947,-9.541019,0.0011706902,0.0011491955,-0.032532115,51.180054,156.9064,0.0047884034,1442826,-949,944,3084,5841
91267381,3970,0,0.40094814,1.6407701,-9.177828,0.016601097,0.007825099,-0.026526347,51.193905,156.9064,0.0047884034,1442826,595,56,2471,5846
91367434,4065,0,0.06416602,1.1470555,-9.581101,0.0044525643,0.005669787,-0.046189252,51.199444,156.9064,0.0047884034,1442826,741,431,2765,5848
91471375,4024,0,0.28432775,-0.8618763,-10.008311,0.0034062515,-0.008948287,-0.026263352,51.213295,156.9064,0.0047884034,1442826,238,-750,1295,5853
91571351,4000,0,-0.08465158,-1.121745,-9.93814,-0.011101327,0.0016133812,-0.043728054,51.224377,156.9064,0.0047884034,1442826,-978,-546,2904,5857
91672978,4000,0,-0.49241072,-0.48501244,-9.866456,-0.0073041823,0.010322004,-0.04604467,51.238228,156.9064,0.0047884034,1442826,-381,8,2687,5862
91772997,4047,0,-0.06581805,0.7233582,-9.566801,-0.0013391407,0.013836644,-0.027984673,51.227146,156.9064,0.0047884034,1442826,-143,-479,893,5858
91876950,3987,0,0.082482144,1.2447805,-9.70843,0.009909231,0.004664437,-0.03471864,51.25485,156.9064,0.0047884034,1442826,1068,-515,2056,5868
91976950,3966,0,0.3496656,-0.02479398,-10.313662,0.0054417187,-0.008456035,-0.072752245,51.25208,156.9064,0.0047884034,1442826,4,-414,2181,5867
92081006,4055,0,0.18341099,-1.127426,-10.766061,0.00072160445,-0.0031378088,-0.0422837,51.27147,156.9064,0.0047884034,1442826,-344,376,911,5874
92180951,3986,0,0.1883449,-0.010930424,-9.789038,0.008973943,0.0011929688,-0.02941604,51.27147,156.9064,0.0047884034,1442826,-405,229,2363,5874
92280950,3979,0,0.17310031,0.91138446,-9.582269,-0.0016747498,0.0001537776,-0.04228391,51.299168,156.9064,0.0047884034,1442826,-269,-292,858,5884
92384957,4006,0,-0.00010080691,0.69842285,-9.639729,-0.0012289088,-0.0011257643,-0.039413147,51.3241,156.9064,0.0047884034,1442826,202,-725,2997,5893
92484977,4020,0,0.17858094,-0.4835157,-10.16616,-0.010933157,-0.0043141395,-0.050822333,51.299168,156.9064,0.0047884034,1442826,98,-990,1670,5884
92588951,4000,0,0.19929945,-0.91504014,-10.193533,0.0010887115,-0.008683814,-0.045718446,51.282547,156.9064,0.0047884034,1442826,0,158,2792,5878
92688957,4006,0,0.20136221,0.45908326,-8.996343,-0.0038298466,0.0045780847,-0.03831653,51.30471,156.9064,0.0047884034,1442826,-48,81,1935,5886
92789019,4048,0,0.17322664,0.8508876,-9.171106,0.005155229,-0.002737849,-0.015988674,51.301937,156.9064,0.0047884034,1442826,-378,256,2378,5885
92893013,3999,0,0.5094665,-0.06380783,-9.978737,-0.007389687,-0.0026068615,-0.03389652,51.301937,156.9064,0.0047884034,1442826,-158,634,2199,5885
92992971,3961,0,0.073084846,-0.38746282,-10.239005,-0.0012977453,0.0036997744,-0.04424772,51.34072,156.9064,0.0047884034,1442826,251,-600,1011,5899
93092985,4006,0,0.13246755,-0.20665313,-10.187812,2.4334993e-05,0.007939453,-0.037022647,51.35734,156.9064,0.0047884034,1442826,302,-490,917,5905
93196978,4000,0,0.14562464,1.0399809,-9.4137125,-0.0045401575,0.004680993,-0.02105818,51.34072,156.9064,0.0047884034,1442826,-289,74,1137,5899
93296978,3986,0,0.2782812,1.4680892,-9.702004,-0.0017190364,0.0057213036,-0.034115657,51.35457,156.9064,0.0047884034,1442826,361,143,1806,5904
93396987,4010,0,0.18991487,0.47685432,-9.745358,-0.008878368,-0.001009508,-0.059170857,51.35734,156.9064,0.0047884034,1442826,-114,-439,1607,5905
93501026,4073,0,0.55069965,-0.94328153,-10.105266,0.0012558191,0.00013545598,-0.038379136,51.35734,156.9064,0.0047884034,1442826,-329,661,2721,5905
93600950,4000,0,0.2927504,-1.245274,-9.65234,-0.010587697,-0.0012968355,-0.0258496,51.38781,156.9064,0.0047884034,1442826,-1891,632,2881,5916
93704951,4000,0,0.13586241,0.89199454,-9.042527,0.009345899,0.0051994775,-0.03433099,51.38781,156.9064,0.0047884034,1442826,325,-268,3082,5916
93804951,4001,0,0.10014505,0.83969253,-9.763555,0.002840729,-0.0024607284,-0.042835236,51.40166,156.9064,0.0047884034,1442826,330,-239,2653,5921
93908951,3979,0,0.45237556,-0.36162114,-10.357061,-0.0045145615,-0.00017699169,-0.031224579,51.415512,156.9064,0.0047884034,1442826,393,-68,1253,5926
94008951,3968,0,0.014467029,-0.3860311,-10.658907,0.0030399507,0.0051313695,-0.048465356,51.4072,156.9064,0.0047884034,1442826,433,-534,881,5923
94109751,4794,0,0.26202315,0.26052198,-10.0051,0.007877142,0.010667059,-0.048203707,51.454292,156.9064,0.0047884034,1442826,348,-304,220,5940
94210551,4001,0,0.29498807,1.3609414,-9.490689,0.0012619491,0.008116859,-0.03546894,51.44044,156.9064,0.0047884034,1442826,217,592,1802,5935
94310569,4015,0,0.43963474,1.0043069,-9.483029,-0.0023452914,0.0019638087,-0.03735389,51.454292,156.9064,0.0047884034,1442826,-658,19,1700,5940
94414550,3999,0,0.2570201,-0.21667814,-10.062345,-0.007061771,-0.004476013,-0.059029028,51.479225,156.9064,0.0047884034,1442826,258,-92,3350,5949
94514551,3980,0,0.22700867,-0.79508436,-9.845693,-0.005411825,-0.0011200118,-0.043914422,51.462605,156.9064,0.0047884034,1442826,-587,207,4555,5943
94618590,4024,0,-0.044330694,0.8739779,-9.592548,0.0011209914,0.007848074,-0.04658491,51.501385,156.9064,0.0047884034,1442826,211,-323,1564,5957
94718597,4046,0,-0.069494426,1.2354548,-9.010246,0.0061995694,0.0035837083,-0.040557224,51.487534,156.9064,0.0047884034,1442826,-202,-725,2358,5952
94818551,3985,0,0.20911646,1.0826329,-9.730392,-0.0042033014,0.0033189212,-0.062335312,51.468143,156.9064,0.0047884034,1442826,344,198,1771,5945
94926557,3959,0,0.28332406,-0.9418454,-10.01726,0.004294852,0.002441872,-0.041697122,51.520775,156.9064,0.0047884034,1442826,-165,411,2610,5964
95026623,4036,0,-0.60840964,-0.12705915,-10.167545,0.0016122165,0.011293845,-0.047348704,51.520775,156.9064,0.0047884034,1442826,-811,-570,1539,5964
95126571,3965,0,-0.14977516,0.7188997,-9.357383,-0.0056252736,0.008500995,-0.026940629,51.529087,156.9064,0.0047884034,1442826,-393,262,2852,5967
95230597,4014,0,0.22152558,1.4780167,-9.704362,-0.0069579384,-0.0041900417,-0.050313935,51.548477,156.9064,0.0047884034,1442826,-61,-66,3131,5974
95330553,4003,0,0.97291464,0.38592434,-9.97889,0.011055404,-0.007447172,-0.03725909,51.548477,156.9064,0.0047884034,1442826,354,133,1496,5974
95430580,4011,0,-0.012444191,-0.7042405,-10.364334,-0.0055747987,0.0014082714,-0.05314426,51.556786,156.9064,0.0047884034,1442826,610,-392,2163,5977
95534578,4026,0,0.23759437,-0.21796386,-9.569231,-0.0063439305,0.011254777,-0.03441744,51.537395,156.9064,0.0047884034,1442826,155,-3,1051,5970
95634594,4016,0,-0.06429374,0.9891861,-9.510781,0.015708772,0.006025736,-0.041175514,51.570637,156.9064,0.0047884034,1442826,204,-385,2292,5982
95738563,3986,0,0.3079187,1.4172835,-9.879773,0.017992053,-0.0009984088,-0.03296179,51.60111,156.9064,0.0047884034,1442826,235,-1036,1880,5993
95838550,3992,0,0.25769052,0.44426563,-9.972593,-0.009013494,0.0015556915,-0.056391537,51.548477,156.9064,0.0047884034,1442826,732,-125,2897,5974
95938551,3994,0,0.77788764,-0.54502285,-10.39408,-0.002663385,-0.00832187,-0.030968728,51.570637,156.9064,0.0047884034,1442826,453,977,3031,5982
96042551,3983,0,0.25733998,-1.0736089,-9.328978,-0.007588595,0.003240755,-0.024308395,51.59834,156.9064,0.0047884034,1442826,-817,1550,3997,5992
96142557,3928,0,0.27706093,0.38897136,-9.783643,0.011512425,0.0070111267,-0.037347168,51.612186,156.9064,0.0047884034,1442826,492,-405,809,5997
96242600,4042,0,-0.5726347,1.2871103,-9.557895,-0.0038097855,0.0052397107,-0.050183132,51.612186,156.9064,0.0047884034,1442826,-1240,-1118,2428,5997
96346550,3997,0,0.21552657,0.69190174,-9.76574,0.0047830045,-0.0066233873,-0.045938157,51.595566,156.9064,0.0047884034,1442826,-598,-710,3386,5991
96446551,3998,0,0.6066816,-0.3460688,-9.913891,-0.009783192,-0.0015865024,-0.046935473,51.609417,156.9064,0.0047884034,1442826,1121,478,2008,5996
96550550,3999,0,-0.1122121,-1.0467576,-10.013814,-0.016362391,0.0023916238,-0.038759455,51.648197,156.9064,0.0047884034,1442826,-293,-318,1108,6010
96652154,3994,0,0.50919896,-0.29950082,-9.127244,-0.008004644,0.013310995,-0.025856394,51.63158,156.9064,0.0047884034,1442826,-681,1349,3014,6004
96752155,3987,0,0.49050137,1.0225832,-9.271096,0.0077229734,0.005991214,-0.02615635,51.648197,156.9064,0.0047884034,1442826,-408,415,1040,6010
96852207,4053,0,-0.14472197,1.4364403,-9.296664,0.014948202,0.009793146,-0.047760293,51.648197,156.9064,0.0047884034,1442826,191,-788,3708,6010
96956195,4040,0,0.3371064,-0.15582132,-10.314812,0.009029245,-0.01635385,-0.04691746,51.664818,156.9064,0.0047884034,1442826,34,-659,2332,6016
97056186,4032,0,0.06664715,-0.7554228,-10.00712,-0.010935386,-0.001545229,-0.043020424,51.69806,156.9064,0.0047884034,1442826,-1051,-38,2649,6028
97160190,4030,0,-0.12785,0.4779816,-9.004176,0.0093307905,0.008638185,-0.023777917,51.722992,156.9064,0.0047884034,1442826,-742,-463,3880,6037
97260154,3978,0,0.10636924,1.1321676,-8.802897,-0.01209241,0.007932006,-0.03616787,51.68698,156.9064,0.0047884034,1442826,-338,480,3619,6024
97360180,4006,0,0.53231347,1.5442888,-9.34947,-0.0053181453,-0.0036081555,-0.042142116,51.720222,156.9064,0.0047884034,1442826,272,1201,3309,6036
97464219,4039,0,0.8937116,-0.566435,-9.867887,-0.005503346,-0.0017291254,-0.026433269,51.720222,156.9064,0.0047884034,1442826,244,535,2857,6036
