timestamp,integral_dt,error_count,x,y,z,x_integral,y_integral,z_integral,temperature,range_m_s2,scaling,device_id,x_raw,y_raw,z_raw,temperature_raw
52484880,4000,0,0.53054506,-0.55709916,-9.675988,0.001008372,0.0021184646,-0.036013953,41.301937,156.9064,0.0047884034,1442850,200,-175,-2675,2275
52588880,4001,0,0.09388821,1.4880036,-9.523213,-0.00051005895,0.0014356113,-0.037645835,41.28809,156.9064,0.0047884034,1442850,157,53,-1895,2270
52689679,3993,0,0.2914561,-0.81032807,-10.339047,0.0034750071,0.016696317,-0.04358749,41.31579,156.9064,0.0047884034,1442850,84,-1359,-1981,2280
52789679,3999,0,-0.3830128,-2.8369021,-9.937484,-0.0015855927,-0.010980437,-0.042286053,41.299168,156.9064,0.0047884034,1442850,295,135,-1643,2274
52893701,4013,0,-0.32634786,-2.1079729,-10.227663,-0.0037866528,-0.008857859,-0.041606918,41.32133,156.9064,0.0047884034,1442850,14,198,-2067,2282
52994494,4004,0,-0.3487163,-1.1075885,-10.265812,-0.0010027735,-0.003382732,-0.038210295,41.282547,156.9064,0.0047884034,1442850,-223,-294,-2024,2268
53094481,3979,0,0.1391076,-0.49642146,-9.9170065,0.004693027,0.010111783,-0.035331793,41.30748,156.9064,0.0047884034,1442850,-218,-648,-1662,2277
53199289,4769,0,0.49877718,1.0566076,-9.477452,-0.00046689642,-0.0036380126,-0.046728387,41.318558,156.9064,0.0047884034,1442850,170,216,-2606,2281
53299294,3979,0,-0.04773396,-0.29146686,-9.6332655,-0.001235578,-0.0057024285,-0.038343184,41.36288,156.9064,0.0047884034,1442850,422,370,-2346,2297
53399317,4038,0,-0.37574226,-1.030521,-9.728676,-0.0019098837,0.007578346,-0.035827678,41.34903,156.9064,0.0047884034,1442850,-161,-737,-1559,2292
53503301,4022,0,0.972222,1.9271278,-9.627002,0.0038018613,0.0042173853,-0.04106502,41.34349,156.9064,0.0047884034,1442850,175,659,-2446,2290
53604080,4000,0,0.219565,0.45152748,-9.992487,-0.009896083,-0.012194425,-0.03949268,41.34626,156.9064,0.0047884034,1442850,588,1584,-1452,2291
53704086,4007,0,-1.0327177,-1.4315021,-9.780301,-0.0010872525,0.0028591885,-0.0412502,41.36842,156.9064,0.0047884034,1442850,22,-309,-2323,2299
53804889,4010,0,0.1287186,-0.11125783,-9.679851,0.01271076,0.014089863,-0.0395632,41.34072,156.9064,0.0047884034,1442850,-665,-764,-2388,2289
53908879,4000,0,0.64033616,1.1091388,-9.679828,-0.015424904,-0.0036758252,-0.035595834,41.32133,156.9064,0.0047884034,1442850,948,242,-1570,2282
54008879,4000,0,-0.7693917,-0.73390293,-9.791306,-0.00042904448,-0.0011256766,-0.04107214,41.36565,156.9064,0.0047884034,1442850,-101,-755,-1698,2298
54112883,4003,0,1.3002858,1.3995466,-9.860259,0.0021221843,-0.0010671306,-0.039405,41.34349,156.9064,0.0047884034,1442850,403,503,-1654,2290
54213689,4003,0,-1.7341534,-1.5775032,-9.819272,0.0024618327,0.01593416,-0.04294908,41.3795,156.9064,0.0047884034,1442850,-876,-1539,-2242,2303
54313679,3980,0,1.0047653,0.57206213,-9.588169,-0.013696124,0.003115037,-0.045189142,41.33795,156.9064,0.0047884034,1442850,823,-224,-2710,2288
54413680,4001,0,1.1032985,0.8430791,-9.975389,-0.002632576,-0.013493795,-0.038106352,41.34903,156.9064,0.0047884034,1442850,860,1092,-1286,2292
54518479,3988,0,0.3649874,0.2938876,-9.947712,0.016438756,0.014893045,-0.02185305,41.38781,156.9064,0.0047884034,1442850,-557,325,-112,2306
54618493,4005,0,-0.87855005,-0.6886878,-9.491195,-0.0035270723,-0.027601564,-0.02971503,41.38227,156.9064,0.0047884034,1442850,-168,249,-2828,2304
54719280,4000,0,0.20688593,0.43572998,-9.573061,0.035982255,-0.001745455,-0.0530324,41.396122,156.9064,0.0047884034,1442850,-1349,475,-2342,2309
54823286,4007,0,-1.1014388,0.73117185,-9.363958,-0.0056880433,-0.016308926,-0.020216113,41.37119,156.9064,0.0047884034,1442850,-194,204,-4209,2300
55536880,3963,0,1.1666203,0.37583566,-9.610363,0.014002537,-0.0086424155,-0.03480292,41.415512,156.9064,0.0047884034,1442850,422,786,-1231,2316
55637688,3965,0,1.0544435,-0.09610714,-9.483923,-0.0024387664,0.003753793,-0.056642108,41.409973,156.9064,0.0047884034,1442850,1679,-500,-3243,2314
55737726,4040,0,0.5763556,0.22290617,-9.900292,-0.020138644,0.0027800198,-0.036658257,41.40166,156.9064,0.0047884034,1442850,1003,-579,-968,2311
55841686,3997,0,0.42706403,0.91251653,-10.558359,0.007194418,0.004617415,-0.045893896,41.41828,156.9064,0.0047884034,1442850,180,-644,-200,2317
55942480,3988,0,0.8822843,0.23807862,-9.554421,0.003195577,0.0038753161,-0.040175643,41.443214,156.9064,0.0047884034,1442850,976,-718,-4283,2326
56042496,4013,0,0.15635352,0.13858762,-11.429893,0.014660049,-0.0031709129,-0.045365024,41.429363,156.9064,0.0047884034,1442850,607,-404,-863,2321
56142482,3990,0,0.22301055,0.20308882,-10.489507,-0.0028287785,-0.0054063327,-0.06366969,41.43767,156.9064,0.0047884034,1442850,356,-477,-4472,2324
56247334,4055,0,-0.04277843,0.10815908,-11.604303,-7.6215714e-05,-0.0036789887,-0.060350522,41.432133,156.9064,0.0047884034,1442850,777,471,-3578,2322
56347285,4006,0,-0.82943314,0.053363577,-10.90621,0.0067984886,0.018605925,-0.027600132,41.429363,156.9064,0.0047884034,1442850,-1371,92,-4598,2321
56447279,3981,0,-0.6832828,0.49981493,-11.58731,0.0031202468,0.016383275,-0.02804817,41.454292,156.9064,0.0047884034,1442850,-832,-705,43,2330
56552080,4000,0,-0.33293888,1.310681,-11.059284,-0.004183799,0.00020677823,-0.043965656,41.423824,156.9064,0.0047884034,1442850,383,139,-3661,2319
56652079,4000,0,0.2177701,0.1573695,-11.495351,-0.0012933157,-0.004813202,-0.03756176,41.465374,156.9064,0.0047884034,1442850,109,271,-2431,2334
56752124,4044,0,-0.107282154,-0.42063066,-12.541005,-0.00045354688,-0.005816207,-0.029994894,41.462605,156.9064,0.0047884034,1442850,-338,108,-1657,2333
56856903,4022,0,-0.6229016,0.70578194,-10.647763,0.006942019,0.018042574,-0.049383614,41.495846,156.9064,0.0047884034,1442850,-103,-375,-999,2345
56956879,4000,0,0.17207603,1.0234349,-9.355778,-0.00270751,0.0048597157,-0.048248496,41.465374,156.9064,0.0047884034,1442850,962,-734,-5513,2334
57060880,4001,0,-0.17745444,0.09031692,-10.129841,-0.014106219,-0.0066279713,-0.030612245,41.476456,156.9064,0.0047884034,1442850,320,880,-2164,2338
57161679,3986,0,-0.3232584,-0.42730197,-9.771111,-0.012678423,-0.004394505,-0.020853262,41.432133,156.9064,0.0047884034,1442850,-332,197,-2752,2322
57265679,3991,0,0.25387424,0.7921855,-9.620945,0.019788321,0.010922796,-0.046909716,41.468143,156.9064,0.0047884034,1442850,-30,-597,-1965,2335
57365686,4006,0,0.40728104,1.7168292,-10.792893,0.0044342,0.008840848,-0.05611498,41.498615,156.9064,0.0047884034,1442850,764,50,518,2346
57466483,4002,0,0.19154824,1.2244244,-9.35808,0.011297034,-0.0029058687,-0.032557644,41.487534,156.9064,0.0047884034,1442850,-626,-21,-4759,2342
57570479,3975,0,-0.29117075,-0.63497907,-10.261069,-0.0006788024,0.0018003087,-0.03476829,41.468143,156.9064,0.0047884034,1442850,-666,-215,-2486,2335
57670494,3978,0,-0.17276925,-0.48806655,-9.906297,0.008126057,0.000777896,-0.032685764,41.490303,156.9064,0.0047884034,1442850,-241,-396,-848,2343
57771285,3968,0,0.5896348,0.802625,-9.175797,0.008808934,0.0077535496,-0.047986858,41.45706,156.9064,0.0047884034,1442850,590,-902,-1466,2331
57875279,3993,0,0.47871092,0.8380249,-9.48045,0.00033732736,-0.0063827382,-0.05478155,41.504154,156.9064,0.0047884034,1442850,638,628,-1690,2348
57975279,4000,0,-0.0410512,-0.40449739,-8.2828665,0.014879735,-0.0048014633,-0.05276663,41.495846,156.9064,0.0047884034,1442850,-328,-623,-4021,2345
58076080,4000,0,-0.8600527,-0.4283912,-8.383299,-0.0171008,0.0006884051,-0.035152305,41.487534,156.9064,0.0047884034,1442850,-500,-661,-2987,2342
58176080,3972,0,0.8384514,0.22900176,-8.452205,-0.00093624974,-0.0018058394,-0.013455374,41.526314,156.9064,0.0047884034,1442850,887,-219,-2749,2356
58280079,3993,0,0.6584653,1.1371467,-8.861842,0.000982367,-0.00035749152,-0.025082773,41.518005,156.9064,0.0047884034,1442850,677,43,-131,2353
58380880,4001,0,-0.5723457,0.22647683,-8.874771,0.016974894,0.002850501,-0.033787895,41.520775,156.9064,0.0047884034,1442850,-1873,659,-1901,2354
58480880,4000,0,0.1585459,-0.61286265,-9.22565,-0.022396151,-0.0033606517,-0.009541427,41.537395,156.9064,0.0047884034,1442850,902,768,-1035,2360
58584881,4002,0,0.5176603,0.8532649,-8.741873,-0.0006848248,-0.0026111663,-0.02828599,41.520775,156.9064,0.0047884034,1442850,864,799,875,2354
58685680,3994,0,-1.2351388,0.613263,-7.5712724,-0.017507356,-0.0059602307,-0.03775183,41.501385,156.9064,0.0047884034,1442850,-947,1052,-3030,2347
58785690,4005,0,-0.40373838,0.060265463,-9.246391,0.022721551,-0.00057837507,-0.052678928,41.518005,156.9064,0.0047884034,1442850,-1321,-1005,-651,2353
58889722,4024,0,-0.5773316,0.04808255,-8.008051,0.010737112,0.012866971,-0.036530487,41.520775,156.9064,0.0047884034,1442850,-685,-1331,-2730,2354
58990518,4033,0,1.3429348,1.2268478,-7.6260962,-0.023796158,0.0031368113,-0.04554481,41.529087,156.9064,0.0047884034,1442850,3432,599,-1968,2357
59090483,4002,0,-0.96411633,0.6034574,-9.001798,-0.0129300635,0.0036645122,-0.028120872,41.531857,156.9064,0.0047884034,1442850,-1488,-62,962,2358
59194494,3994,0,0.51495767,-0.15497644,-9.529885,-0.014542349,0.006074276,-0.046247374,41.556786,156.9064,0.0047884034,1442850,1174,-941,2525,2367
59295286,4007,0,-0.1763422,0.5639802,-7.699624,0.016059754,-0.0024079592,-0.029888619,41.58172,156.9064,0.0047884034,1442850,-85,397,-3685,2376
59395286,4007,0,-0.09990136,1.0455291,-9.043649,-0.041307025,0.005010776,-0.017483138,41.57895,156.9064,0.0047884034,1442850,1079,-753,-147,2375
59499279,4000,0,-0.05265611,-0.21625039,-8.499908,-0.023098834,-0.010370893,-0.059653923,41.56233,156.9064,0.0047884034,1442850,1083,173,-3921,2369
59604079,4000,0,-0.39823803,-0.4015691,-8.21703,0.0043382007,0.011962772,-0.055386107,41.576176,156.9064,0.0047884034,1442850,471,-1482,-6963,2374
59708097,4018,0,-0.14595933,1.3511575,-8.8675375,0.019217417,0.0018874126,-0.035534475,41.565098,156.9064,0.0047884034,1442850,-1355,-91,-1659,2370
59808880,4801,0,-1.1405133,1.4233552,-8.871278,-0.010855791,0.0012705592,-0.06916249,41.584488,156.9064,0.0047884034,1442850,-1003,583,-5542,2377
59908901,4022,0,0.556016,-0.4138574,-8.517216,-0.016419966,-0.013938463,-0.026861776,41.565098,156.9064,0.0047884034,1442850,1845,972,-4960,2370
60012879,3982,0,-0.79959756,-0.48271167,-8.6897,0.007587682,0.0007561315,-0.03248983,41.603878,156.9064,0.0047884034,1442850,-2077,-1141,-1468,2384
60112879,3999,0,-1.1746328,1.0765886,-8.572727,-0.004622315,0.016075328,-0.02827441,41.595566,156.9064,0.0047884034,1442850,-2029,837,-1440,2381
60213680,4000,0,0.18806912,1.1557595,-8.671389,-0.029969066,-0.0060171317,-0.016973224,41.573406,156.9064,0.0047884034,1442850,2300,780,-5072,2373
60317711,4031,0,0.20785664,-0.73380965,-9.321212,-0.0011566395,-0.006317786,-0.024820741,41.59834,156.9064,0.0047884034,1442850,1275,-178,-6156,2382
60418520,4024,0,-0.3597953,-0.580935,-9.83483,-0.005548667,-0.008914023,-0.02697134,41.60111,156.9064,0.0047884034,1442850,-81,-1212,-3357,2383
60518479,3992,0,0.07676135,0.76660043,-10.236087,0.0057878834,0.0099385055,-0.01747683,41.595566,156.9064,0.0047884034,1442850,-213,-960,2079,2381
60622489,4007,0,0.15584558,1.6804287,-9.90623,-0.0052821455,-0.0045495946,-0.07433043,41.595566,156.9064,0.0047884034,1442850,1534,643,-3805,2381
60722520,4036,0,0.64235294,0.58134687,-10.501925,-0.016449891,-0.010801611,-0.02729655,41.592796,156.9064,0.0047884034,1442850,1807,-515,-3144,2380
60823328,4042,0,-0.3275012,-0.9347387,-10.440752,-0.029312193,-0.0015066331,-0.046195317,41.61773,156.9064,0.0047884034,1442850,572,-1035,300,2389
60927279,4000,0,0.14384344,-0.2741908,-10.116967,0.02314928,0.00069137383,-0.060687065,41.62327,156.9064,0.0047884034,1442850,318,-919,-4842,2391
61028086,4006,0,-0.42695713,1.2953193,-10.499507,-0.012164489,0.009518724,-0.017225087,41.63158,156.9064,0.0047884034,1442850,-133,702,-344,2394
61128080,3977,0,0.16692297,1.0895652,-10.038821,-0.00029573776,-0.009681449,-0.0605579,41.62327,156.9064,0.0047884034,1442850,853,21,-3709,2391
61228118,4038,0,-0.24175575,0.18792091,-11.418068,-0.009446484,-0.00038626627,-0.0510411,41.64266,156.9064,0.0047884034,1442850,-967,684,1433,2398
61332121,4004,0,0.29167062,-0.9971813,-11.028389,-0.02892457,0.012686181,-0.035467573,41.64266,156.9064,0.0047884034,1442850,1458,-842,-3837,2398
61432885,3989,0,-0.94164443,0.6806347,-10.86855,-0.0018331613,0.006996165,-0.054731216,41.65928,156.9064,0.0047884034,1442850,-1146,-395,829,2404
61532886,4007,0,-0.27097607,1.4849942,-10.8697815,-0.0020704845,0.0061625578,-0.04651694,41.65651,156.9064,0.0047884034,1442850,523,-239,-2582,2403
61637705,4025,0,0.6962742,0.3537267,-11.160013,-0.0019147582,-0.010627843,-0.07771537,41.65651,156.9064,0.0047884034,1442850,1410,492,-3421,2403
61737688,4009,0,0.17190105,-1.3192303,-10.95776,-0.016667431,0.0041403044,-0.037611283,41.645428,156.9064,0.0047884034,1442850,240,-591,57,2399
61837687,4007,0,-0.9126908,-0.9168247,-10.981863,0.0012999703,-0.0041164234,-0.035560403,41.66205,156.9064,0.0047884034,1442850,-1235,76,-1759,2405
61938494,4012,0,-0.3771513,0.62613434,-10.068161,0.011548547,0.011037331,-0.056791246,41.6482,156.9064,0.0047884034,1442850,-741,593,-2871,2400
63080879,3993,0,-0.6731547,-0.06833174,-9.6441,-0.032293867,0.0014333585,-0.013019167,41.753464,156.9064,0.0047884034,1442850,398,1070,-3575,2438
63181679,3992,0,0.66771567,-1.081813,-9.99411,-0.006383584,0.0023992253,-0.057764325,41.756233,156.9064,0.0047884034,1442850,1835,-1763,-4042,2439
63285679,4000,0,0.46095493,1.04534,-9.667522,-0.016794218,0.0025579822,-0.046665944,41.720222,156.9064,0.0047884034,1442850,1539,-1274,-5669,2426
63385679,3999,0,0.35816476,1.8837948,-10.496204,0.0060849213,0.0063470537,-0.04771559,41.75069,156.9064,0.0047884034,1442850,1134,-590,-404,2437
63486494,4012,0,0.87776864,0.7128522,-10.60826,0.030859647,-0.0045347405,-0.042065606,41.778393,156.9064,0.0047884034,1442850,-25,140,-5579,2447
63590488,4009,0,0.5008156,-0.8337013,-11.815168,0.004049435,-0.0034679133,-0.05076891,41.770084,156.9064,0.0047884034,1442850,1213,-117,-1249,2444
63690489,3997,0,-0.82728213,-0.3476554,-10.575224,0.01432307,0.0061362507,-0.060386397,41.76454,156.9064,0.0047884034,1442850,-1699,643,-2890,2442
63791303,4023,0,-0.6412168,0.9467621,-9.031774,0.005164781,0.015182576,-0.06061403,41.772854,156.9064,0.0047884034,1442850,-35,-1587,-4542,2445
63895279,4000,0,-0.5879239,0.70298094,-8.9775915,-0.010841514,-0.010130299,-0.04577845,41.761772,156.9064,0.0047884034,1442850,-671,242,-5120,2441
63999310,4031,0,1.3540474,-0.8403478,-10.182756,-0.0064038895,0.0032502566,-0.022483649,41.74515,156.9064,0.0047884034,1442850,2453,222,-94,2435
64100079,3999,0,-1.0939691,-0.30093163,-9.202448,-0.005213012,0.019306011,-0.050128892,41.756233,156.9064,0.0047884034,1442850,-785,-1381,-1866,2439
64200080,4000,0,0.6358679,0.68024206,-9.93629,0.007193053,0.0018626107,-0.039997082,41.775623,156.9064,0.0047884034,1442850,852,-1436,-1127,2446
64304085,4006,0,0.051273804,1.3313872,-9.883663,0.024755858,-0.003523942,-0.052659594,41.797783,156.9064,0.0047884034,1442850,-1327,1155,-4314,2454
64408879,3999,0,-1.1996566,-1.0662892,-9.527386,0.013491923,0.004189088,-0.0502763,41.808865,156.9064,0.0047884034,1442850,-1467,454,-4548,2458
64508879,3999,0,0.28262913,-0.44390154,-10.189272,-0.02715444,-0.0031046309,-0.006309151,41.789474,156.9064,0.0047884034,1442850,2082,575,-406,2451
64612892,4013,0,1.1583848,1.3361033,-9.426058,0.00765355,0.0045288526,-0.044206597,41.819946,156.9064,0.0047884034,1442850,1459,-19,-1149,2462
64713680,4000,0,-0.42551017,1.6358154,-9.63294,0.023867922,-0.003071757,-0.033150896,41.811634,156.9064,0.0047884034,1442850,-1690,1013,-3473,2459
64813678,3998,0,1.0041509,0.2511225,-9.29076,-0.025405124,-0.012293176,-0.012216406,41.822716,156.9064,0.0047884034,1442850,2255,337,-4150,2463
64913680,4001,0,-0.41837263,-0.49539074,-9.820441,0.028212385,0.0029468357,-0.038030833,41.850414,156.9064,0.0047884034,1442850,-1573,-31,-2644,2473
65018492,4005,0,-1.4747944,0.555026,-9.776676,0.022214152,0.001907417,-0.03817591,41.808865,156.9064,0.0047884034,1442850,-2707,300,-2237,2458
65122533,4051,0,-0.43469438,1.5604322,-8.602987,0.021445591,0.01074438,-0.03751982,41.78393,156.9064,0.0047884034,1442850,-1323,681,-2874,2449
65222493,4013,0,0.4311368,0.5126531,-9.134351,-0.014921233,-0.00909623,-0.028997108,41.847645,156.9064,0.0047884034,1442850,1708,999,-4768,2472
65323280,4000,0,0.9530553,-0.53927886,-10.631694,0.0038378527,-0.008184475,-0.0636755,41.825485,156.9064,0.0047884034,1442850,1367,-104,-788,2464
65427279,4000,0,0.4110775,-0.420044,-9.60818,0.0059326,0.0048421226,-0.029774742,41.806095,156.9064,0.0047884034,1442850,1227,-628,-724,2457
65527313,4034,0,-0.5154858,1.6218157,-9.168852,0.019593576,0.01101812,-0.043521557,41.847645,156.9064,0.0047884034,1442850,-1422,820,-2230,2472
65628128,4049,0,-0.5676398,1.2470825,-9.940884,0.004565847,0.009970945,-0.061888654,41.844875,156.9064,0.0047884034,1442850,-1239,-1009,788,2471
65732079,4000,0,-0.7443252,-0.8490003,-10.098729,0.011303858,0.005308024,-0.03666826,41.875347,156.9064,0.0047884034,1442850,-1923,-14,-761,2482
65832080,3955,0,-0.320454,-0.9599828,-8.824853,-0.018117566,-0.0018773915,-0.033782933,41.850414,156.9064,0.0047884034,1442850,40,-345,-4278,2473
65932880,3964,0,-0.11905327,0.10080394,-9.363387,-0.015981752,0.008686755,-0.033802703,41.864265,156.9064,0.0047884034,1442850,134,-581,-1463,2478
66036886,3981,0,-0.67375475,1.2961122,-8.76879,0.0046177288,0.0015368785,-0.030894151,41.883656,156.9064,0.0047884034,1442850,-1552,-552,-3057,2485
66136880,3976,0,0.094388984,0.70369875,-9.6659155,-0.012025628,3.0816067e-05,-0.041082628,41.883656,156.9064,0.0047884034,1442850,266,451,-2273,2485
66237726,4000,0,0.28957412,-0.97246873,-10.721893,-0.0141604915,-0.01307123,-0.048569124,41.878117,156.9064,0.0047884034,1442850,703,185,-820,2483
66341706,4019,0,-0.80866116,-0.57843536,-9.572142,-0.00046709972,0.011452124,-0.03884597,41.903046,156.9064,0.0047884034,1442850,-700,-883,-2515,2492
66441686,3997,0,-0.79203445,0.19629426,-9.814389,-0.022664413,0.0142383035,-0.04593429,41.867035,156.9064,0.0047884034,1442850,-111,119,-399,2479
66542480,3997,0,-0.32759917,1.4050046,-8.863955,-0.033564307,0.0073784175,-0.028635845,41.880886,156.9064,0.0047884034,1442850,961,-929,-3349,2484
66646480,3998,0,-0.42301264,0.47427884,-9.830052,-0.0010019098,-0.0016553954,-0.060643703,41.867035,156.9064,0.0047884034,1442850,-499,-55,-1646,2479
66750495,4016,0,-1.1486862,-1.1379768,-9.493319,0.0136053115,0.0045884615,-0.040378813,41.8892,156.9064,0.0047884034,1442850,-1332,526,-3522,2487
66851280,3994,0,-0.69766706,-0.08587276,-8.780303,0.01258314,0.009294141,-0.04837135,41.914127,156.9064,0.0047884034,1442850,-1444,-1430,-3741,2496
66951279,3970,0,-0.90981174,1.1991016,-9.386631,0.0010108384,0.011648673,-0.04925376,41.933517,156.9064,0.0047884034,1442850,-1223,-1015,-1311,2503
67055286,4007,0,-0.42355072,0.96159226,-10.404954,0.028953724,-0.0031055768,-0.041556954,41.92798,156.9064,0.0047884034,1442850,-2172,-368,875,2501
67156080,4000,0,-0.21159542,-0.13555741,-9.8300295,0.02735586,-0.010288981,-0.05917547,41.933517,156.9064,0.0047884034,1442850,-1137,226,-4439,2503
67256119,4040,0,-0.6821896,-1.222507,-9.765409,-0.0054565435,-0.00079419184,-0.07723907,41.92521,156.9064,0.0047884034,1442850,-792,-822,-2625,2500
67360105,4025,0,-0.47094518,0.80575186,-9.277571,0.0077149756,0.012584625,-0.038674854,41.905815,156.9064,0.0047884034,1442850,-449,-665,-551,2493
67464911,3983,0,1.0814155,1.5573964,-10.145279,-0.00620908,-0.008937007,-0.048747033,41.955677,156.9064,0.0047884034,1442850,573,577,-2432,2511
67568879,3999,0,-0.51955265,-1.2940003,-10.149355,-0.014112001,-0.0039405995,-0.035445355,41.92521,156.9064,0.0047884034,1442850,-1172,-777,-1182,2500
67668885,4005,0,-0.5591586,-1.1052843,-9.677158,-0.021825017,0.008704333,-0.032885198,41.922436,156.9064,0.0047884034,1442850,414,239,-828,2499
67769680,4000,0,-0.4925764,0.04765672,-9.156712,-0.015992815,0.019606654,-0.05271525,41.939056,156.9064,0.0047884034,1442850,337,-1170,-2750,2505
67873679,3999,0,-0.7407396,1.9730797,-9.637941,0.011999322,0.00633798,-0.023623683,41.94183,156.9064,0.0047884034,1442850,-764,492,-2923,2506
67973679,3991,0,-0.62088275,1.5073066,-10.518937,-0.0012961291,0.0013555922,-0.035193514,41.92521,156.9064,0.0047884034,1442850,-1185,837,1394,2500
68074500,3997,0,-0.26241028,-0.027578935,-10.927229,-0.017772267,0.0010968043,-0.051717144,41.95845,156.9064,0.0047884034,1442850,-549,528,1840,2512
68178481,3996,0,-1.0592645,-0.6738735,-9.477531,0.0038525555,0.004059682,-0.015593225,41.936287,156.9064,0.0047884034,1442850,-1005,106,-4732,2504
68278482,3999,0,-0.6956187,0.49542347,-9.728927,-0.0012249462,0.011052115,-0.034844153,41.936287,156.9064,0.0047884034,1442850,-421,-52,-221,2504
68379279,3999,0,-0.8015386,0.9389947,-9.7366085,-0.003617859,0.013419683,-0.04891255,41.97507,156.9064,0.0047884034,1442850,-859,-1035,210,2518
68483279,4000,0,-0.16396256,0.94658464,-10.064186,0.031389825,-0.010914259,-0.033344377,41.98615,156.9064,0.0047884034,1442850,-1307,24,-1861,2522
68583316,4031,0,-0.4044032,0.036317334,-10.507486,0.018728765,-0.0017514173,-0.051248565,41.94737,156.9064,0.0047884034,1442850,-1913,1405,-2565,2508
68683327,4048,0,-0.11126924,-0.9094693,-9.75678,0.007520217,0.0058740107,-0.06250146,42.00277,156.9064,0.0047884034,1442850,-410,64,-2899,2528
68788134,4048,0,-0.072445296,0.797392,-9.791638,-0.011608481,0.011568906,-0.03753397,41.96399,156.9064,0.0047884034,1442850,1273,-179,-308,2514
68892094,4014,0,-0.037693154,0.92135316,-9.721863,0.019853521,-0.008671077,-0.025970077,41.98892,156.9064,0.0047884034,1442850,-851,-251,-1160,2523
68992893,4013,0,0.29792237,0.13803126,-10.525096,0.019595295,-0.0049081948,-0.034798138,41.96676,156.9064,0.0047884034,1442850,-476,366,-192,2515
69092880,4001,0,0.2899132,-1.0432651,-10.20159,0.0046028355,0.0009274755,-0.037919253,42.01662,156.9064,0.0047884034,1442850,606,53,-1443,2533
69196879,3993,0,-0.7785678,0.06299985,-10.009028,-0.013724416,0.018230414,-0.036136758,41.98338,156.9064,0.0047884034,1442850,-563,-827,1523,2521
69297687,4008,0,-0.8078037,1.4565438,-9.6807165,0.006554343,0.015848339,-0.040453654,42.00277,156.9064,0.0047884034,1442850,-1811,412,-2072,2528
69397688,4008,0,-0.70431244,1.5223294,-9.445801,0.009294597,0.0040898696,-0.058871828,41.991688,156.9064,0.0047884034,1442850,-1519,471,-3021,2524
69501680,3963,0,0.11890775,-0.35623777,-10.710834,0.024175271,-0.00081677106,-0.045410067,41.99446,156.9064,0.0047884034,1442850,-155,845,186,2525
69602483,3950,0,-0.2996226,-1.0569112,-10.554456,0.016536834,0.0003887472,-0.071705155,42.01108,156.9064,0.0047884034,1442850,-1241,-260,-195,2531
69702495,4009,0,-1.4005812,0.15489665,-9.459511,0.014933739,0.012472633,-0.053420193,42.01939,156.9064,0.0047884034,1442850,-1333,-1180,-4040,2534
69806493,4011,0,0.39281586,2.1657302,-10.053991,0.014104345,0.0018473892,-0.027067825,42.03601,156.9064,0.0047884034,1442850,85,768,-370,2540
69907280,4000,0,0.19574186,1.4854435,-10.252982,0.023564659,-0.008901708,-0.041539025,42.01662,156.9064,0.0047884034,1442850,41,66,-1006,2533
70007279,4000,0,-0.61997896,0.3714005,-9.974939,0.001690059,-0.00799546,-0.03201524,42.01108,156.9064,0.0047884034,1442850,-1509,555,-2981,2531
70111279,4000,0,-0.78432775,-1.2480903,-9.38858,0.023327868,-0.006968644,-0.04695868,42.00831,156.9064,0.0047884034,1442850,-1571,-11,-3416,2530
70212086,4807,0,-1.1913925,-0.09435184,-8.950647,-0.024770519,0.015934741,-0.043413848,42.02216,156.9064,0.0047884034,1442850,-446,231,-4282,2535
70312089,4010,0,0.44967046,0.62375665,-9.019186,-0.020141173,0.010877555,-0.052234817,42.04155,156.9064,0.0047884034,1442850,2404,-1843,-4336,2542
70412079,4000,0,0.7286108,2.0113606,-9.831584,0.010403825,0.0021823929,-0.06339836,42.049862,156.9064,0.0047884034,1442850,863,-344,-511,2545
70516879,4800,0,0.96325016,0.10832155,-10.611429,0.013722848,-0.009533992,-0.033079054,42.05263,156.9064,0.0047884034,1442850,-92,-14,1430,2546
70616880,4001,0,-0.7943258,-0.82107335,-9.556943,0.022467453,-0.003153659,-0.03703433,42.066483,156.9064,0.0047884034,1442850,-2218,467,-2791,2551
70716912,4032,0,-0.5448463,-1.0244001,-8.98278,-0.024131943,-0.0044343537,-0.037421,42.080334,156.9064,0.0047884034,1442850,668,-713,-4745,2556
70821680,3955,0,-0.27572247,0.97592,-8.706205,-0.014358189,-0.0011861401,-0.021413935,42.01385,156.9064,0.0047884034,1442850,573,-1664,-4203,2532
70921721,4014,0,0.81560534,1.4597391,-9.549659,-0.0065554534,0.0011838907,-0.040056746,42.06094,156.9064,0.0047884034,1442850,1300,-959,-1175,2549
71021679,3991,0,-0.1321461,1.1055064,-10.024166,0.009169932,0.0035798806,-0.05377298,42.096954,156.9064,0.0047884034,1442850,-2191,485,-1052,2562
71125698,4019,0,-1.0649259,-1.4523705,-9.626605,0.005575506,0.005511471,-0.058006708,42.09141,156.9064,0.0047884034,1442850,-1875,-728,-2063,2560
71226494,4008,0,-0.063325085,-0.35937393,-10.0647335,-0.01811219,0.003319868,-0.0047607864,42.063713,156.9064,0.0047884034,1442850,838,648,-486,2550
71326482,3997,0,-0.22924545,1.2828327,-9.226763,0.02672695,0.006991361,-0.042595044,42.069252,156.9064,0.0047884034,1442850,-386,80,-3486,2552
71430496,4017,0,-0.44894361,2.150765,-9.842797,0.021556415,0.0004221499,-0.036399446,42.07479,156.9064,0.0047884034,1442850,-1853,1423,-2745,2554
71531279,4000,0,-0.15324005,-0.1603271,-9.422657,-0.028010465,-0.0030195238,-0.03966725,42.09418,156.9064,0.0047884034,1442850,343,65,-3026,2561
71631280,3963,0,0.7821584,-0.8820083,-10.4924755,0.0023659156,-0.001986101,-0.053635236,42.105263,156.9064,0.0047884034,1442850,1068,-550,-1452,2565
71735279,3963,0,0.4057323,0.0017691661,-9.795663,0.02457631,0.0062015234,-0.04399291,42.102493,156.9064,0.0047884034,1442850,394,-1404,-2491,2564
71836086,4006,0,-0.98922515,1.911446,-8.718547,0.010529677,0.014026794,-0.04989463,42.09418,156.9064,0.0047884034,1442850,-2432,96,-1961,2561
71936080,4000,0,0.17441696,1.2719843,-9.242729,-0.014977993,0.00059397606,-0.033673428,42.099724,156.9064,0.0047884034,1442850,175,105,-3046,2563
72036080,4001,0,0.5997828,0.5725092,-10.501554,0.01653817,-0.011906829,-0.04383354,42.099724,156.9064,0.0047884034,1442850,39,1384,-2246,2563
72140880,4000,0,0.540659,-1.1257644,-9.763161,0.005961168,0.0016962835,-0.034359213,42.119114,156.9064,0.0047884034,1442850,1482,-928,-2358,2570
72244879,4000,0,0.570411,0.87762886,-9.563207,-0.0066458695,-0.0030967728,-0.029497951,42.135735,156.9064,0.0047884034,1442850,1908,-478,-3196,2576
72344880,3993,0,-0.59344375,1.6026447,-9.488815,0.015527508,0.006335217,-0.03504192,42.155125,156.9064,0.0047884034,1442850,-1133,-234,-70,2583
72445703,4024,0,0.091375485,0.3217269,-9.286439,0.021567512,-0.0067267725,-0.041378133,42.121883,156.9064,0.0047884034,1442850,-1188,76,-3756,2571
72549679,3991,0,0.096460335,-1.3999252,-10.003838,0.011751389,-0.002559127,-0.020966854,42.121883,156.9064,0.0047884034,1442850,426,-287,-2646,2571
72649679,4000,0,-0.90643317,-1.1099529,-9.686209,0.01219642,0.003731376,-0.039545707,42.1108,156.9064,0.0047884034,1442850,-1690,-1144,-864,2567
72750486,3998,0,-0.8481069,1.6338722,-9.062221,0.016443538,0.010735603,-0.059706952,42.135735,156.9064,0.0047884034,1442850,-871,-793,-4938,2576
72854494,3986,0,0.34026796,2.1182308,-9.96525,0.019916076,0.004061017,-0.04362395,42.13019,156.9064,0.0047884034,1442850,-993,-287,-898,2574
72954523,4029,0,-0.7303047,1.1158811,-9.201966,0.021477707,-0.00463623,-0.048766218,42.121883,156.9064,0.0047884034,1442850,-1420,842,-3759,2571
73055317,4038,0,-0.3316717,-0.7229904,-9.961485,-0.008305401,-0.0050165793,-0.06446391,42.132965,156.9064,0.0047884034,1442850,-414,239,-1923,2575
73159286,4007,0,-0.779075,-0.94937366,-9.560979,0.009366622,0.0011426928,-0.025199784,42.160664,156.9064,0.0047884034,1442850,-1894,-981,-678,2585
73263279,3956,0,-0.8918471,1.6931361,-8.526835,0.02343996,0.010843259,-0.044806797,42.191135,156.9064,0.0047884034,1442850,-1762,189,-5054,2596
73364080,3988,0,-0.54453945,1.3744237,-9.353177,-0.00022003718,0.00828616,-0.06524009,42.138504,156.9064,0.0047884034,1442850,-467,-1339,-1841,2577
73464080,3994,0,0.8517314,0.47705105,-10.079597,-0.014745055,-0.0056854845,-0.03187608,42.171745,156.9064,0.0047884034,1442850,1165,1192,-1393,2589
73568124,4044,0,-0.0582272,-1.2585831,-9.65904,-0.025092427,0.0020826196,-0.027154068,42.182827,156.9064,0.0047884034,1442850,927,-865,-1776,2593
73668879,4000,0,0.15626232,-0.50464517,-9.085812,-0.008826172,0.011654962,-0.017505012,42.163433,156.9064,0.0047884034,1442850,871,176,-2516,2586
73768879,4000,0,0.3329658,1.5262233,-9.607944,0.01243784,0.0026563066,-0.050903957,42.180054,156.9064,0.0047884034,1442850,688,-797,-1447,2592
73872894,4015,0,0.5921618,1.2373585,-10.180564,-0.010842616,-0.008417874,-0.008494502,42.191135,156.9064,0.0047884034,1442850,820,70,-245,2596
73973686,4007,0,1.0894598,-0.2502374,-10.510579,0.0036042584,-0.011368206,-0.03594726,42.210526,156.9064,0.0047884034,1442850,949,-62,354,2603
74073723,4044,0,0.101812795,-1.251528,-9.966728,0.019619586,-0.00342408,-0.032973513,42.168976,156.9064,0.0047884034,1442850,-454,369,-2843,2588
74177711,4031,0,0.5955628,0.23423909,-10.229636,-0.00095721055,0.005092239,-0.033273797,42.188366,156.9064,0.0047884034,1442850,1514,-333,-906,2595
74278516,4030,0,0.017564792,1.9246147,-9.945903,0.003465254,-0.0015082369,-0.040934093,42.238228,156.9064,0.0047884034,1442850,-229,722,51,2613
74378483,4003,0,-0.14485277,1.3891741,-9.780011,0.022888537,0.005748827,-0.04102724,42.232685,156.9064,0.0047884034,1442850,-649,-404,-1822,2611
74482482,3993,0,1.1173334,-0.7246248,-10.071037,0.0021705306,-0.009706879,-0.04475382,42.216064,156.9064,0.0047884034,1442850,1454,-323,-2785,2605
74583280,4000,0,0.2544987,-1.4113637,-9.77887,-0.006200411,-0.0022740776,-0.026090456,42.243767,156.9064,0.0047884034,1442850,1137,-699,-2719,2615
74683279,3966,0,0.57585126,-0.4694887,-9.765992,-0.0061562806,0.0048376434,-0.018964637,42.227146,156.9064,0.0047884034,1442850,905,-104,-970,2609
74787280,4001,0,-0.78720343,1.564299,-8.765216,0.0010687597,0.0071765897,-0.05420941,42.240997,156.9064,0.0047884034,1442850,-1125,-295,-2469,2614
74892080,4000,0,0.8111806,0.027612796,-10.567328,0.01052385,-0.0067923595,-0.05965157,42.199448,156.9064,0.0047884034,1442850,348,-355,-1333,2599
74992079,4000,0,0.5150853,-0.7580054,-10.065296,-0.00019112625,-0.0035811597,-0.026929533,42.246536,156.9064,0.0047884034,1442850,107,-435,10,2616
75092086,3968,0,-0.19308841,-0.10346147,-10.145431,-0.0030771631,-0.0023270128,-0.014746897,42.257618,156.9064,0.0047884034,1442850,-444,341,611,2620
75196880,4000,0,0.31664357,1.1127216,-9.969459,-0.014546474,0.0012227795,-0.04236056,42.238228,156.9064,0.0047884034,1442850,1644,-1374,1133,2613
75300885,4006,0,0.3383137,0.59128195,-10.336522,0.020187506,-0.0048843524,-0.02768308,42.249306,156.9064,0.0047884034,1442850,-151,417,927,2617
75400880,4001,0,0.68236744,-0.8227636,-9.441527,-0.0260324,-0.008326824,-0.04525615,42.23546,156.9064,0.0047884034,1442850,1688,-407,-5268,2612
75501680,3983,0,-0.25899446,-0.3468141,-9.489662,0.012091534,0.0036293857,-0.03403272,42.229916,156.9064,0.0047884034,1442850,-1413,141,-2747,2610
75605719,4018,0,-0.49274674,0.91135395,-9.417161,-0.017196495,0.0049378127,-0.011978802,42.29086,156.9064,0.0047884034,1442850,-105,-146,-1685,2632
75705686,3988,0,-0.31546462,1.4763618,-9.060931,0.02757367,-0.007643718,-0.054578125,42.279778,156.9064,0.0047884034,1442850,-1414,996,-4360,2628
75806495,4015,0,0.6319369,0.044457164,-9.939084,-0.015978701,-0.0033237946,-0.018558802,42.282547,156.9064,0.0047884034,1442850,1807,-322,-1175,2629
75910491,4009,0,-0.24615785,-1.1652696,-10.377696,0.011004502,-0.010839766,-0.028686773,42.29086,156.9064,0.0047884034,1442850,-158,-73,-1704,2632
76014482,3985,0,-0.8032356,0.46416864,-8.915992,-0.023530582,0.005783423,-0.026774874,42.279778,156.9064,0.0047884034,1442850,-588,-1163,-3641,2628
76114482,4001,0,-0.38951328,1.3091949,-9.784592,0.008414027,0.008292899,-0.058230646,42.32133,156.9064,0.0047884034,1442850,-1358,-24,-121,2643
76215279,3994,0,0.24247986,1.0259928,-10.085162,0.013593082,0.0018603423,-0.06508733,42.32133,156.9064,0.0047884034,1442850,-332,111,-2691,2643
76319286,4006,0,0.3577136,-0.68644017,-10.466704,-0.018419586,-0.001137513,-0.024511216,42.32687,156.9064,0.0047884034,1442850,1626,895,59,2645
76419279,3975,0,0.08233779,-0.30645743,-10.306261,-0.005043088,0.015596943,-0.028305892,42.32133,156.9064,0.0047884034,1442850,656,-215,982,2643
76520079,3971,0,-0.34770304,1.1382419,-9.6916065,-0.01188994,0.013225288,-0.044447053,42.33795,156.9064,0.0047884034,1442850,-627,-395,-737,2649
76624101,4021,0,-0.47861728,0.523391,-9.587469,0.0029137908,-0.002273275,-0.017257378,42.33795,156.9064,0.0047884034,1442850,-1192,447,-2623,2649
76724079,3999,0,0.12822872,-1.0409005,-9.909368,-0.017447567,-0.0074683204,-0.041792206,42.3241,156.9064,0.0047884034,1442850,331,-541,-1674,2644
76824886,4006,0,-0.18163867,-0.76058745,-9.479316,-0.021834502,0.0058027976,-0.03298173,42.318558,156.9064,0.0047884034,1442850,686,502,-3946,2642
76928880,4001,0,-1.1982696,0.7501569,-9.2821,0.0073553696,0.010110296,-0.023972608,42.3241,156.9064,0.0047884034,1442850,-1287,-1031,-2077,2644
77028880,4001,0,0.65549093,1.5523927,-9.284277,-0.030885808,0.013054091,-0.047561333,42.33518,156.9064,0.0047884034,1442850,2006,-1369,-1083,2648
77129680,4000,0,1.3072041,1.6941128,-10.579752,-0.008363661,-0.007856669,-0.039832354,42.32133,156.9064,0.0047884034,1442850,1370,257,809,2643
77233679,3951,0,1.528101,-0.60881376,-10.249426,-0.006631527,-0.008954019,-0.038974002,42.32133,156.9064,0.0047884034,1442850,945,-105,-631,2643
77337687,4007,0,0.36985624,-1.0878109,-9.99152,-0.008303596,0.004928873,-0.035404686,42.3518,156.9064,0.0047884034,1442850,1251,-949,-1541,2654
77438503,4020,0,0.07363414,1.1252029,-9.442625,0.0035230205,0.011478629,-0.065012574,42.32687,156.9064,0.0047884034,1442850,273,-777,-1790,2645
77538484,4000,0,-0.51538175,1.7270044,-10.12085,-0.016257487,0.0073658675,-0.030390877,42.38504,156.9064,0.0047884034,1442850,-519,-227,1116,2666
77642496,3981,0,0.19341417,-0.10816005,-10.596728,-0.014424866,-0.009064827,-0.0624407,42.34626,156.9064,0.0047884034,1442850,540,-135,-2552,2652
77743279,3976,0,0.9235122,-1.316442,-9.939479,-0.0005517211,0.0012804968,-0.053135026,42.373962,156.9064,0.0047884034,1442850,862,-830,-1156,2662
77843327,4048,0,-1.2173206,-1.0511594,-10.315848,0.0034478828,0.0062785125,-0.05361037,42.35734,156.9064,0.0047884034,1442850,-1695,-802,-389,2656
77947287,4001,0,-0.7261569,1.3335376,-8.885361,-0.0010768783,0.008662711,-0.03979172,42.36842,156.9064,0.0047884034,1442850,-445,-321,-4502,2660
78048080,3990,0,1.012536,1.6334207,-10.032567,-0.021242449,-0.006606659,-0.037076168,42.3795,156.9064,0.0047884034,1442850,2071,-807,-1879,2664
78148080,4001,0,0.6617125,1.2988913,-10.489786,0.020789074,-0.0056283763,-0.040252615,42.36565,156.9064,0.0047884034,1442850,-48,-152,-570,2659
78252116,4032,0,0.006273993,-0.64780575,-10.795382,0.019170977,-0.0040159123,-0.06315367,42.41828,156.9064,0.0047884034,1442850,-1005,-169,-1211,2678
78352879,3993,0,-0.73706067,-0.8616091,-9.481272,-0.013560122,0.0055383816,-0.032215707,42.37119,156.9064,0.0047884034,1442850,-477,-1536,-1980,2661
78452879,4000,0,0.22279356,-0.02044746,-9.739612,-0.0043529607,0.010390678,-0.017630905,42.409973,156.9064,0.0047884034,1442850,943,-436,-377,2675
78556886,4007,0,0.8351063,1.6591889,-10.602595,0.0012413654,0.0046852445,-0.04315203,42.412743,156.9064,0.0047884034,1442850,1326,107,1072,2676
78661680,3986,0,1.3993009,-0.14877135,-10.21218,-0.0053468426,0.00097389566,-0.011635088,42.40443,156.9064,0.0047884034,1442850,2028,730,763,2673
78761679,3949,0,0.072809085,-0.87830484,-9.845423,0.014459937,-0.0078604035,-0.043420248,42.39889,156.9064,0.0047884034,1442850,-103,288,-2852,2671
78861680,3992,0,-0.81737465,-0.3755437,-8.974674,-0.006011461,0.0068210657,-0.0511072,42.448753,156.9064,0.0047884034,1442850,-797,-1771,-2093,2689
78966488,4001,0,0.3073921,1.7152356,-9.210442,0.010915623,0.01093634,-0.06013693,42.426594,156.9064,0.0047884034,1442850,231,-419,-2165,2681
79066526,4044,0,-0.9364157,1.4649067,-10.380327,0.01152548,-0.0024324788,-0.038603567,42.451523,156.9064,0.0047884034,1442850,-1472,831,408,2690
79166496,4016,0,-0.77423763,0.38831738,-10.553217,-0.014543692,-0.004762861,-0.023176875,42.429363,156.9064,0.0047884034,1442850,-1216,1000,-688,2682
79267280,4000,0,-0.15463793,-2.059343,-9.775891,-0.026667006,-0.0023306464,-0.05278275,42.45706,156.9064,0.0047884034,1442850,347,-1199,-1720,2692
79371279,4000,0,-1.0445322,-0.18822818,-9.6973915,-0.014708566,0.015793711,-0.06709163,42.42105,156.9064,0.0047884034,1442850,-850,-1436,-644,2679
79471280,3994,0,0.04727692,0.71808887,-9.274489,-0.011633337,0.0108353505,-0.027876861,42.451523,156.9064,0.0047884034,1442850,891,745,-2442,2690
79572079,4800,0,0.106948264,1.8435992,-9.975794,0.009746875,0.00030694055,-0.06245126,42.434902,156.9064,0.0047884034,1442850,-63,-236,-1379,2684
79676079,3973,0,0.28799263,0.004084518,-10.129781,0.017082565,-0.015965499,-0.026209181,42.44044,156.9064,0.0047884034,1442850,-332,187,-3014,2686
79776079,3964,0,-0.052704304,-1.3738605,-9.156592,0.0016302262,-0.0019181187,-0.044797465,42.459835,156.9064,0.0047884034,1442850,950,-346,-5033,2693
79876117,4038,0,-0.97387064,-1.0915036,-9.850955,0.018060759,0.005682274,-0.046642892,42.459835,156.9064,0.0047884034,1442850,-1768,-834,-374,2693
79980880,3949,0,0.8677497,1.6402898,-10.345849,-0.0077685155,0.0062080324,-0.03771264,42.448753,156.9064,0.0047884034,1442850,883,227,544,2689
80080886,4004,0,0.2252442,1.5878826,-10.286102,-0.014549426,-0.002881614,-0.040392794,42.484764,156.9064,0.0047884034,1442850,1622,82,-1399,2702
80180880,3997,0,0.56081575,0.4632889,-10.688647,-0.010069782,-0.0064181658,-0.038437143,42.476456,156.9064,0.0047884034,1442850,590,1467,-354,2699
80285679,4000,0,-0.5219648,-1.1610492,-9.61072,-0.021046704,-0.0058732484,-0.029124975,42.479225,156.9064,0.0047884034,1442850,-191,323,-4827,2700
80385728,4049,0,-1.5369006,-0.27535376,-9.61615,0.0022235326,0.020964477,-0.030899012,42.473682,156.9064,0.0047884034,1442850,-1907,-1163,-553,2698
80485679,4000,0,-0.25356445,0.52142686,-8.315223,-0.004591009,0.0126856845,-0.03262118,42.506924,156.9064,0.0047884034,1442850,200,-1267,-4817,2710
80586499,4016,0,-0.7681578,1.1679769,-8.530511,-0.0012631305,-0.0084458245,-0.032431707,42.487534,156.9064,0.0047884034,1442850,-1434,807,-3875,2703
80690493,4011,0,0.5414709,-0.03533394,-9.450417,0.024330284,0.0003691538,-0.049196456,42.498615,156.9064,0.0047884034,1442850,-237,275,-5654,2707
80790479,3994,0,-0.48661837,-1.6971023,-9.726604,0.0026849075,-0.01028462,-0.06681943,42.490303,156.9064,0.0047884034,1442850,-885,-670,-2381,2704
80891280,4000,0,-0.22464558,-1.0540783,-9.46182,0.026494224,0.0045862305,-0.058727615,42.501385,156.9064,0.0047884034,1442850,-528,-910,-3623,2708
80995282,3994,0,0.8467456,1.8108714,-10.370156,-0.013248038,0.004567816,-0.025689194,42.506924,156.9064,0.0047884034,1442850,2084,980,1317,2710
81095279,3994,0,0.9686331,1.5361308,-10.538731,0.0022722809,0.0027068437,-0.045942336,42.493076,156.9064,0.0047884034,1442850,922,-475,737,2705
81196079,3999,0,0.43059614,0.15395685,-10.4241085,0.0076793153,-0.006756041,-0.068906456,42.518005,156.9064,0.0047884034,1442850,184,-608,-2132,2714
81300080,4000,0,-0.26828632,-0.4258368,-10.549026,0.0027738959,0.0057360264,-0.0391559,42.490303,156.9064,0.0047884034,1442850,-244,365,1077,2704
81400079,3999,0,-0.9464522,-0.09820952,-9.5098,-0.016913569,0.014305665,-0.037814744,42.506924,156.9064,0.0047884034,1442850,-217,-681,-2619,2710
81500880,3973,0,-0.97065425,1.5483117,-9.114749,-0.0029267557,0.015253326,-0.05587914,42.523544,156.9064,0.0047884034,1442850,-1447,-106,-3537,2716
81604886,4007,0,0.6811203,1.0204868,-10.605918,0.01333063,-0.011100198,-0.054965697,42.504154,156.9064,0.0047884034,1442850,190,269,-579,2709
81704890,4011,0,0.27973503,0.043083686,-10.827698,0.02301848,-0.012531498,-0.03714884,42.526314,156.9064,0.0047884034,1442850,-682,794,-394,2717
81805705,4025,0,0.16232675,-1.0346625,-10.62356,0.015799996,-0.0049950154,-0.038991857,42.520775,156.9064,0.0047884034,1442850,-663,1267,-1033,2715
81909679,3960,0,-0.79691666,0.4759405,-9.887935,-0.0031350076,0.006507449,-0.020912284,42.501385,156.9064,0.0047884034,1442850,-351,-1217,-1387,2708
82009717,4037,0,-0.39415133,1.7811508,-9.518515,-0.014914305,0.010562865,-0.020973247,42.540165,156.9064,0.0047884034,1442850,-107,468,-2156,2722
82109685,4006,0,-0.97051555,1.897214,-9.861704,-0.000598032,0.0020494494,-0.0385326,42.545708,156.9064,0.0047884034,1442850,-1628,934,-2682,2724
82214480,4001,0,1.0680635,-0.3887391,-9.963247,-0.008687362,-0.012642896,-0.016443515,42.567867,156.9064,0.0047884034,1442850,1126,1026,-1374,2732
82318488,3995,0,-0.5388371,-0.21539353,-8.987588,-0.011326632,0.0045154504,-0.070709705,42.542934,156.9064,0.0047884034,1442850,199,-1242,-4906,2723
82419279,3999,0,0.17681415,1.3189826,-8.829471,0.0041219355,0.008808867,-0.066793695,42.584488,156.9064,0.0047884034,1442850,955,-1106,-5245,2738
82519280,3994,0,-0.07337287,1.7464945,-8.887623,0.019867036,0.008048792,-0.037707202,42.567867,156.9064,0.0047884034,1442850,-727,164,-3317,2732
83232959,4073,0,-0.3474188,-1.5807241,-9.646327,0.028168293,-0.004109018,-0.06122751,42.606647,156.9064,0.0047884034,1442850,-505,-18,-6654,2746
83336923,4030,0,0.007127723,0.23180452,-9.745292,-0.0007206667,0.003208829,-0.03733305,42.570637,156.9064,0.0047884034,1442850,1169,-1558,-2770,2733
83437722,4043,0,0.23717305,1.5202976,-9.212459,-0.021137953,0.008334853,-0.026417501,42.61496,156.9064,0.0047884034,1442850,1476,-531,-499,2749
83537687,4008,0,1.1001599,1.2305889,-9.646814,0.0032508369,-0.012238917,-0.02365962,42.60111,156.9064,0.0047884034,1442850,1221,757,-3253,2744
83641679,3992,0,0.34291995,-0.88451004,-9.728286,-0.013641463,-0.009600634,-0.04833629,42.57895,156.9064,0.0047884034,1442850,638,512,-3213,2736
83742489,4010,0,-0.40763488,-0.83842176,-10.44027,-0.016791306,0.006104038,-0.016440017,42.584488,156.9064,0.0047884034,1442850,0,386,920,2738
83842491,4005,0,-0.36974114,0.14718086,-9.751035,-0.019911204,0.007908352,-0.012888115,42.59834,156.9064,0.0047884034,1442850,333,47,-1431,2743
83946483,4001,0,-0.46760303,1.9135159,-8.528583,0.007885111,0.009535378,-0.04236661,42.62327,156.9064,0.0047884034,1442850,-1256,290,-5867,2752
84047280,4001,0,-0.61158633,0.98212594,-9.796458,0.0014348198,0.0009214537,-0.06482908,42.63435,156.9064,0.0047884034,1442850,-217,426,-1781,2756
84147291,3974,0,-0.07207519,-0.44163334,-10.46111,0.0038822265,-0.012749223,-0.034774296,42.6205,156.9064,0.0047884034,1442850,-1252,379,-708,2751
84251279,3978,0,0.031198384,-0.9097363,-9.453273,0.005620884,-0.0012729064,-0.022732437,42.6482,156.9064,0.0047884034,1442850,-378,34,-532,2761
84352080,4000,0,-0.054762732,0.56649935,-9.536092,0.0289227,0.017558528,-0.046012178,42.609417,156.9064,0.0047884034,1442850,-90,-481,-1525,2747
84452079,3999,0,0.08138756,1.9469802,-9.620523,0.01675547,0.0070131277,-0.073845044,42.6205,156.9064,0.0047884034,1442850,-245,-37,-4644,2751
84552079,4000,0,0.18532023,0.9603172,-10.143434,0.004031178,0.004081144,-0.055802047,42.64266,156.9064,0.0047884034,1442850,-30,26,691,2759
84656079,3959,0,0.8865499,-0.8639158,-10.261446,-0.019527724,-0.00063796947,-0.035601594,42.63712,156.9064,0.0047884034,1442850,1733,-1048,740,2757
84756879,3989,0,0.15138142,-1.279328,-9.127842,-0.019210123,0.00049874245,-0.033640016,42.62327,156.9064,0.0047884034,1442850,1915,-109,-3777,2752
84856880,4001,0,0.2975983,-0.55580086,-9.492087,-0.0119457245,0.009675122,-0.01759835,42.63435,156.9064,0.0047884034,1442850,717,-159,-144,2756
84960886,4007,0,-0.5941692,1.3209475,-9.284028,-0.0014426945,0.0036364682,-0.046317138,42.6759,156.9064,0.0047884034,1442850,-139,-24,-3385,2771
85061679,3992,0,-0.2885387,0.28544927,-9.661868,-0.0021612297,-0.014802613,-0.040276952,42.6482,156.9064,0.0047884034,1442850,-158,-386,-2441,2761
85161679,3971,0,-0.040551074,-0.95561695,-10.056418,-0.0020812145,-0.007140379,-0.011183749,42.63989,156.9064,0.0047884034,1442850,-977,-283,4,2758
85265703,4023,0,-0.23827985,-0.50880224,-9.00537,0.023111917,0.004022971,-0.040888526,42.66759,156.9064,0.0047884034,1442850,-631,-481,-3789,2768
85366539,4056,0,0.387989,1.7561414,-9.885062,0.003349584,0.005745122,-0.043105684,42.67313,156.9064,0.0047884034,1442850,425,1157,-870,2770
85466517,4034,0,0.5499711,1.737296,-10.436813,0.0019216491,0.0010240178,-0.036938213,42.63712,156.9064,0.0047884034,1442850,1150,-357,901,2757
85570479,3986,0,0.53131115,0.0061203595,-9.944073,-0.021550082,-0.005483253,-0.033543393,42.68421,156.9064,0.0047884034,1442850,1368,372,-2888,2774
85671279,4000,0,0.56596845,-0.8861501,-10.479052,-0.01971463,-0.0043879887,-0.025802365,42.65928,156.9064,0.0047884034,1442850,1652,1006,669,2765
85771285,4006,0,0.1821678,-0.6212048,-10.0218,-0.006331533,0.005361872,-0.008755925,42.67036,156.9064,0.0047884034,1442850,1518,-1172,-546,2769
85875280,3994,0,-0.1661684,1.3501719,-8.960535,-0.0052415114,0.008574596,-0.03009221,42.68421,156.9064,0.0047884034,1442850,382,-372,-1183,2774
85976079,3999,0,-0.23253492,1.3861083,-10.277403,-0.009740345,-0.0095681865,-0.043220017,42.722992,156.9064,0.0047884034,1442850,32,1040,-2546,2788
86076079,3932,0,0.85211396,-0.40880919,-10.597962,-0.016828928,-0.0052779545,-0.023965456,42.67867,156.9064,0.0047884034,1442850,1197,-785,353,2772
86176117,4037,0,1.1616879,-1.0378731,-10.132576,-0.010051457,-0.013984403,-0.03828025,42.6759,156.9064,0.0047884034,1442850,1780,700,-2291,2771
86280890,3972,0,-0.43800896,0.16821177,-8.639876,-0.016511623,0.0061066593,-0.024892619,42.68975,156.9064,0.0047884034,1442850,-20,-447,-4375,2776
86384886,4006,0,-0.33135584,1.1525155,-9.232669,0.0038918806,-0.0042814678,-0.045905843,42.68975,156.9064,0.0047884034,1442850,-116,-184,-2734,2776
86484886,4006,0,-0.4625311,0.4400367,-9.669469,0.0018769174,-0.0049002552,-0.024788965,42.70637,156.9064,0.0047884034,1442850,-444,1252,-2161,2782
86585690,4010,0,-0.15006946,-1.1821376,-10.347485,-0.030578196,-0.01033445,-0.04978054,42.736843,156.9064,0.0047884034,1442850,-544,97,-2912,2793
86689679,3999,0,-1.3078207,-0.53332585,-9.198295,0.006636715,0.0027649,-0.04974799,42.700832,156.9064,0.0047884034,1442850,-1608,-324,-4060,2780
86789679,3975,0,-1.0570489,0.3428481,-9.453303,-0.0045826994,0.013877413,-0.04024871,42.753464,156.9064,0.0047884034,1442850,-460,-1285,-1499,2799
86893680,3994,0,-0.46682557,1.920198,-9.672854,0.004895742,0.006100877,-0.060492493,42.736843,156.9064,0.0047884034,1442850,-2069,-245,-1156,2793
86994487,3993,0,-0.22776046,-0.05111477,-9.510352,0.008606039,-0.00656186,-0.027739655,42.76731,156.9064,0.0047884034,1442850,-1330,-884,-1626,2804
87094483,3992,0,0.24399875,-1.0954542,-10.072252,-0.0038642238,-0.0035992998,-0.049049065,42.74792,156.9064,0.0047884034,1442850,641,-591,-2781,2797
87194483,4004,0,0.40193728,-1.6719238,-10.383701,-0.013695601,0.0013965596,-0.035410155,42.761772,156.9064,0.0047884034,1442850,1705,-1000,-610,2802
87299279,3993,0,0.051065415,0.9437374,-10.03755,-0.023959892,0.01775653,-0.045450162,42.761772,156.9064,0.0047884034,1442850,1043,-1405,1406,2802
87399319,4034,0,0.8830267,1.8410076,-9.4210825,-0.008165974,-0.0023240936,-0.024275795,42.778393,156.9064,0.0047884034,1442850,1356,1,-929,2808
87499280,4000,0,0.072171465,1.9474355,-10.290297,0.027289208,0.00042683235,-0.063829824,42.756233,156.9064,0.0047884034,1442850,-1284,-178,-651,2800
87604105,4025,0,1.1917917,-0.77026546,-10.112732,0.009093716,-0.005574651,-0.052773118,42.753464,156.9064,0.0047884034,1442850,991,50,-2212,2799
87704080,4001,0,-0.9135499,-1.2918264,-10.268196,0.014842596,-0.0028183763,-0.04350386,42.734074,156.9064,0.0047884034,1442850,-1572,555,-2207,2792
87804079,3993,0,-0.5520269,-0.20696735,-8.646235,-0.014231453,0.0026370636,-0.032498226,42.78393,156.9064,0.0047884034,1442850,608,-572,-5360,2810
87908911,4032,0,-0.101148464,1.5763572,-9.254012,0.016951099,0.006458378,-0.04846119,42.756233,156.9064,0.0047884034,1442850,-617,-728,-1760,2800
88008886,4007,0,-0.20573454,0.6391008,-9.659167,-0.0076761246,-0.002251374,-0.01996909,42.76731,156.9064,0.0047884034,1442850,206,1212,-1561,2804
88108879,3961,0,0.4043882,-0.9144922,-9.770792,-0.029267753,-0.000591204,-0.041429494,42.76454,156.9064,0.0047884034,1442850,1167,416,-3417,2803
88209680,3934,0,-0.22249603,-1.8632951,-10.1835375,-0.028671853,-0.008298506,-0.018885547,42.795013,156.9064,0.0047884034,1442850,242,-999,-1238,2814
88313679,3962,0,-0.664283,0.46793225,-9.023568,-0.0050968956,0.0088327285,-0.060010962,42.808865,156.9064,0.0047884034,1442850,-135,-1177,-4124,2819
88413703,4024,0,-1.0211728,0.9720637,-9.862602,-0.00597065,0.007124506,-0.037110623,42.786705,156.9064,0.0047884034,1442850,-1270,-1188,1107,2811
88514499,4019,0,-0.7304974,1.5685525,-8.942169,-0.013434625,-0.0047813086,-0.016093737,42.817173,156.9064,0.0047884034,1442850,-782,1466,-4328,2822
88618482,3996,0,-0.18006045,-0.8894645,-10.667239,0.01922243,-0.014803155,-0.04816269,42.822716,156.9064,0.0047884034,1442850,-792,298,-633,2824
88718485,4003,0,-0.71440977,-1.0873158,-9.838703,-0.008131921,0.0031214221,-0.027184265,42.817173,156.9064,0.0047884034,1442850,-895,439,-3415,2822
88819285,4006,0,-0.64100486,-0.25298038,-8.788618,-0.0077385027,0.0074437475,-0.049618818,42.786705,156.9064,0.0047884034,1442850,-852,-1867,-1944,2811
88923279,3993,0,-0.080557406,1.3585607,-9.787869,0.011680232,0.0056513464,-0.04766178,42.789474,156.9064,0.0047884034,1442850,169,-1164,-411,2812
89023279,3978,0,0.010232686,1.2746283,-9.67044,0.024784464,-0.0036692135,-0.0227461,42.825485,156.9064,0.0047884034,1442850,-982,1241,-2586,2825
89123279,4000,0,-0.6241831,-0.3251816,-9.979447,0.004553537,-0.01406873,-0.042301044,42.803326,156.9064,0.0047884034,1442850,-1981,12,-2055,2817
89228120,4041,0,0.03504386,-0.61551327,-10.592776,0.003529526,-0.00054866564,-0.032201663,42.836563,156.9064,0.0047884034,1442850,134,-364,-1810,2829
89328080,3994,0,-0.10144632,0.8367328,-9.680608,0.005943368,0.012817153,-0.040872294,42.828255,156.9064,0.0047884034,1442850,686,-46,60,2826
89428079,3993,0,-0.3322292,1.4464273,-8.717161,0.012766019,0.00054150244,-0.014097739,42.811634,156.9064,0.0047884034,1442850,-1403,-169,-2656,2820
89532922,4043,0,0.40187776,0.045632824,-10.155395,0.028744178,-0.005624801,-0.027567698,42.878117,156.9064,0.0047884034,1442850,-535,1331,-1679,2844
89632880,4001,0,-0.2135753,-1.3123016,-10.231228,0.01587452,-0.00941208,-0.035021678,42.867035,156.9064,0.0047884034,1442850,-870,366,-3660,2840
90647279,4000,0,0.07522791,-0.7029038,-9.705556,0.023413923,-0.011088295,-0.01409149,42.886425,156.9064,0.0047884034,1442850,-559,1524,-3305,2847
90748080,4001,0,-1.4574195,-0.98932624,-10.405331,-0.01623435,0.006551878,-0.046795387,42.900276,156.9064,0.0047884034,1442850,-1687,312,-435,2852
90852080,3994,0,-0.99542654,1.2993479,-9.35584,-0.011807396,0.014043519,-0.05636399,42.916897,156.9064,0.0047884034,1442850,-891,-378,-1579,2858
90952079,3993,0,-0.14096823,1.415783,-9.582156,-0.007534787,0.012031568,-0.03437315,42.933517,156.9064,0.0047884034,1442850,825,-1246,260,2864
91052880,4000,0,1.0223067,0.854524,-10.180266,0.007828105,-0.009473684,-0.058522075,42.858727,156.9064,0.0047884034,1442850,1362,107,-567,2837
91156880,3980,0,1.082912,-1.5004905,-10.386799,0.003847037,-0.0033020633,-0.037462346,42.922436,156.9064,0.0047884034,1442850,1539,821,-3464,2860
91256879,3999,0,-1.4098045,-1.4584503,-9.568113,0.022248669,5.224673e-05,-0.022864379,42.919666,156.9064,0.0047884034,1442850,-1903,-720,-2741,2859
91356880,3994,0,-0.069254264,0.027390137,-8.876358,-0.0042682043,0.009619528,-0.03678357,42.92521,156.9064,0.0047884034,1442850,43,-1746,-2602,2861
91457687,4007,0,-0.27839017,1.2295239,-9.828705,-0.0033756068,0.0034827343,-0.033252582,42.92521,156.9064,0.0047884034,1442850,816,-793,-728,2861
91561686,3999,0,-0.5293424,0.35186598,-9.587827,-0.013968168,-0.0017524672,-0.037625547,42.955677,156.9064,0.0047884034,1442850,-822,399,-1807,2872
91665680,4000,0,-0.6975796,-1.6446953,-10.331041,-0.007251989,-0.013521465,-0.033535387,42.955677,156.9064,0.0047884034,1442850,-1976,-129,-688,2872
91766498,4014,0,-0.7614705,-0.8680151,-9.042192,0.0012445119,0.006490685,-0.056639135,42.922436,156.9064,0.0047884034,1442850,-209,-728,-3576,2860
91870484,3999,0,0.8431052,1.1697823,-9.838446,-0.0025168713,0.0034014613,-0.052421506,42.92798,156.9064,0.0047884034,1442850,1803,-862,-76,2862
91970482,3982,0,-0.102561966,1.9463872,-10.137073,0.029146697,-0.006730514,-0.009136284,42.92798,156.9064,0.0047884034,1442850,-1168,1592,-558,2862
92071279,4789,0,1.0138848,0.22399305,-10.912536,0.020718085,-0.007411729,-0.045146625,42.933517,156.9064,0.0047884034,1442850,552,-504,320,2864
92175332,4053,0,-0.23481616,-0.9444915,-9.868765,-0.017227592,0.0033732292,-0.020257344,42.952908,156.9064,0.0047884034,1442850,137,344,-903,2871
92279279,4000,0,-0.24149546,0.6760184,-9.275282,0.013189184,0.009430815,-0.038472164,42.955677,156.9064,0.0047884034,1442850,-1091,-676,-2077,2872
92380080,4000,0,0.18772541,1.9343457,-9.903788,0.01658384,0.0005363948,-0.04536424,42.96399,156.9064,0.0047884034,1442850,-897,1143,54,2875
92480079,3954,0,0.37998143,1.3698632,-11.053442,0.016779859,-0.0065434733,-0.05997507,42.939056,156.9064,0.0047884034,1442850,61,762,-15,2866
92584079,3983,0,0.823262,-0.6100402,-9.966281,-0.020611037,-0.01205625,-0.0034914287,43.00831,156.9064,0.0047884034,1442850,1594,1180,-2806,2891
92684079,3984,0,-0.1589948,-0.29872486,-9.6115265,-0.007226471,0.0061456664,-0.021299131,42.96399,156.9064,0.0047884034,1442850,184,-86,-1459,2875
92784880,3975,0,-0.9892777,0.5996085,-8.87445,-0.011311682,0.009183709,-0.04096961,42.97784,156.9064,0.0047884034,1442850,-867,107,-3620,2880
92888922,4043,0,0.074317865,1.101706,-9.100638,0.024861038,0.0008302174,-0.07003541,42.952908,156.9064,0.0047884034,1442850,-1091,-468,-5467,2871
92988879,3999,0,-0.50446796,0.39333797,-9.788049,-0.00414877,-0.00515376,-0.05434048,42.975067,156.9064,0.0047884034,1442850,-712,290,-1531,2879
93089679,3993,0,0.47130713,-0.51601785,-10.886578,-0.0069787903,-7.40157e-05,-0.057713337,42.98061,156.9064,0.0047884034,1442850,1290,316,414,2881
93193698,4013,0,-0.9071844,0.31612557,-9.654774,0.0060329884,0.015724588,-0.057993278,42.98061,156.9064,0.0047884034,1442850,-1576,311,-1636,2881
93293697,4018,0,-0.2890135,1.3026074,-9.037897,0.015267554,0.016229402,-0.056127526,43.00831,156.9064,0.0047884034,1442850,-876,163,-3418,2891
93394479,3997,0,0.071324006,1.1203772,-9.514054,0.0018131761,-0.0007132569,-0.039713226,43.01939,156.9064,0.0047884034,1442850,-1290,229,-498,2895
93494490,4011,0,0.95038384,-0.18314534,-10.417403,-0.018779555,-0.006927098,-0.035949666,42.99446,156.9064,0.0047884034,1442850,1701,-22,541,2886
93598514,4032,0,0.1020446,-1.2716439,-10.471088,0.020163598,-0.0046692314,-0.041042656,43.03047,156.9064,0.0047884034,1442850,-901,-1080,-1299,2899
93699326,4046,0,0.27645752,-0.34684297,-10.863844,-0.0051301885,0.008661175,-0.040846244,43.01108,156.9064,0.0047884034,1442850,1062,-962,1315,2892
93799279,4000,0,0.2621126,0.8238859,-9.560439,-0.0019669523,0.0028024158,-0.034389652,43.03324,156.9064,0.0047884034,1442850,1588,-1242,-539,2900
93903279,3999,0,-0.62904894,0.8823248,-8.997191,0.010686584,0.0021831421,-0.06699003,43.047092,156.9064,0.0047884034,1442850,-666,-460,-5622,2905
94003279,3999,0,0.6362395,-0.4033552,-9.496368,0.0017005405,-0.009101815,-0.04502435,43.01385,156.9064,0.0047884034,1442850,880,-90,-5427,2893
94104079,3988,0,0.0059044547,-1.4554029,-10.333438,-0.009914899,0.00094279647,-0.04525435,43.03601,156.9064,0.0047884034,1442850,658,-1533,-2327,2901
94208094,4008,0,-1.2683772,0.9956311,-8.994133,0.022429287,0.011393747,-0.02883107,43.02493,156.9064,0.0047884034,1442850,-2386,584,-3952,2897
94308079,3963,0,-0.651703,1.1811962,-9.398627,0.0205391,0.0024365005,-0.035533868,43.03601,156.9064,0.0047884034,1442850,-1995,-199,-2467,2901
94408879,3959,0,-0.03690463,1.3156451,-10.091229,0.030034024,-0.008510886,-0.025656562,43.047092,156.9064,0.0047884034,1442850,-906,1009,-2151,2905
94512879,3958,0,0.8009791,-0.8134195,-10.431491,-0.0073901163,-0.0031613503,-0.034597334,43.080334,156.9064,0.0047884034,1442850,1457,-884,738,2917
94612880,4001,0,0.24450536,-0.5956418,-9.710052,-0.0030174418,-0.0013774042,-0.02263143,43.07756,156.9064,0.0047884034,1442850,1141,-602,-3127,2916
94713680,3994,0,0.004665293,0.8643564,-9.336953,-0.0013230208,0.001378675,-0.02701917,43.027702,156.9064,0.0047884034,1442850,73,324,-1083,2898
94817694,3982,0,0.24178284,1.6023638,-9.190613,-0.006155871,-0.0033144304,-0.04024435,43.049862,156.9064,0.0047884034,1442850,179,805,-3657,2906
95022494,4011,0,0.19840692,-1.6299136,-9.662609,-0.016436331,0.007590518,-0.050466184,43.069252,156.9064,0.0047884034,1442850,1283,-1291,-1219,2913
95122487,4004,0,-0.47690275,-0.45262924,-9.641425,0.015387281,0.010889941,-0.0372679,43.063713,156.9064,0.0047884034,1442850,-800,124,-2680,2911
95226484,3989,0,0.50770867,2.1135914,-8.672605,0.017044317,0.008229057,-0.032063827,43.0554,156.9064,0.0047884034,1442850,-279,479,-2931,2908
95327280,4000,0,-0.3838842,1.7085032,-10.248178,0.0071767378,-0.0012096565,-0.055175077,43.099724,156.9064,0.0047884034,1442850,-1098,34,371,2924
95427280,4001,0,0.93624425,0.22535418,-9.919825,-0.011849169,-0.008278226,-0.02907315,43.088642,156.9064,0.0047884034,1442850,1027,932,-1196,2920
95531285,4005,0,0.003296923,-0.69578516,-10.481802,0.012496758,0.00018490152,-0.038934093,43.09141,156.9064,0.0047884034,1442850,-587,848,1449,2921
95632080,3994,0,-0.98671114,0.04594562,-8.880577,-0.017087545,0.016930128,-0.025854006,43.09418,156.9064,0.0047884034,1442850,-42,-1017,-3006,2922
95732119,4034,0,1.1952341,1.09225,-9.440553,-0.00024765078,0.0048732,-0.042260334,43.096954,156.9064,0.0047884034,1442850,2009,-534,-1774,2923
95836155,4076,0,1.2650913,1.203696,-9.775695,-0.005617291,-0.008619299,-0.02733007,43.116344,156.9064,0.0047884034,1442850,1787,373,-1610,2930
95936086,4006,0,-0.09081105,0.41280502,-9.851565,0.02808997,-0.0077563105,-0.06443773,43.102493,156.9064,0.0047884034,1442850,-1082,380,-5439,2925
96036880,4001,0,-0.40442172,-1.1872318,-10.526861,-0.0029391274,-0.0015979456,-0.048118886,43.102493,156.9064,0.0047884034,1442850,-1642,572,-470,2925
96140880,4001,0,-1.198648,-0.21068463,-9.299943,0.013442421,0.008208222,-0.03302159,43.160664,156.9064,0.0047884034,1442850,-2163,-126,-2393,2946
96240879,4000,0,0.2763,0.41732103,-9.3044405,-0.017882176,0.01544098,-0.050692827,43.116344,156.9064,0.0047884034,1442850,2153,-2155,-1318,2930
96341686,3999,0,0.7846203,1.8588034,-9.91568,0.006652401,-0.004680884,-0.02499237,43.124653,156.9064,0.0047884034,1442850,665,1179,-2736,2933
96441710,3986,0,-0.34083587,1.3617433,-10.150962,0.025256764,-0.0065699625,-0.04774822,43.152355,156.9064,0.0047884034,1442850,-1348,-417,-1591,2943
96545679,3974,0,-0.1593583,-0.691599,-9.520933,0.025717575,-0.007585325,-0.053524327,43.121883,156.9064,0.0047884034,1442850,-396,204,-4436,2932
96646484,3967,0,-1.1921825,-1.2138757,-9.991837,-0.002774892,-0.008478506,-0.057611797,43.160664,156.9064,0.0047884034,1442850,-2491,-455,-863,2946
96746480,3998,0,-0.6768103,-0.45553148,-9.812222,-0.028320715,0.009287012,-0.055788714,43.132965,156.9064,0.0047884034,1442850,214,-754,-740,2936
96850484,3984,0,-0.45078382,0.9363514,-8.509919,-0.029052373,0.008825136,-0.047343247,43.149586,156.9064,0.0047884034,1442850,669,-935,-2348,2942
96951280,4000,0,0.5918231,1.206724,-8.968955,-0.015965763,-0.0066526704,-0.02291125,43.141273,156.9064,0.0047884034,1442850,748,1523,-3789,2939
97051279,4000,0,0.49997136,0.00936513,-9.442354,0.023433972,-0.0028151567,-0.04811801,43.177284,156.9064,0.0047884034,1442850,0,320,-4812,2952
97155286,4007,0,-0.036481418,-0.683907,-10.298366,0.009306823,0.0018937639,-0.019679112,43.177284,156.9064,0.0047884034,1442850,-572,619,1519,2952
97255279,3999,0,-0.72854954,0.4462281,-10.074653,0.02885359,0.0057511767,-0.020925626,43.188366,156.9064,0.0047884034,1442850,-2165,183,1134,2956
97356079,3993,0,-0.7790141,1.7653642,-8.838799,0.020732312,0.005897549,-0.030404517,43.138504,156.9064,0.0047884034,1442850,-1211,181,-4391,2938
