timestamp,integral_dt,error_count,x,y,z,x_integral,y_integral,z_integral,temperature,range_m_s2,scaling,device_id,x_raw,y_raw,z_raw,temperature_raw
55789094,5267,0,-0.06762908,0.20127018,-9.717425,0.0014777553,0.005240651,-0.051664762,29.0,78.0,0.0023928226,1114658,1,197,-4487,4693
55889901,4224,0,0.1315325,0.6557489,-10.235853,-0.001957089,-0.0098114,-0.041114822,29.0,78.0,0.0023928226,1114658,532,892,-3478,4705
55990717,4240,0,0.02071328,1.0120745,-9.916545,0.006441792,0.009847801,-0.038220253,29.0,78.0,0.0023928226,1114658,-1277,603,-4288,2606
56092526,4170,0,-0.73563373,-1.2473909,-9.948116,-0.0029672612,0.0074216546,-0.040259283,29.125,78.0,0.0023928226,1114658,-896,1274,-2301,16873
56195544,4293,0,-0.48556662,-0.9513519,-9.812959,0.0058890744,0.014698024,-0.047804225,29.0,78.0,0.0023928226,1114658,-946,1209,-3947,2614
56296317,4290,0,-0.13937074,-0.10087972,-10.090191,-0.0004949004,0.006800747,-0.044654544,29.0,78.0,0.0023928226,1114658,-171,845,-4062,2618
56399159,4232,0,0.2071406,1.0438278,-10.007457,0.0007254219,0.0030639684,-0.041679755,29.125,78.0,0.0023928226,1114658,433,153,-3010,2049
56498876,4172,0,-0.04956715,0.6773428,-9.772887,-0.0042593447,-0.00036101538,-0.03965431,29.125,78.0,0.0023928226,1114658,1285,-174,-3036,16
56600727,5220,0,-0.16662864,-0.57741976,-10.19445,0.004605091,0.012438287,-0.054034118,29.0,78.0,0.0023928226,1114658,221,1165,-2148,2638
56702679,4303,0,-1.2376676,-1.0148622,-10.074581,-0.0036876302,-0.011770031,-0.047454383,29.125,78.0,0.0023928226,1114658,1202,317,-4305,4730
56803474,4297,0,0.79590625,0.008743481,-9.702479,-0.015354774,-0.004543386,-0.04099286,29.0,78.0,0.0023928226,1114658,2340,-170,-1094,4741
56904245,5318,0,-0.7686437,0.9849808,-10.200845,-0.023486013,-0.012135848,-0.04977408,29.125,78.0,0.0023928226,1114658,4097,80,-3,4737
57008158,4232,0,0.17027259,-0.22368161,-9.463558,0.00096888596,0.01655306,-0.044640064,29.125,78.0,0.0023928226,1114658,-671,1427,-2126,2049
57108926,4150,0,-1.0568471,-0.5209225,-10.073632,-0.004822706,-0.018085945,-0.040268686,29.25,78.0,0.0023928226,1114658,2312,1450,-3365,2629
57208708,4232,0,-1.0738266,0.471538,-9.110436,-0.021394828,-0.024450893,-0.04106548,29.125,78.0,0.0023928226,1114658,1128,811,-6256,16
57310527,5239,0,1.477271,0.25808614,-9.963412,-0.0044350405,0.008010548,-0.057467967,29.125,78.0,0.0023928226,1114658,1515,-2643,-2768,0
57415533,4206,0,1.287483,0.31202313,-10.724321,0.0133273825,0.0034526929,-0.03452062,29.0,78.0,0.0023928226,1114658,-635,-1800,-766,2634
57516331,5245,0,0.6404594,1.1662587,-10.990146,0.02382487,0.0018588292,-0.050817434,29.125,78.0,0.0023928226,1114658,1106,2177,1267,2628
57613977,4156,0,1.7460548,0.2829019,-10.084168,-0.010302541,-0.0034276436,-0.04925226,29.0,78.0,0.0023928226,1114658,-218,-4676,-3569,8192
57718977,4169,0,0.04379853,-0.66072315,-11.133473,-0.03377924,-0.008113266,-0.033085342,29.25,78.0,0.0023928226,1114658,971,-1506,-7002,4767
57821895,4219,0,0.086992055,0.21152118,-10.622827,0.0132011045,0.004075536,-0.06837508,29.25,78.0,0.0023928226,1114658,1064,-2083,-2099,2642
57922693,5266,0,-0.32707998,1.5583528,-10.512419,0.032630865,0.020204859,-0.08393152,29.25,78.0,0.0023928226,1114658,1176,2586,-3967,4778
58027681,4180,0,0.13216315,-0.35504654,-9.391046,-0.029114768,-0.00028228812,-0.009823562,29.125,78.0,0.0023928226,1114658,269,-930,-6750,8193
58127509,4261,0,-1.1683925,-0.7676331,-10.2182255,-0.003279524,0.0061777215,-0.03528245,29.125,78.0,0.0023928226,1114658,-1558,3484,-3678,4776
58228340,4281,0,-0.33567643,-0.6966208,-9.967074,-0.0036383478,0.004800663,-0.027466033,29.125,78.0,0.0023928226,1114658,491,1703,-1361,2643
58331154,4227,0,-1.2312547,0.22153544,-9.446677,-0.013600103,0.004240028,-0.026840378,29.125,78.0,0.0023928226,1114658,-739,4762,-2211,2049
58431927,4200,0,-0.17901969,0.43880674,-10.780228,-0.016815042,-0.0075871935,-0.04045596,29.125,78.0,0.0023928226,1114658,2488,1352,2733,2646
58531677,4153,0,1.0640347,-0.22343415,-10.463102,0.0029797521,0.0023628494,-0.07724307,29.25,78.0,0.0023928226,1114658,2050,-3666,-2116,2048
58632509,4172,0,-0.40381798,-0.67144376,-9.83965,0.011848095,0.001984002,-0.05315989,29.125,78.0,0.0023928226,1114658,1999,85,-6603,16873
58737477,4201,0,0.44754964,1.3282145,-10.093969,0.017213615,-0.0123500135,-0.048787113,29.125,78.0,0.0023928226,1114658,-541,-2075,-5179,16
58840410,4165,0,0.3686496,1.1256713,-10.287582,0.011308426,-0.015754284,-0.05989271,29.125,78.0,0.0023928226,1114658,2896,-239,-2969,2653
58941203,5276,0,0.095827185,0.025474811,-11.857674,-0.009010159,-0.018337267,-0.063989796,29.125,78.0,0.0023928226,1114658,1966,1272,-1464,8193
59041977,4132,0,-1.1679552,-0.97562057,-10.585194,0.014251674,0.001914324,-0.04058169,29.25,78.0,0.0023928226,1114658,-94,5322,-5538,4805
59146977,5251,0,-0.6837541,0.46798602,-10.282482,-0.033513956,0.0028129565,-0.050701134,29.25,78.0,0.0023928226,1114658,1158,-1294,-3735,2659
59246750,4224,0,-0.88739574,0.7223016,-10.387915,-0.022892801,0.013132079,-0.045363035,29.25,78.0,0.0023928226,1114658,192,731,-5642,8193
59347545,4219,0,-0.70299274,0.11828598,-10.56711,-0.003174553,-0.0019767717,-0.043422673,29.25,78.0,0.0023928226,1114658,397,884,-4170,2666
59450426,4200,0,0.048531458,-1.1117785,-11.343917,0.029351335,-0.014052083,-0.039396413,29.25,78.0,0.0023928226,1114658,1980,1844,-5000,16
59551227,4201,0,-0.97754383,-0.76169634,-10.645594,-0.018299207,0.015563009,-0.037727647,29.25,78.0,0.0023928226,1114658,-2063,398,-7505,16
59650977,4200,0,-0.04111965,0.2581976,-11.117639,-0.01356319,-0.0046533914,-0.03162969,29.125,78.0,0.0023928226,1114658,-1946,-2552,-5083,2661
59757162,4335,0,0.49078378,0.22546515,-11.023954,-0.010715001,-0.017965345,-0.03942467,29.125,78.0,0.0023928226,1114658,922,-4402,-2575,2670
59856776,4200,0,-0.4919596,-0.3661786,-10.52624,-0.004405246,0.008632266,-0.0621155,29.125,78.0,0.0023928226,1114658,-1021,1950,-7342,16
59957581,4204,0,-2.0588834,-1.2371757,-10.764489,-0.034486804,0.0026903385,-0.032609005,29.25,78.0,0.0023928226,1114658,-287,4094,-3474,16
60062650,4273,0,0.0010008658,0.6063657,-10.354544,-0.011704629,-0.003486265,-0.032161016,29.25,78.0,0.0023928226,1114658,-2047,-1224,-2144,4855
60161277,4161,0,0.17778106,0.80358386,-9.464352,0.0007005209,-0.004152237,-0.049095746,29.25,78.0,0.0023928226,1114658,2656,-1052,-5484,4852
60261138,4312,0,0.23879512,0.2077704,-10.669536,-0.0072986707,-0.013163065,-0.055357933,29.25,78.0,0.0023928226,1114658,2762,61,-518,16
60365045,5272,0,-0.89388347,-1.3872528,-10.519557,-0.008714346,0.0021264649,-0.036231462,29.125,78.0,0.0023928226,1114658,-1232,1797,-2702,4856
60464782,4254,0,-1.398097,-0.23713614,-9.663664,-0.013353819,0.018355493,-0.035460137,29.125,78.0,0.0023928226,1114658,-78,2715,-2994,0
60565527,4180,0,-1.179161,1.7006944,-9.639231,-0.000738775,0.0031820396,-0.06183182,29.375,78.0,0.0023928226,1114658,713,4291,-3436,8192
60668427,4127,0,0.34820867,0.8285373,-9.714993,0.0085644,-0.013375136,-0.053594574,29.125,78.0,0.0023928226,1114658,2714,-1189,-7245,2675
60769227,4110,0,-0.53800637,-0.8872137,-10.768846,-0.014421783,-0.0053934753,-0.036886286,29.25,78.0,0.0023928226,1114658,2712,1677,-2688,2668
60870027,4110,0,-1.2888119,-1.1328443,-10.460505,0.017661741,0.009870549,-0.05184553,29.25,78.0,0.0023928226,1114658,-321,4777,-1564,2669
60971876,4199,0,-0.13952115,0.9049597,-9.766808,-0.014556328,0.013204544,-0.057207044,29.375,78.0,0.0023928226,1114658,-835,-1514,-2355,2048
61073727,5237,0,-0.06655461,1.3022203,-10.248919,-0.021055521,0.00044873357,-0.059066597,29.25,78.0,0.0023928226,1114658,33,-788,-15,16
61177713,4230,0,-0.29792738,-0.7366529,-9.843086,0.0201897,-0.001299428,-0.04812189,29.25,78.0,0.0023928226,1114658,981,3491,-2053,8193
61276407,4162,0,0.5800147,-1.1945932,-10.34868,0.006847276,-0.0004550888,-0.05310273,29.375,78.0,0.0023928226,1114658,-358,-1894,-5206,16
61377196,4125,0,-0.4472677,-0.88710856,-11.2350855,-0.00820132,-0.0021022402,-0.030330447,29.375,78.0,0.0023928226,1114658,2650,-3472,1448,16
61482177,4164,0,-0.31477514,1.9653586,-9.051955,-0.0016758811,-0.0013942559,-0.049197596,29.125,78.0,0.0023928226,1114658,-1355,-294,-8828,8192
61582977,5250,0,0.32072333,0.6630325,-10.180028,0.017868074,-0.008422369,-0.05353863,29.25,78.0,0.0023928226,1114658,3680,1916,-3146,2675
61683801,4210,0,0.09536896,-1.1226358,-9.959387,0.024579847,-0.0029310323,-0.03263569,29.25,78.0,0.0023928226,1114658,2239,-948,-3048,2049
61783545,4218,0,-0.41689688,-1.0057688,-9.1314945,-0.0015248517,0.009778518,-0.023647236,29.25,78.0,0.0023928226,1114658,-199,-1404,-5131,2686
61886427,4200,0,-0.41767424,0.9757219,-9.222371,0.009180916,-0.0050139595,-0.00778208,29.125,78.0,0.0023928226,1114658,336,2986,-679,8192
61987227,4200,0,-0.860041,1.0296541,-9.5718565,0.010226129,0.001978342,-0.034608383,29.25,78.0,0.0023928226,1114658,1285,3951,-3575,0
62092332,5355,0,0.44291064,-0.89070934,-11.09224,0.008084276,-0.024690805,-0.047516413,29.375,78.0,0.0023928226,1114658,3773,-529,1571,2687
62193131,4305,0,0.009353241,-1.0004961,-10.446306,-0.006025106,0.001469963,-0.039417908,29.25,78.0,0.0023928226,1114658,-744,-779,352,2696
62293894,4262,0,-0.0773162,0.77614695,-9.649896,-0.013698348,0.0015265046,-0.044467896,29.375,78.0,0.0023928226,1114658,-402,-3140,-4484,4932
62396752,4195,0,-0.3569482,0.33455655,-8.197338,-0.019756334,-0.009563187,-0.04638443,29.375,78.0,0.0023928226,1114658,-991,2227,-3182,16
62497563,5240,0,-0.238985,0.21574172,-7.0052657,0.01918173,-0.0030820249,-0.042020943,29.25,78.0,0.0023928226,1114658,1763,3860,-3850,16
62601479,4202,0,-1.28515,0.11564836,-7.112476,0.045662496,0.015072936,-0.045687106,29.375,78.0,0.0023928226,1114658,-2421,3249,-4535,16
62698077,4160,0,0.5946479,0.7250297,-9.237746,-0.013764332,-0.0020274583,0.0026043665,29.25,78.0,0.0023928226,1114658,2432,-2586,2781,2705
62803076,4198,0,0.5560091,-0.40999573,-8.842707,-0.010026451,-0.010208205,-0.03180385,29.25,78.0,0.0023928226,1114658,-845,-3352,-186,16
62903876,4199,0,0.110228255,-0.20226383,-10.259218,-0.0021195433,-0.00043282687,-0.0709144,29.375,78.0,0.0023928226,1114658,784,906,978,16
63007827,4200,0,-0.5422532,-0.23616873,-10.226854,-0.03804069,-0.0015761745,0.017743375,29.375,78.0,0.0023928226,1114658,-2629,-3223,-7204,2704
63109677,5250,0,0.0009043074,1.9105651,-9.968355,0.013910168,0.013498148,-0.07070545,29.375,78.0,0.0023928226,1114658,-766,1557,-7391,16
63214719,4242,0,-0.59311277,-0.21884023,-10.3186455,-0.0050347704,0.009167305,-0.039502114,29.25,78.0,0.0023928226,1114658,2958,3155,-6208,2705
63316526,4200,0,-1.0572643,-1.3310386,-12.1589,0.014258357,-0.00072540605,-0.06627934,29.25,78.0,0.0023928226,1114658,4171,5912,4245,8192
63418380,5225,0,-0.81858647,-0.44225618,-10.797648,-0.010736943,0.0030991235,-0.041161057,29.375,78.0,0.0023928226,1114658,1512,1118,-1666,2706
63522326,4168,0,-0.7293571,1.862084,-10.155293,0.025414506,-0.0026033889,-0.037665013,29.5,78.0,0.0023928226,1114658,943,2219,-4425,16
63623160,4224,0,-0.012536885,1.0867916,-10.316796,0.027223442,-0.016148908,-0.03993292,29.25,78.0,0.0023928226,1114658,1611,-393,-8247,16
63723927,4200,0,-0.20376113,-0.9499598,-11.159358,-0.026061503,-0.0073915706,-0.058289606,29.25,78.0,0.0023928226,1114658,859,1383,-4108,16
63824777,4243,0,-1.3437715,-1.3255955,-10.848139,-0.025586646,0.008752479,-0.051625885,29.375,78.0,0.0023928226,1114658,342,2582,1146,0
63929765,4239,0,-0.6657451,0.9877672,-9.5399685,-0.009834068,0.008042854,-0.046870675,29.375,78.0,0.0023928226,1114658,-125,1268,-5403,16
64028459,4118,0,0.56398034,0.854424,-8.567205,-0.009781868,-0.007259914,-0.055711947,29.25,78.0,0.0023928226,1114658,-1298,-2706,-7587,2048
64128246,4269,0,1.2528077,1.5215307,-10.61921,0.018297905,-0.0009681346,-0.072975345,29.375,78.0,0.0023928226,1114658,4985,-2708,-1174,4999
64231077,4200,0,-0.031427875,-1.1463315,-10.585223,-0.016660757,0.0067296796,-0.046034776,29.375,78.0,0.0023928226,1114658,-203,-2503,-4695,8193
64336076,4200,0,-0.15544239,0.432879,-9.942558,0.014336386,0.0143540315,-0.042503797,29.375,78.0,0.0023928226,1114658,2179,2393,-351,8192
64436877,4200,0,0.13165112,2.068028,-9.917177,0.016803592,0.00051366806,-0.07744004,29.5,78.0,0.0023928226,1114658,73,-1148,-7328,16
64539822,4245,0,-0.29342577,0.11597321,-10.568236,-0.0077150813,-0.010814784,-0.049663126,29.25,78.0,0.0023928226,1114658,-1930,413,-4218,2726
64642727,5300,0,-0.25119478,-1.221246,-11.3232765,-5.334805e-05,0.0014777445,-0.058288105,29.375,78.0,0.0023928226,1114658,-48,2833,1131,2720
64743560,4280,0,-1.8680779,-0.32712236,-9.8959,0.026215384,0.009637275,-0.045463942,29.375,78.0,0.0023928226,1114658,-505,5842,-6075,2717
64842177,5250,0,-0.22991844,0.59600127,-9.541914,0.014360844,0.011607893,-0.063763715,29.375,78.0,0.0023928226,1114658,-2806,1003,-6658,8193
64946159,4194,0,0.036475953,0.5250493,-9.965048,-0.012944894,-0.009876169,-0.014587676,29.375,78.0,0.0023928226,1114658,-1747,-3247,-6011,8193
65048014,5246,0,-0.17040718,-1.2535653,-10.299479,-0.019306323,-0.006107406,-0.04314286,29.375,78.0,0.0023928226,1114658,726,907,-4765,2049
65147727,4156,0,-0.717328,-1.0991061,-11.09816,-0.0065599303,-0.0026032496,-0.04409162,29.5,78.0,0.0023928226,1114658,-820,73,142,2724
65250737,4311,0,-0.865761,1.3371803,-9.222928,0.024219906,0.02085624,-0.04507852,29.375,78.0,0.0023928226,1114658,-484,2581,-5213,2722
65351523,5346,0,-0.2800143,1.4284756,-9.01151,-0.006570561,0.009545177,-0.078540996,29.375,78.0,0.0023928226,1114658,-476,109,-9257,2732
66169377,4200,0,-1.0914254,1.554183,-10.176605,-0.017680671,0.009241568,-0.0323534,29.5,78.0,0.0023928226,1114658,1718,2095,1476,2746
66274377,4200,0,-0.67275643,-0.56191957,-9.935526,0.039924853,-0.000715298,-0.032834474,29.5,78.0,0.0023928226,1114658,1146,2634,-9234,8192
66372044,4185,0,-0.46910676,-1.3743407,-9.470165,0.0064268713,0.00040292245,-0.018941907,29.5,78.0,0.0023928226,1114658,-79,105,-10341,8193
66472826,4199,0,-0.86453617,-0.93792766,-10.102575,-0.007560803,0.009012183,-0.07353975,29.5,78.0,0.0023928226,1114658,-2509,863,-4964,8192
66575727,4159,0,-1.0265039,1.6526982,-9.721235,0.020035505,0.008373941,-0.027731469,29.375,78.0,0.0023928226,1114658,-309,1816,-7909,2754
66676527,4200,0,-0.6741931,1.4390137,-9.902247,0.009095634,0.008326761,-0.050116047,29.625,78.0,0.0023928226,1114658,1660,5105,-1383,2751
66777327,4180,0,0.41623133,0.280668,-10.052189,0.028899405,-0.011947731,-0.05486807,29.5,78.0,0.0023928226,1114658,-306,-2288,-11038,2755
66881286,4148,0,-0.17554155,-1.9952195,-10.200641,-0.02366101,-0.018736998,-0.026121192,29.375,78.0,0.0023928226,1114658,-4210,-3025,-6586,16
66982098,4158,0,-0.31285092,-0.37304315,-10.400512,-0.018757157,0.00619467,-0.022383507,29.5,78.0,0.0023928226,1114658,667,-1420,2227,16
67087077,4168,0,-0.02099965,1.5161946,-9.268849,0.02379657,-0.009010098,0.0016959567,29.5,78.0,0.0023928226,1114658,176,-242,-12921,8192
67189977,4130,0,0.8173952,0.1167013,-10.656342,0.010384006,-0.011427109,-0.04099586,29.5,78.0,0.0023928226,1114658,4028,-2005,-7372,2763
67290821,5282,0,0.22308254,-1.4951521,-11.366394,0.00973956,-0.0074748867,-0.057492673,29.5,78.0,0.0023928226,1114658,-806,-2868,-671,2757
67391577,4132,0,-0.05679488,-0.124601014,-9.200652,-0.009290996,-0.00042740957,-0.032464202,29.5,78.0,0.0023928226,1114658,1366,-1653,-6990,5135
67494516,4239,0,-0.5357194,1.5264627,-9.870508,-0.02139744,0.020148968,-0.05077163,29.5,78.0,0.0023928226,1114658,1899,-135,-3217,2049
67596331,4173,0,-1.0136844,0.17124641,-9.855215,-0.0015213689,-0.008256688,-0.047957838,29.5,78.0,0.0023928226,1114658,-2137,3856,-1959,2756
67697184,4258,0,-0.142409,-0.96287835,-9.729966,0.027635481,-1.0086871e-05,-0.021805286,29.375,78.0,0.0023928226,1114658,1898,1958,-5647,16
67802198,4255,0,-0.03131889,-1.1339917,-9.932692,0.0075297314,-0.018401336,-0.0033982482,29.375,78.0,0.0023928226,1114658,-1647,-2454,-6661,16
67902964,4213,0,0.5993334,1.6182399,-10.166644,-0.0043372065,0.006149228,-0.037701566,29.5,78.0,0.0023928226,1114658,922,-1279,3192,16
68003727,4156,0,-0.036231022,1.561422,-10.644242,0.0010869767,-0.008826544,-0.05475793,29.375,78.0,0.0023928226,1114658,374,-3139,-6395,8192
68105587,4210,0,-0.14183086,-0.8760118,-9.904895,-0.011508365,-3.149265e-05,-0.026185196,29.5,78.0,0.0023928226,1114658,2383,3091,-100,8192
68206376,4194,0,-0.83166206,-2.2171712,-10.056599,-0.028588355,-0.00071446504,-0.042658437,29.625,78.0,0.0023928226,1114658,-904,-1070,-9325,0
68307188,4211,0,-1.3295573,-0.55006224,-9.773713,-0.006243792,0.012659081,-0.041741084,29.5,78.0,0.0023928226,1114658,-452,2653,-7859,16
68412245,5318,0,0.009597825,1.2079884,-9.09051,0.008813745,-0.00380813,-0.04663427,29.5,78.0,0.0023928226,1114658,82,976,-6505,5158
68511927,4200,0,0.69585866,1.3444958,-9.680426,0.03634027,-2.703743e-05,-0.052830145,29.5,78.0,0.0023928226,1114658,622,-1922,-3790,2048
68612727,4198,0,0.21197565,0.22660409,-10.358749,0.039675508,0.0095442785,-0.06460861,29.375,78.0,0.0023928226,1114658,1755,1733,-8479,16875
68715627,5251,0,-0.834709,0.36196262,-11.236648,-0.017235845,8.5728476e-05,-0.033165645,29.75,78.0,0.0023928226,1114658,2042,793,-1926,2048
68813277,6297,0,0.47863284,0.082703054,-10.841492,0.0005624851,-0.0022193326,-0.06607987,29.75,78.0,0.0023928226,1114658,5058,-4859,-4,2777
68918276,4199,0,0.300773,1.7083497,-8.961585,0.013414344,-0.004049521,-0.04577755,29.5,78.0,0.0023928226,1114658,-1274,-1527,-13202,15
69019078,4202,0,-0.10670615,1.2487803,-10.662545,0.01726188,-0.0031817583,-0.057085607,29.5,78.0,0.0023928226,1114658,1984,3421,2873,15
69121977,5243,0,0.54853195,-1.7858402,-11.118685,0.018500192,-0.014733592,-0.04391823,29.625,78.0,0.0023928226,1114658,-34,-2896,382,2791
69221727,4200,0,-0.5374085,-1.8626282,-10.647752,-0.012799856,-0.0027597763,-0.04909205,29.625,78.0,0.0023928226,1114658,-3141,-521,-3628,15
69324626,4199,0,-1.651914,0.48781103,-10.317964,0.00706394,-0.0029591406,-0.039332233,29.5,78.0,0.0023928226,1114658,-3547,4844,2273,15
69425426,4199,0,-0.4360023,1.28125,-9.024304,-0.0023888554,0.01731287,-0.028673708,29.625,78.0,0.0023928226,1114658,2004,1725,-6638,15
69525200,4121,0,-0.7380163,0.25611833,-9.112927,-0.003758696,-0.01590609,-0.04244596,29.625,78.0,0.0023928226,1114658,117,699,-7771,5197
69631227,5216,0,-0.11924563,-1.4709172,-10.620002,-0.0026799035,-0.004781634,-0.049743734,29.625,78.0,0.0023928226,1114658,-78,-1330,517,15
69730985,4208,0,-0.018234912,-0.5929346,-9.347481,-0.007679792,0.0064706327,-0.038108453,29.625,78.0,0.0023928226,1114658,163,-1870,-5556,2805
69831814,5288,0,0.74994475,1.8627748,-9.93837,0.025916891,0.022273824,-0.07004354,29.625,78.0,0.0023928226,1114658,-697,-2507,-1222,2048
69934717,5291,0,-0.19954227,0.46383336,-10.436204,-0.0066499207,-0.008045284,-0.0362361,29.5,78.0,0.0023928226,1114658,-3080,530,-784,2804
70038717,6353,0,1.0329826,-0.24081208,-8.675539,0.020834733,-0.0044327197,-0.06667565,29.625,78.0,0.0023928226,1114658,1352,-168,-1938,2807
70139543,4295,0,0.3656895,-1.291911,-10.508932,0.010475834,-0.010154556,-0.037227537,29.625,78.0,0.0023928226,1114658,121,-2877,-2036,2805
70240324,4275,0,-0.24271537,1.077187,-9.350345,0.00079237117,0.0107847145,-0.0278969,29.625,78.0,0.0023928226,1114658,1574,429,-3322,2807
70343159,4232,0,-0.5208397,1.3394538,-10.370507,-0.004846881,-0.006835647,-0.048273806,29.5,78.0,0.0023928226,1114658,-648,2287,-968,15
70443927,5234,0,-1.2635032,-0.27696097,-10.345732,-0.020500924,-0.007614303,-0.041378636,29.375,78.0,0.0023928226,1114658,-150,4778,-350,2816
70543677,4184,0,-0.41625452,-1.7749752,-9.419286,-0.033028454,-0.013382955,-0.031381324,29.625,78.0,0.0023928226,1114658,830,-1359,-11810,8193
70649727,5250,0,-0.9230103,-0.44215184,-10.438334,-0.01875113,0.0007720013,-0.045723505,29.625,78.0,0.0023928226,1114658,-920,1289,1677,15
70747445,4257,0,0.19747683,0.68573314,-9.669281,0.0049958015,-0.0057664565,-0.01840031,29.5,78.0,0.0023928226,1114658,2142,-2034,-3246,5235
70848253,4277,0,0.71474165,1.2842395,-9.382123,0.004763502,0.00068382383,-0.048246194,29.625,78.0,0.0023928226,1114658,2153,-2902,-1835,5238
70953186,5259,0,-0.9389549,-1.0929682,-10.384377,-0.032630723,-0.019033438,-0.039237667,29.625,78.0,0.0023928226,1114658,-1546,2417,-3401,15
71054007,4186,0,0.09477264,-1.0258201,-9.833624,0.00014308127,0.0025217931,-0.04663161,29.5,78.0,0.0023928226,1114658,-226,-1328,-7593,15
71153727,4201,0,-0.48479405,-0.28116485,-9.589036,0.010697273,0.0073233843,-0.0649236,29.625,78.0,0.0023928226,1114658,-2245,1159,-5800,15
71258775,4248,0,1.004673,1.487005,-9.369891,-0.022761155,0.013765542,-0.035268698,29.625,78.0,0.0023928226,1114658,158,-3755,-3260,2835
71355327,4169,0,0.40384,1.6002,-9.487212,-0.006874061,0.011745901,-0.051429857,29.625,78.0,0.0023928226,1114658,2652,666,-2866,15
71460347,4187,0,-0.65064204,-0.6546855,-9.951424,0.016378384,-0.0058315527,-0.028059127,29.5,78.0,0.0023928226,1114658,829,1292,-8775,2823
71560076,4174,0,-1.5156043,-1.601856,-10.075057,-0.008386501,0.001074211,-0.063663505,29.625,78.0,0.0023928226,1114658,293,5337,-3287,15
71660877,4160,0,-0.84031254,-0.13351671,-10.54482,0.0011414471,0.009657815,-0.058370415,29.625,78.0,0.0023928226,1114658,2101,1565,309,15
71765916,5282,0,-0.023729317,2.0451386,-9.436718,-0.0136407195,0.012141416,-0.068373695,29.625,78.0,0.0023928226,1114658,785,-1172,-7652,2831
71864577,4195,0,0.3082984,1.543698,-10.493289,-0.0050282883,-0.01119068,-0.06838299,29.625,78.0,0.0023928226,1114658,-244,-1993,-3097,2830
71965377,5218,0,0.7092198,-0.15469085,-10.551178,-0.010253279,-0.026794624,-0.029835124,29.75,78.0,0.0023928226,1114658,2775,-2286,-2539,2830
72069327,4167,0,-1.1390278,-2.13321,-10.63439,-0.03891141,0.005696293,-0.053009856,29.625,78.0,0.0023928226,1114658,-1508,1375,-3814,15
72170143,4167,0,-0.69783163,0.21833743,-9.543827,0.00542522,0.012603139,-0.03960097,29.875,78.0,0.0023928226,1114658,-1788,-485,-7699,15
72270959,4221,0,0.49122685,1.3949715,-9.088202,0.006097197,0.0014473045,-0.04779038,29.625,78.0,0.0023928226,1114658,2065,-2289,-6106,15
72374877,4119,0,0.28082785,-0.13773666,-9.637102,-0.031330407,-0.017751185,-0.01673857,29.625,78.0,0.0023928226,1114658,-1567,-2792,-5319,0
72475677,6300,0,0.5108941,-0.75651896,-10.816152,-0.015203583,-0.004854455,-0.054105334,29.75,78.0,0.0023928226,1114658,1052,-444,-3804,2842
72576479,4178,0,-0.3560115,-1.1786543,-10.865382,-0.0073322495,0.0009599367,-0.037242264,29.75,78.0,0.0023928226,1114658,2973,61,676,5296
72681477,4200,0,-0.294678,1.6388892,-9.462508,0.014431979,0.01692826,-0.051386572,29.75,78.0,0.0023928226,1114658,63,-1162,-11023,15
72779160,4233,0,-0.61845726,1.9393578,-9.193899,0.03149927,0.01443241,-0.034390535,29.625,78.0,0.0023928226,1114658,-254,158,-9039,2845
72885207,4162,0,0.6434873,-1.1650981,-9.735455,-0.03232669,-0.010672375,-0.039241135,29.625,78.0,0.0023928226,1114658,-378,-3724,-8319,8192
72984940,4213,0,-0.07767248,-1.4518622,-10.758255,-0.028261835,0.0069794473,-0.040165283,29.625,78.0,0.0023928226,1114658,337,-1486,-1489,2049
73087827,4200,0,-0.08893359,-0.37332848,-9.330436,0.004744674,0.0125487,-0.019587802,29.5,78.0,0.0023928226,1114658,-1419,1776,-2948,2847
73185477,6293,0,-0.9597446,-0.15817171,-9.830199,-0.010663223,0.019544683,-0.048172556,29.625,78.0,0.0023928226,1114658,-88,3548,-4118,15
73287326,5250,0,-0.7027739,2.5779445,-10.84303,0.008358266,0.019094799,-0.059175618,29.625,78.0,0.0023928226,1114658,2142,4181,-3498,8192
73391307,4231,0,-0.22604814,0.1766743,-10.492967,0.034574643,-0.0055658245,-0.043696295,29.625,78.0,0.0023928226,1114658,2197,-766,-7907,15
73487881,4204,0,-0.20663169,-0.24473566,-10.168231,0.011575985,0.00038274605,-0.056507543,29.75,78.0,0.0023928226,1114658,1926,-406,-7218,15
73594978,4202,0,-0.8681879,0.08234497,-8.700223,0.015149938,0.01360739,-0.02719393,29.625,78.0,0.0023928226,1114658,-1038,1752,-4941,0
73695777,4186,0,-1.0061011,1.6374688,-9.353338,0.011072232,0.02235308,-0.05319267,29.875,78.0,0.0023928226,1114658,1176,5246,-6240,5334
73796577,5251,0,-1.1803122,1.5295573,-9.832797,0.016550224,0.006371632,-0.0498823,29.75,78.0,0.0023928226,1114658,1061,3776,-2924,2855
73896330,4168,0,-0.2584973,0.21977207,-9.490956,0.00070304476,-0.016744744,-0.040421043,29.625,78.0,0.0023928226,1114658,-970,2149,-6439,2851
74001327,4180,0,-0.42907768,-1.2269768,-10.584617,-0.019716641,0.00023467415,-0.039075814,29.625,78.0,0.0023928226,1114658,-1832,-642,1268,2849
74106365,4203,0,-1.6894091,1.1847409,-9.817914,0.020578548,0.022400105,-0.038888607,29.875,78.0,0.0023928226,1114658,1309,5539,-3716,15
74205146,4320,0,-1.374927,1.489064,-9.746843,-0.030325139,-0.0027114723,-0.04355907,29.625,78.0,0.0023928226,1114658,-1136,850,-6534,2859
74305958,5368,0,0.2957426,1.5401291,-10.074354,0.018687466,0.0003808238,-0.05421805,29.75,78.0,0.0023928226,1114658,3878,677,-6950,2853
74409853,4277,0,1.2114466,-0.9094749,-10.9158125,-0.035518255,-0.016893093,-0.0466542,29.75,78.0,0.0023928226,1114658,4413,-5197,391,5351
74512677,4200,0,-0.96854883,-0.6840096,-9.839581,-0.014528677,0.014065396,-0.047820322,29.75,78.0,0.0023928226,1114658,-299,2350,-323,2048
74612427,4072,0,-0.0381158,1.4675223,-8.918298,0.004154657,0.005163725,-0.025859721,29.75,78.0,0.0023928226,1114658,-497,-1227,-6279,2861
74716387,4142,0,-0.12900683,0.66000414,-9.224646,0.019183597,-0.0026755866,-0.027190832,29.75,78.0,0.0023928226,1114658,148,1666,-7653,2864
74816158,4231,0,-0.28882483,-0.33647066,-9.914944,-0.012611263,0.011359279,-0.0506822,29.75,78.0,0.0023928226,1114658,721,-1255,-8706,8192
74919027,4174,0,-0.7334627,-1.5565491,-10.280218,0.016369784,0.0067649935,-0.034471616,29.75,78.0,0.0023928226,1114658,-582,184,-9267,5368
75016691,6315,0,-0.73694754,-1.6265421,-10.206183,-0.007189132,0.0027214345,-0.048464462,29.75,78.0,0.0023928226,1114658,-1535,-362,-7366,2048
75118526,5249,0,-1.8250867,0.6906459,-9.495181,0.019393511,0.005602816,-0.05505288,29.625,78.0,0.0023928226,1114658,1813,4522,-5992,8192
75222498,4222,0,0.80938196,1.4270813,-9.469983,0.018497184,-0.011867201,-0.051344644,29.625,78.0,0.0023928226,1114658,1773,-2207,-8393,16877
75323283,4207,0,0.09055898,-0.1638664,-10.749552,-0.007839844,-0.015264244,-0.053354718,29.75,78.0,0.0023928226,1114658,3801,382,-2978,2049
75428337,4250,0,-0.7472088,-0.98435783,-9.696921,0.009366811,0.0016314482,-0.04913437,29.75,78.0,0.0023928226,1114658,-482,2318,-6791,2865
75527008,4222,0,-0.99000615,-0.23540376,-10.314668,-0.020308219,0.015159813,-0.054078788,29.625,78.0,0.0023928226,1114658,-2190,-586,-3722,15
75631977,4200,0,0.12085949,1.8031131,-9.545024,0.024757022,0.008853292,-0.054397736,29.75,78.0,0.0023928226,1114658,2296,1526,-7517,2048
75731726,4152,0,0.1371807,1.0855643,-10.020851,0.008703588,-0.0065942085,-0.0862087,29.75,78.0,0.0023928226,1114658,-667,180,-7139,2048
75832527,4173,0,0.059432313,-1.1420332,-10.407324,0.007132862,-0.014935145,-0.03617576,29.75,78.0,0.0023928226,1114658,1333,-1255,-7203,8192
75933326,4178,0,-0.14605057,-1.3259639,-9.6501,0.00834145,0.0060504023,-0.05109553,29.75,78.0,0.0023928226,1114658,2008,-3130,-4360,5412
76038336,4173,0,-0.80085707,0.92913663,-9.642758,-0.022697698,-0.00037746664,-0.026837165,29.875,78.0,0.0023928226,1114658,-3521,1104,-3266,2877
76138078,4127,0,0.14303954,1.729535,-9.224955,-0.00513037,-0.00056650734,-0.023769224,29.75,78.0,0.0023928226,1114658,-440,-3354,-4723,2885
76238877,4140,0,-0.12580065,0.23674941,-10.535158,-0.013141361,-0.011222772,-0.054425713,29.75,78.0,0.0023928226,1114658,-238,2539,-249,2888
76343877,4200,0,-1.043598,-1.6605151,-9.981513,0.033024628,0.0017708995,-0.02305459,29.875,78.0,0.0023928226,1114658,-666,4693,-2824,2886
76446795,4150,0,-0.18142945,0.6797551,-10.306429,0.01822366,-0.013961414,-0.038913686,29.875,78.0,0.0023928226,1114658,2731,-282,-2929,2879
76547596,4143,0,0.022203235,1.7550584,-9.623293,-0.0033626745,0.0036475419,-0.030740814,29.875,78.0,0.0023928226,1114658,2391,-282,-2541,2867
76647326,4200,0,0.69395095,1.5976382,-9.004855,-0.002653447,-0.012852733,-0.039261825,29.875,78.0,0.0023928226,1114658,175,-2457,-8370,15
76752337,4179,0,-1.0099384,-1.4923007,-10.862994,-0.04213294,-0.018333783,-0.05081692,29.875,78.0,0.0023928226,1114658,391,1145,-1249,2895
76857327,4155,0,-0.93979174,-0.08952398,-10.017334,0.011484872,0.0112201525,-0.055164177,29.75,78.0,0.0023928226,1114658,1862,1153,-6581,2883
76958170,4218,0,0.05027066,1.0260766,-9.674338,-0.0077883536,-0.0021855978,-0.073797904,29.75,78.0,0.0023928226,1114658,-1610,-2702,-5114,2049
77058927,5250,0,1.0519657,2.27546,-10.367292,0.007956048,-0.0058303624,-0.050385747,29.75,78.0,0.0023928226,1114658,4949,-2306,2093,2895
77161924,5348,0,-0.8877366,-0.06672001,-10.900624,-0.02017698,-0.017258015,-0.010605151,29.875,78.0,0.0023928226,1114658,873,-3444,1467,2887
77261598,4221,0,-0.59606713,-1.1340175,-11.593971,0.0009197248,-0.005358836,-0.018677168,29.875,78.0,0.0023928226,1114658,-496,-452,-3018,15
77364477,4152,0,-1.3016479,-0.21285993,-10.342147,0.010810507,0.012231805,-0.04456897,29.75,78.0,0.0023928226,1114658,371,2853,-2737,5458
77467453,4276,0,-1.0067028,1.732236,-9.8222475,0.051371872,0.0039390256,-0.008735735,29.875,78.0,0.0023928226,1114658,161,2779,-7355,5468
77562927,4148,0,-0.39539665,1.1275084,-10.284779,-0.019573832,0.012266374,-0.030636415,29.875,78.0,0.0023928226,1114658,2258,935,2086,2904
77665943,4317,0,-0.6818119,0.9378711,-8.758702,0.022371676,-0.0008466842,-0.059504718,29.75,78.0,0.0023928226,1114658,176,764,-7489,2909
77768726,4181,0,-0.26812696,-1.3325831,-10.67715,0.022224259,-0.016876703,-0.040888622,29.875,78.0,0.0023928226,1114658,658,2953,-1734,15
77875836,4209,0,-0.84674054,0.6767186,-10.301614,-0.01266373,0.0050994586,-0.045093056,30.0,78.0,0.0023928226,1114658,1452,2297,523,15
77976655,4229,0,-0.47700417,1.2876934,-9.9279995,-0.0041830507,0.00044295547,-0.017167697,29.75,78.0,0.0023928226,1114658,-1312,-16,-3749,15
78075326,4165,0,0.60753256,0.30503184,-8.045678,-0.014541288,-0.012777545,-0.02137687,29.875,78.0,0.0023928226,1114658,-1243,-3251,-10513,15
78177201,4179,0,0.7062612,-0.6806793,-10.586055,-0.02316376,-0.007086311,-0.036919314,29.875,78.0,0.0023928226,1114658,1483,-3124,-4679,2913
78277977,4132,0,-0.40516037,-1.4504529,-11.57098,-0.01699689,-0.0017271064,-0.044176165,30.0,78.0,0.0023928226,1114658,-687,704,4305,2910
78380877,4200,0,-0.92182016,-0.071131006,-9.564499,0.023317164,0.014961664,-0.05229621,30.0,78.0,0.0023928226,1114658,-1069,4142,-2314,2923
78485917,4240,0,0.0734526,1.8431474,-10.065367,-0.013388553,-0.008076381,-0.023001356,29.875,78.0,0.0023928226,1114658,1950,-1138,-754,2905
78586726,5299,0,0.74177665,0.4988727,-10.04353,-0.0043230574,-0.015305864,-0.06029997,29.875,78.0,0.0023928226,1114658,928,-2670,-3246,2902
78690723,4292,0,-0.9326968,-1.5888621,-11.064618,-0.013469177,-0.009516724,-0.040393677,29.75,78.0,0.0023928226,1114658,-8,2308,1320,2918
78793527,4194,0,-0.1905478,0.06996036,-9.360477,0.016226253,0.010834049,-0.063212015,30.0,78.0,0.0023928226,1114658,-1072,188,-4043,2048
78894340,4178,0,0.44721878,1.671411,-10.041319,0.014216635,0.00078851066,-0.05767861,29.875,78.0,0.0023928226,1114658,1621,-2176,-6971,8192
78995158,4231,0,-0.014513799,1.501057,-10.350595,-0.008157296,-0.005206018,-0.06366816,30.125,78.0,0.0023928226,1114658,2307,1088,2179,2049
80112382,4212,0,0.28575814,-0.75558585,-10.157871,0.008571476,-0.0059092133,-0.04741237,30.0,78.0,0.0023928226,1114658,-258,381,-6125,15
80212076,4199,0,-0.42123005,-1.6647702,-9.773068,-0.0042855325,0.00732914,-0.07179271,30.0,78.0,0.0023928226,1114658,-2452,1868,-4495,15
80314976,4156,0,-0.5454329,0.14285271,-9.396423,0.008690094,0.0022167475,-0.036875572,30.0,78.0,0.0023928226,1114658,-3084,629,-2685,0
80419976,4200,0,0.9887571,1.0614474,-9.025611,-0.00065087527,-0.01302385,-0.054734856,30.125,78.0,0.0023928226,1114658,-1843,-3391,-4621,2049
80520776,4197,0,0.772058,-0.044674132,-10.396794,0.0071938783,-0.009907883,-0.061264664,30.125,78.0,0.0023928226,1114658,82,-2214,-4411,2049
80621576,4200,0,-0.00021253267,-1.7297426,-10.801036,0.0010247413,-0.0030799017,-0.055653837,30.0,78.0,0.0023928226,1114658,2107,-908,-3378,2938
80722376,4199,0,-0.17013767,-1.0492586,-10.0623455,0.0010985926,-0.009483744,-0.0419441,30.125,78.0,0.0023928226,1114658,-3743,-1427,-2652,2938
80824318,4282,0,0.12104766,1.4556508,-9.086647,0.00093544787,0.0002774711,-0.026255524,30.125,78.0,0.0023928226,1114658,3813,-1479,-4989,2946
80925101,4275,0,0.2576348,1.3998135,-10.107113,-0.01993682,-0.00826602,-0.050320536,29.875,78.0,0.0023928226,1114658,649,-3386,376,5575
81025893,4267,0,-0.17296363,0.093839705,-10.467084,-0.004565477,-0.013847235,-0.027648412,30.125,78.0,0.0023928226,1114658,1731,350,-4397,5568
81130827,4114,0,0.08265502,-1.1698838,-9.72181,0.02473998,0.0035832792,-0.046797227,30.0,78.0,0.0023928226,1114658,98,-851,-6733,2952
81231627,4110,0,-0.86592394,0.28652912,-10.445124,0.019561868,0.017507657,-0.0634634,30.25,78.0,0.0023928226,1114658,3171,2607,-716,2936
81331493,4307,0,-0.12535052,1.1374277,-9.850854,-0.0043265554,0.009116485,-0.048725504,30.0,78.0,0.0023928226,1114658,-954,-370,-1188,5575
81436377,4122,0,-0.43048579,0.60805047,-10.069758,-0.03089759,0.00057387364,-0.067353375,30.125,78.0,0.0023928226,1114658,-723,-708,-4492,2948
81535077,4153,0,0.68349224,0.03225478,-11.211724,-0.03079098,-0.013296385,-0.04767128,30.0,78.0,0.0023928226,1114658,2795,-4167,1494,0
81635877,5184,0,-0.580932,-1.5697509,-10.011205,0.014459018,-0.0007165517,-0.03640946,30.125,78.0,0.0023928226,1114658,-1652,1541,-4895,5585
81738777,5248,0,-0.0592315,-0.098317936,-10.3241415,0.03180933,0.012270034,-0.06502444,30.25,78.0,0.0023928226,1114658,-568,-502,-3515,2965
81836427,4090,0,-0.7570492,0.67553246,-10.047463,0.002024931,0.013541744,-0.05397195,30.0,78.0,0.0023928226,1114658,-1628,255,-3174,2957
81939350,4192,0,0.5779544,1.039636,-8.933549,-0.0060216077,-0.0007281732,-0.049647827,30.125,78.0,0.0023928226,1114658,-575,-2421,-8274,2049
82042228,4193,0,1.1276345,-0.32367066,-11.0361805,-0.041914284,-0.031293686,-0.03312842,29.875,78.0,0.0023928226,1114658,3397,-3620,891,15
82146177,4199,0,-1.1543412,-1.3816432,-10.52126,-0.007732213,0.013603972,-0.03869363,30.0,78.0,0.0023928226,1114658,251,2508,-2398,8193
82245925,4198,0,-1.8196049,-0.15319908,-10.08666,-0.010875765,-0.0016195008,-0.029482072,30.0,78.0,0.0023928226,1114658,-2626,2350,-3865,2955
82345677,4200,0,-0.28649473,0.25133798,-9.592566,-0.012797224,0.018343164,-0.020659817,30.0,78.0,0.0023928226,1114658,-3476,1358,-5429,8193
82448577,6300,0,-0.28295875,1.3142697,-10.347477,-0.0029173119,-0.008859933,-0.060222108,30.0,78.0,0.0023928226,1114658,3423,2557,-511,2956
82551525,5260,0,-0.090305366,-0.92309433,-10.292044,0.0047600647,-0.0004556504,-0.05817611,29.875,78.0,0.0023928226,1114658,-42,488,-3462,2962
82652320,4243,0,-1.4363737,-2.1158183,-10.6690445,-0.021466041,-0.0011835812,-0.03278745,29.875,78.0,0.0023928226,1114658,-415,3734,-277,2965
82753094,4218,0,-1.0000097,-0.6492871,-10.163352,-0.019681823,0.023217127,-0.024087923,29.875,78.0,0.0023928226,1114658,-1781,-1947,-8227,2962
82853895,5236,0,-0.80324394,-0.6941235,-9.346926,0.0037494688,0.013079868,-0.03131648,30.0,78.0,0.0023928226,1114658,-3758,856,177,5630
82957917,4290,0,-1.3030146,1.4375046,-10.381561,0.016332181,-0.010323903,-0.030237129,30.0,78.0,0.0023928226,1114658,-842,4201,-2081,2974
83058701,4274,0,-0.78525084,-0.18504705,-10.418177,0.009151812,0.00816103,-0.058816083,30.0,78.0,0.0023928226,1114658,2429,2749,-4441,5648
83159543,4316,0,-0.12601018,-1.5043217,-10.473567,0.0022027153,-0.007624119,-0.009788091,30.125,78.0,0.0023928226,1114658,2484,451,-5619,2964
83260338,5362,0,-1.8505913,-0.6127665,-10.006008,-0.02480664,0.018634653,-0.064541474,30.0,78.0,0.0023928226,1114658,-180,3191,-4358,2971
83361117,4290,0,-1.0485055,0.2764442,-9.81299,-0.007674046,0.0018819413,-0.026285393,30.0,78.0,0.0023928226,1114658,-2659,2882,-470,2976
83462881,4140,0,-0.82571954,1.6787468,-8.951982,-0.0062154103,-0.0005514874,-0.039351247,30.125,78.0,0.0023928226,1114658,-733,1944,-3214,2973
83563677,4184,0,0.041277256,-0.26292047,-10.213059,-0.023347607,-0.019049928,-0.013654933,30.0,78.0,0.0023928226,1114658,-2638,-1540,-4158,2972
83666700,4323,0,-0.549518,-1.2698858,-11.153334,-0.02150186,-0.009367675,-0.030680971,30.0,78.0,0.0023928226,1114658,2538,1328,1721,5664
83769477,4199,0,-1.6648822,-0.04408257,-9.967243,0.0018190597,0.0072975545,-0.029879626,30.125,78.0,0.0023928226,1114658,-463,757,-9865,2994
83873426,4199,0,-0.6591375,1.8249695,-9.09515,0.029069724,0.017750295,-0.036769077,30.125,78.0,0.0023928226,1114658,829,6171,-2171,15
83975277,4200,0,0.11666275,1.033914,-10.049999,0.019505825,-0.012351936,-0.039262965,30.125,78.0,0.0023928226,1114658,1423,529,-4807,0
84076076,4199,0,-0.5920824,-0.5831571,-10.264472,0.01635367,-0.0007182199,-0.03830749,30.0,78.0,0.0023928226,1114658,-400,3310,-6441,8192
84175827,4200,0,-0.6896453,-1.5420573,-10.69455,-0.0022050263,-0.0024459565,-0.04264015,30.125,78.0,0.0023928226,1114658,539,4425,-1057,2989
84278780,4254,0,-1.0719607,-0.030461753,-9.490608,0.023502158,0.022361197,-0.032673005,30.25,78.0,0.0023928226,1114658,802,1879,-5923,2984
84383753,4218,0,0.67507315,2.177121,-9.547074,0.029390013,-0.0053303116,-0.032270472,30.25,78.0,0.0023928226,1114658,1404,-2364,-5772,3003
84486754,4328,0,0.45319927,-0.5165459,-10.30876,-0.015400674,-0.012498433,-0.04161358,30.0,78.0,0.0023928226,1114658,2085,840,231,2990
84585331,4137,0,0.962291,-1.5488952,-10.752117,0.02495232,-0.0101948185,-0.046197865,30.125,78.0,0.0023928226,1114658,1108,-3208,2814,2993
84690327,5210,0,-0.6085869,-0.81150067,-10.1108885,-0.0053621978,0.009650054,-0.028327242,30.0,78.0,0.0023928226,1114658,-1419,1021,-2047,8192
84790077,4160,0,-0.26792547,0.33503821,-9.735985,-0.02958587,0.014426168,-0.068817586,30.25,78.0,0.0023928226,1114658,-3176,-1419,421,2979
84890876,4152,0,0.4284073,1.9574476,-10.141524,-0.016307844,-0.015307817,-0.010100305,30.125,78.0,0.0023928226,1114658,3350,-2293,3216,2988
84993846,4269,0,0.31718767,0.12891723,-11.026921,-0.0043946384,-0.00526137,-0.062039737,30.25,78.0,0.0023928226,1114658,-765,-559,-2187,5694
85094654,4278,0,-0.2342162,-1.2461479,-10.721186,-0.017887345,0.0018538357,-0.04020603,30.125,78.0,0.0023928226,1114658,-499,-386,951,5685
85196427,4111,0,-0.41203195,-0.80995977,-10.547515,-0.013319702,0.0035131297,-0.031486616,30.0,78.0,0.0023928226,1114658,2272,-2518,-4526,5696
85297227,4084,0,-0.06732779,0.7689335,-9.708798,0.008592725,0.009475505,-0.044432696,30.125,78.0,0.0023928226,1114658,-2022,-1031,-5814,8192
85402227,4200,0,0.16129006,0.70596623,-10.5744705,0.0012735106,-0.011507881,-0.03778355,30.125,78.0,0.0023928226,1114658,-394,-837,-1099,3003
85500926,4200,0,-0.0836986,-0.018944375,-10.953492,-0.0019581972,-0.009630857,-0.08209657,30.25,78.0,0.0023928226,1114658,1517,1624,-1279,15
85600683,6306,0,-0.23918517,-1.1243459,-10.473791,0.012591416,-0.016031045,-0.053408317,30.25,78.0,0.0023928226,1114658,1539,1178,-1781,2048
85701514,4238,0,-1.2536063,-1.3083448,-10.431968,0.0038535944,0.017262084,-0.050749008,30.25,78.0,0.0023928226,1114658,672,3275,-7625,15
85806477,4152,0,-0.6195538,1.7287822,-9.156565,0.010687181,0.018061576,-0.05382393,30.125,78.0,0.0023928226,1114658,978,1232,-6993,8193
85907277,4185,0,0.16272424,0.88904846,-8.181536,0.0018039929,0.0057401094,-0.03170059,30.125,78.0,0.0023928226,1114658,-2265,-1028,-7732,15
86009151,4225,0,-0.093358636,0.297028,-9.966351,-0.0003581868,0.006397398,-0.047624025,30.25,78.0,0.0023928226,1114658,3507,2318,-3465,3006
86112027,4201,0,-0.6987906,-1.7929606,-10.051861,0.006389994,0.0024619242,-0.031214727,30.125,78.0,0.0023928226,1114658,894,3886,-2819,3017
86212868,4241,0,-1.3131708,-1.2641704,-10.99886,-0.0038031903,0.005124392,-0.018333225,30.125,78.0,0.0023928226,1114658,785,1165,-2424,16881
86313626,4200,0,-1.1666732,0.362427,-9.830257,0.0010704822,0.010934692,-0.04302274,30.25,78.0,0.0023928226,1114658,-1934,2964,-1599,2048
86413382,6305,0,0.16276023,1.4063743,-9.5085125,-0.03312353,0.006563195,-0.06907035,30.0,78.0,0.0023928226,1114658,-1383,-3575,-3704,3021
86518376,4196,0,-0.71444553,0.22656535,-9.925032,-0.0023039442,-0.004602936,-0.038595498,30.25,78.0,0.0023928226,1114658,1153,2280,-5495,3008
86621277,4153,0,-1.3049879,-1.7025936,-10.404756,0.040284846,0.008055836,-0.028955774,30.25,78.0,0.0023928226,1114658,759,2942,-9176,3011
86721143,4316,0,-1.7494793,-1.0106223,-10.070865,-0.009858569,0.009093467,-0.05710737,30.25,78.0,0.0023928226,1114658,-1754,2157,-5751,3022
86826027,4106,0,-0.052836202,1.9876229,-8.959762,0.030203935,-0.0021805877,-0.032749224,30.25,78.0,0.0023928226,1114658,3014,1851,-4596,3014
86926827,4103,0,-0.042312674,1.5409065,-10.277883,0.023706501,0.0025981157,-0.051911756,30.25,78.0,0.0023928226,1114658,4334,2844,-2612,3034
87029727,4200,0,0.36859822,-1.6022217,-7.8198757,0.011087686,-0.0018986341,-0.0356839,30.25,78.0,0.0023928226,1114658,-1877,-810,-10156,8193
87131611,4166,0,-1.4824708,-1.1184878,-9.903388,0.0007250083,0.0006425706,-0.004607759,30.25,78.0,0.0023928226,1114658,-1643,4504,-4862,2048
87232401,4111,0,-0.33475542,0.123638555,-9.862476,-0.012449566,0.0068165613,-0.047079813,30.25,78.0,0.0023928226,1114658,-735,-782,-4137,3031
87335286,4209,0,0.31278777,2.0943441,-9.49052,-0.0055740867,-0.0003151997,-0.05172815,30.25,78.0,0.0023928226,1114658,2092,1369,-269,15
87438198,4183,0,1.1290125,0.18607269,-9.934165,0.012978763,-0.0045423717,-0.01930052,30.25,78.0,0.0023928226,1114658,1302,-2182,-5038,15
87538997,4177,0,-0.35797405,-1.741882,-10.755192,0.0079612,-0.016403819,-0.042160306,30.25,78.0,0.0023928226,1114658,2290,-362,-8101,3027
87638739,4210,0,-0.70963496,-1.0458376,-10.094608,-0.003236107,0.015852952,-0.025433682,30.25,78.0,0.0023928226,1114658,1340,-50,-6565,3033
87739538,4211,0,-0.93311685,0.6043484,-9.304464,-0.015940882,0.022718439,-0.0245912,30.375,78.0,0.0023928226,1114658,1211,1203,-4002,3040
87842426,4200,0,-1.4986635,0.41730064,-10.1945505,-0.041055974,-0.0048274705,-0.028065851,30.25,78.0,0.0023928226,1114658,-3992,74,-4100,15
87945332,4184,0,-0.32939333,0.14179298,-10.376223,-0.0018989954,-0.010205792,-0.030989494,30.375,78.0,0.0023928226,1114658,3134,1812,-5534,2049
88045094,5267,0,0.06019203,-1.0126054,-10.175943,-0.017828194,-0.006554383,-0.052885376,30.375,78.0,0.0023928226,1114658,3295,74,-5141,3051
88150077,4152,0,-0.54765534,-0.34824017,-9.515578,-0.019576794,0.023341428,-0.043445148,30.25,78.0,0.0023928226,1114658,-1048,-414,-1575,3037
88250877,4160,0,0.54751784,1.6695226,-10.091219,-0.010273821,-0.008972498,-0.028071754,30.375,78.0,0.0023928226,1114658,3110,-1929,9,3047
88351677,4184,0,0.6011254,2.464153,-10.126112,0.010597175,0.0026790486,-0.069440626,30.25,78.0,0.0023928226,1114658,1543,-2574,-5176,8193
88451522,5345,0,-0.1829779,0.5071248,-10.022075,0.0077961176,-0.0115069635,-0.024728663,30.375,78.0,0.0023928226,1114658,222,2263,-2934,3048
88554360,4201,0,-0.36056554,-1.4277093,-11.00143,-0.023953095,-0.014033467,-0.047521513,30.25,78.0,0.0023928226,1114658,2776,-760,507,3058
88659361,4196,0,-1.5621376,0.17622826,-10.455637,0.020056937,0.008393813,-0.037019413,30.25,78.0,0.0023928226,1114658,-339,3947,-444,2049
88760159,5277,0,-0.68353975,1.1924103,-9.05122,-0.008135221,0.03341864,-0.050618976,30.25,78.0,0.0023928226,1114658,-1841,1605,-1308,2049
88862025,4172,0,-0.097858205,0.8379741,-9.420225,-0.020699447,-0.010337712,-0.025238406,30.25,78.0,0.0023928226,1114658,-3715,-762,-5826,3049
88966977,4169,0,1.4931673,-0.36998194,-11.525177,-0.049882755,-0.024071233,-0.012443523,30.25,78.0,0.0023928226,1114658,1821,-5746,-7530,3057
89067779,4202,0,-0.52637583,-1.1250569,-10.333873,0.0041865273,0.0030382422,-0.057936758,30.375,78.0,0.0023928226,1114658,-108,-2015,-6399,8193
89168577,4200,0,-1.160157,0.2197881,-9.309507,-0.0012422818,0.008067085,-0.0307759,30.375,78.0,0.0023928226,1114658,-1311,1202,-4437,3046
89269376,5217,0,0.14065878,1.6553838,-9.139196,-0.008939159,0.012923393,-0.054880768,30.25,78.0,0.0023928226,1114658,-498,-2259,-2758,8192
89373327,4155,0,0.37157556,0.40354565,-9.909192,0.010542053,-0.017307008,-0.047849823,30.25,78.0,0.0023928226,1114658,2057,1884,-3819,3059
89474163,4233,0,-0.46049017,-1.3364065,-10.390001,0.0049214745,-0.011463016,-0.036574796,30.25,78.0,0.0023928226,1114658,221,2169,-1515,8192
89574927,4181,0,-0.5036695,-1.2976469,-10.477517,-0.0056856424,-0.0010923087,-0.04393515,30.25,78.0,0.0023928226,1114658,-1384,494,-3654,0
89675728,5252,0,-0.22683856,-0.8010976,-9.083768,0.021583354,0.0004034459,-0.033118222,30.25,78.0,0.0023928226,1114658,-1189,-618,-7345,3057
89778717,5330,0,-0.31875739,1.7534761,-10.928618,0.014487276,0.0060060294,-0.039463222,30.375,78.0,0.0023928226,1114658,2765,1746,720,3058
89878377,4163,0,-0.49750474,1.6724796,-9.673543,-0.0062151104,0.025591858,-0.05099704,30.375,78.0,0.0023928226,1114658,1945,3578,-6050,8192
89981277,4160,0,-1.7325813,-0.34639758,-10.524588,0.000682313,0.015111891,-0.067873925,30.375,78.0,0.0023928226,1114658,1250,6052,-3874,3066
90082078,4153,0,-0.078581505,-0.8427649,-9.073657,-0.019864567,-0.02019143,-0.004890193,30.375,78.0,0.0023928226,1114658,1141,-2322,-5378,3064
90182886,4193,0,-0.29049498,-0.80470735,-10.44808,0.010083337,0.01783259,-0.052980483,30.375,78.0,0.0023928226,1114658,-1912,-674,-2174,3070
90282694,4267,0,-0.5942112,-0.3678064,-9.666986,-0.0039154445,-0.010661861,-0.0144983735,30.375,78.0,0.0023928226,1114658,-1246,2560,-308,3073
90387627,4110,0,-0.8201955,1.6790977,-9.550283,-0.014398279,0.002345241,-0.04050881,30.375,78.0,0.0023928226,1114658,2684,3218,-864,14
90488464,4132,0,0.18343076,1.2312654,-10.3119335,-0.024493037,-0.010022036,-0.06978919,30.25,78.0,0.0023928226,1114658,3619,-129,-1714,14
90589241,4148,0,0.3209277,-1.6228651,-10.140641,0.013143119,-0.0071550086,-0.032609805,30.375,78.0,0.0023928226,1114658,1061,1005,-5415,14
90690035,4088,0,-1.2591177,-1.8419012,-11.185154,-0.011392208,-0.018384937,-0.042466316,30.375,78.0,0.0023928226,1114658,-776,5432,1398,14
90791877,4200,0,-1.1172881,-0.31332046,-10.060641,-0.026421366,0.018659832,-0.05571537,30.5,78.0,0.0023928226,1114658,-1671,-2914,-7226,3081
90894832,4187,0,0.6577333,1.6643294,-9.452953,-0.027879758,0.007309012,-0.03166858,30.375,78.0,0.0023928226,1114658,331,-3883,-3542,0
90993476,4199,0,-0.4704079,2.110746,-9.81984,0.00013377341,0.0076083755,-0.067952685,30.5,78.0,0.0023928226,1114658,1587,4701,88,14
91096386,4141,0,-0.2968434,-0.13914089,-10.167651,-0.010269282,-0.014947185,-0.032029416,30.375,78.0,0.0023928226,1114658,2712,1846,-6800,3070
91201377,4180,0,-0.52341557,-1.1697214,-10.436902,-0.005099895,0.003932779,-0.03723175,30.375,78.0,0.0023928226,1114658,2946,1612,1671,14
91300077,5224,0,-0.35094565,-1.0188866,-9.717119,0.020317413,-0.0022899273,-0.039647643,30.5,78.0,0.0023928226,1114658,-2778,2020,-4393,8193
91399827,4200,0,-0.85391647,1.168077,-10.090333,-0.023004215,0.009877977,-0.053064115,30.375,78.0,0.0023928226,1114658,57,2735,81,5881
91504829,4188,0,-1.3164682,1.6514585,-10.671092,-0.027768474,9.390389e-05,-0.051475808,30.5,78.0,0.0023928226,1114658,1317,3820,2498,0
91609893,4266,0,-0.28604552,-1.7919576,-10.431259,-0.01540644,-0.016575718,-0.023798157,30.375,78.0,0.0023928226,1114658,53,-655,-2383,3082
91708527,4182,0,-0.23216109,-1.80962,-9.937347,-0.015624915,0.0101640085,-0.062385734,30.375,78.0,0.0023928226,1114658,2280,1221,-3907,3083
91813527,4200,0,0.33641526,0.8963143,-8.78941,0.013037569,0.015326437,-0.040767413,30.5,78.0,0.0023928226,1114658,-730,-3074,-8208,15
91913277,4132,0,-0.8732162,1.2176329,-9.99339,-0.023124075,0.025387451,-0.042344898,30.5,78.0,0.0023928226,1114658,2141,2071,309,3099
92011977,4180,0,0.21093075,1.8572286,-9.674795,0.021479126,-0.005052411,-0.038404603,30.375,78.0,0.0023928226,1114658,872,-583,-4035,3091
92117021,4245,0,0.29974607,-0.9349413,-10.435558,0.0017226584,-0.0031833155,-0.048621938,30.375,78.0,0.0023928226,1114658,3759,1886,-967,3087
92217868,4291,0,-0.9151914,-0.7631466,-10.742397,-0.0036078691,0.006250909,-0.03689304,30.375,78.0,0.0023928226,1114658,3331,1718,2163,5914
92319633,4109,0,-0.17765512,0.83703774,-9.3726635,-0.035126884,0.01760102,-0.04843192,30.375,78.0,0.0023928226,1114658,723,-2801,-4975,2049
92420426,4109,0,0.2987006,1.5370256,-9.913854,-0.0032386412,-0.00033435196,-0.03762206,30.375,78.0,0.0023928226,1114658,1081,716,-478,3104
92521226,4122,0,-0.78568804,2.2825394,-10.395153,0.010221658,0.002726836,-0.07271992,30.5,78.0,0.0023928226,1114658,3610,6181,-1128,3100
92622026,4133,0,-0.068279155,1.7013199,-11.332569,0.020468397,-0.005630241,-0.021228712,30.5,78.0,0.0023928226,1114658,3723,2919,-4620,5913
92722826,4133,0,-0.966729,-1.8271683,-10.359492,-0.0070768995,-0.0033347947,-0.027236614,30.25,78.0,0.0023928226,1114658,1764,4877,-4112,5920
92827851,5206,0,-1.5914272,-0.055687543,-9.654266,-0.02143393,0.016157374,-0.04250251,30.5,78.0,0.0023928226,1114658,-2491,-397,-6083,2048
92925519,4242,0,-0.30805972,0.9207463,-9.441989,0.0052895015,-0.00040349786,-0.03151636,30.5,78.0,0.0023928226,1114658,793,-1360,-5861,14
93030511,4235,0,-0.016840128,1.0362238,-9.501451,-0.016297005,0.018651519,-0.049767967,30.5,78.0,0.0023928226,1114658,1929,2243,-4802,2049
93131276,4200,0,0.5756512,-0.61324114,-10.9905205,-0.01017625,-0.02753917,-0.009991398,30.5,78.0,0.0023928226,1114658,2101,328,-1823,2049
93232076,4200,0,0.034577467,-1.5988761,-11.570336,0.010995919,-0.0119435,-0.055874255,30.5,78.0,0.0023928226,1114658,359,-1936,-2499,14
93331827,4175,0,-0.9111428,-1.6305751,-9.472185,0.020822681,0.0087917745,-0.007024918,30.5,78.0,0.0023928226,1114658,-244,1435,-7305,5936
93437952,4275,0,0.44504228,1.9380761,-8.801922,0.00231873,0.0060530924,-0.0485902,30.5,78.0,0.0023928226,1114658,89,-2253,-8847,3123
93542903,4182,0,0.76402634,1.053492,-9.794421,0.025320448,-0.0015215259,-0.05201064,30.375,78.0,0.0023928226,1114658,3713,81,-4696,3117
93643678,4165,0,-0.54386127,-1.1860666,-10.889717,0.0009407838,-0.0057777776,-0.04579085,30.5,78.0,0.0023928226,1114658,1649,5176,2589,14
93743495,4268,0,0.38782936,-1.5783846,-10.675407,-0.011410195,0.0052890447,-0.047367416,30.5,78.0,0.0023928226,1114658,-4100,-2290,426,3121
93844323,4290,0,-0.13864863,-0.07628509,-9.631168,0.004964737,0.010247716,-0.04365034,30.625,78.0,0.0023928226,1114658,-802,-2296,-1690,3124
93947158,4231,0,-0.22796033,1.6846135,-9.335613,0.012689662,0.0073713236,-0.05051996,30.5,78.0,0.0023928226,1114658,116,1493,-4129,3121
94045894,5318,0,0.98286957,1.9037329,-10.010637,-0.01665177,-0.022766473,-0.055350978,30.5,78.0,0.0023928226,1114658,3639,-2593,-3527,5954
94150827,4090,0,0.27754587,-0.92495495,-11.066041,-0.018248113,0.0011843983,-0.051229917,30.5,78.0,0.0023928226,1114658,3547,155,-1955,3125
94252676,6299,0,-0.86373794,-1.1090107,-10.108021,0.0064332923,0.0066737905,-0.051436663,30.375,78.0,0.0023928226,1114658,808,2241,-1230,16883
94354526,5249,0,0.2180889,0.4571703,-9.853449,0.01967653,0.008091404,-0.04309138,30.375,78.0,0.0023928226,1114658,93,1909,-639,15
94458476,4199,0,-0.24430849,1.9744742,-8.913995,0.020681994,0.0005987906,-0.059343357,30.5,78.0,0.0023928226,1114658,-1093,-114,-5663,15
94559276,4199,0,-1.9720663,0.31535286,-9.966447,-0.039930057,-0.001815007,-0.035037547,30.375,78.0,0.0023928226,1114658,103,2809,-4675,2049
94660077,4196,0,-0.12509961,-0.90043765,-11.145821,-0.0110936435,-0.0057796207,-0.06045196,30.375,78.0,0.0023928226,1114658,3750,940,926,15
94760876,5249,0,0.021372657,-1.533723,-10.30312,-0.0012948569,0.0033740671,-0.052291106,30.375,78.0,0.0023928226,1114658,-344,-3298,-6707,15
94863826,5253,0,-0.12326363,-0.09525218,-11.289965,0.023992578,0.012615592,-0.059799735,30.375,78.0,0.0023928226,1114658,1397,1700,2548,2049
94966695,5267,0,-0.5218831,2.1158953,-8.63917,0.019689364,0.011489818,-0.056702636,30.5,78.0,0.0023928226,1114658,-718,1390,-10051,3153
95066435,4196,0,0.061284047,1.5367438,-10.061937,-0.039589897,-0.01409193,-0.05115394,30.5,78.0,0.0023928226,1114658,-914,-3702,-3780,3138
95169338,4190,0,0.41719288,-0.95750123,-10.563018,-0.020992016,-0.0048085623,-0.041691612,30.5,78.0,0.0023928226,1114658,1205,1423,-318,3156
95984168,5261,0,0.7219708,1.5129296,-9.100258,0.007378476,0.008918207,-0.041585065,30.75,78.0,0.0023928226,1114658,-1861,-3163,-4632,2049
96083877,4154,0,0.63914895,2.6058612,-10.550197,0.045187272,0.00011057728,-0.046520527,30.5,78.0,0.0023928226,1114658,1451,-872,-4507,3166
96184678,4192,0,-0.14733833,0.8398743,-9.694334,0.004635353,0.007808741,-0.0636433,30.625,78.0,0.0023928226,1114658,1985,2831,-4019,8193
96288627,4200,0,-0.9036345,-1.8743098,-10.023505,-0.011693358,-0.0033531561,-0.059266243,30.625,78.0,0.0023928226,1114658,-3513,338,-5773,14
96390477,5250,0,-0.84671926,-0.46835834,-9.555529,-0.005922657,0.009380239,-0.05393496,30.625,78.0,0.0023928226,1114658,44,2057,-5676,2049
96491276,4199,0,-0.6178497,1.0652692,-9.77999,0.0019944662,0.0034672793,-0.024228439,30.625,78.0,0.0023928226,1114658,-3991,786,-1415,8192
96594177,4200,0,-0.38706473,1.4109981,-10.447278,-0.009232289,-0.0076183183,-0.04165276,30.625,78.0,0.0023928226,1114658,944,1455,-2021,8193
96693944,6291,0,0.514715,1.1372875,-10.220483,-0.009328664,-0.018207151,-0.058365308,30.5,78.0,0.0023928226,1114658,-2036,-1946,-6359,3172
96794814,4287,0,0.57198876,-1.2402886,-11.091874,-0.012091356,-0.009848311,-0.064178795,30.625,78.0,0.0023928226,1114658,3107,-1523,-250,0
96895543,4177,0,-0.3234084,-1.5596585,-10.774914,0.008517585,-0.012213507,-0.05308303,30.625,78.0,0.0023928226,1114658,-1472,239,-1837,3175
96996347,5270,0,-0.25957316,-0.44612786,-8.7940645,0.0016999991,0.015598238,-0.04510523,30.5,78.0,0.0023928226,1114658,-1939,-1264,-9047,14
97099227,4200,0,0.11255453,1.7451943,-10.020989,0.014679124,-0.0041220537,-0.04515596,30.75,78.0,0.0023928226,1114658,526,-27,-10177,8192
97200027,4190,0,0.58072525,2.3554633,-11.792422,0.025824336,-0.010430746,-0.04564032,30.75,78.0,0.0023928226,1114658,3381,-558,1864,8192
97299776,4196,0,-0.9655082,0.7482662,-10.378311,0.031667557,-0.010309098,-0.022121983,30.625,78.0,0.0023928226,1114658,2317,6541,-4711,14
97404798,4188,0,-0.39802152,-1.2620128,-11.003182,0.011446372,-0.008123351,-0.047986474,30.5,78.0,0.0023928226,1114658,525,-1326,-2126,0
97505576,4200,0,-0.40069893,0.32542992,-9.92197,0.0019405906,0.005949695,-0.05243887,30.625,78.0,0.0023928226,1114658,3465,328,-2998,2048
97606376,4200,0,-0.11401729,1.2370051,-9.434644,0.009020033,0.0061326576,-0.04060802,30.75,78.0,0.0023928226,1114658,-180,-166,-749,14
97707176,4200,0,0.32497537,1.2377499,-9.251906,-0.0013003921,-0.013151976,-0.038912,30.75,78.0,0.0023928226,1114658,-608,187,-3859,14
97812256,4279,0,-0.71979594,-1.4691362,-11.230808,-0.025438333,-0.01259964,-0.054994613,30.625,78.0,0.0023928226,1114658,341,266,-692,6073
97911927,4200,0,-0.05988804,-1.5541438,-10.835071,-0.060802832,-0.011254679,-0.016774084,30.625,78.0,0.0023928226,1114658,1363,-5134,-4735,2048
98012727,4200,0,-0.3422,-0.23167539,-9.242216,0.0021487009,0.01802886,-0.01971784,30.5,78.0,0.0023928226,1114658,-1707,-1099,-8567,2048
98115627,4158,0,0.48763484,1.8116753,-9.070488,0.01227902,0.009996803,-0.049562957,30.625,78.0,0.0023928226,1114658,-2212,-1522,-8240,8193
98216427,4090,0,0.58431554,1.266832,-9.996739,-0.008395448,-0.0031602553,-0.0694381,30.625,78.0,0.0023928226,1114658,2881,-1107,-1428,3180
98316261,4285,0,1.289163,-0.06466057,-10.552472,0.022747742,-0.012160547,-0.06363177,30.75,78.0,0.0023928226,1114658,1382,-4854,-1062,6082
98420158,5262,0,-0.7993525,-1.4108346,-10.945682,-0.0055216304,0.0021123227,-0.02786237,30.75,78.0,0.0023928226,1114658,1743,3165,1652,14
98519877,4184,0,-0.6228061,-0.14708598,-10.183942,0.025876129,0.01434317,-0.024955504,30.75,78.0,0.0023928226,1114658,84,1094,-1578,8192
98620677,4170,0,-0.4118734,0.8949188,-9.664022,0.02451129,0.008331791,-0.039765365,30.625,78.0,0.0023928226,1114658,-3243,1106,-2968,2048
98723577,5250,0,1.1430143,1.9853889,-9.24096,0.0032173516,-0.0012331377,-0.05536271,30.625,78.0,0.0023928226,1114658,4357,-3154,-6339,3202
98830693,4216,0,-2.192651,-1.6700494,-10.290053,0.023206381,-0.010719677,-0.044310167,30.625,78.0,0.0023928226,1114658,-466,5160,-3893,3197
98929377,5220,0,-0.057517584,-2.055404,-10.0899725,-0.00013637672,0.00014062968,-0.04166516,30.625,78.0,0.0023928226,1114658,-551,446,-5750,6091
99033352,4213,0,-0.26156104,0.9667762,-9.332118,-0.0012324199,-7.620712e-05,-0.05140872,30.75,78.0,0.0023928226,1114658,939,-1370,-5843,14
99134203,4271,0,0.025793431,1.7149837,-9.976465,-0.009138398,0.00042038743,-0.053966332,30.75,78.0,0.0023928226,1114658,1304,969,-379,14
99232872,4246,0,0.12115272,1.2385373,-9.72329,-0.015635619,-0.0076134577,-0.06414169,30.5,78.0,0.0023928226,1114658,-663,-2142,-3504,2048
99337869,4233,0,-1.2213167,-1.837306,-10.290181,0.0037637367,-0.0016433564,-0.038247164,30.875,78.0,0.0023928226,1114658,-1523,5176,-2870,2049
99438700,5323,0,-0.648147,-1.2464154,-10.106071,0.0050702193,0.010035072,-0.08125975,30.75,78.0,0.0023928226,1114658,-232,2665,-8191,6110
99543627,4090,0,0.039739747,0.9168723,-9.622791,-0.020988043,0.00023806674,-0.046889253,30.75,78.0,0.0023928226,1114658,-1510,-1807,527,3219
99643445,4269,0,0.5381925,1.582695,-9.441981,-0.029855978,0.0004982791,-0.036773387,30.625,78.0,0.0023928226,1114658,236,-4215,-5734,6114
99746325,4242,0,-0.788713,0.7212262,-10.054497,-0.000459333,-0.0052603716,-0.041385867,30.75,78.0,0.0023928226,1114658,252,2703,-6316,2049
99847076,4200,0,0.39137295,-1.0708762,-9.739083,0.0134101305,-0.008084847,-0.019372381,30.75,78.0,0.0023928226,1114658,-398,-2296,-7632,14
99947884,5167,0,0.0038690688,-1.235854,-9.794379,0.003102221,-1.1450029e-06,-0.03918776,30.75,78.0,0.0023928226,1114658,1365,-1147,-2788,14
100051826,4199,0,-0.69756633,0.7815816,-9.513815,-0.031531744,0.004134562,-0.05403383,30.75,78.0,0.0023928226,1114658,-3233,-460,-8585,2048
100153676,5249,0,-1.5949169,1.570087,-9.883987,-0.026456418,0.002044815,-0.05723698,30.75,78.0,0.0023928226,1114658,1059,1873,-3330,8193
100253427,4194,0,-0.455859,0.7885302,-9.883961,0.011401075,-0.002813936,-0.030220488,30.75,78.0,0.0023928226,1114658,-562,814,-9161,14
100354227,4200,0,0.1861802,-1.1620042,-10.087178,-0.008007273,-0.007620662,-0.034862183,30.875,78.0,0.0023928226,1114658,-621,-2671,-8118,14
100458177,4189,0,-0.69381106,-0.71965563,-9.48821,-0.036178492,0.0062700287,-0.07208334,30.75,78.0,0.0023928226,1114658,-4267,-416,-4721,8193
100555826,4199,0,0.12544084,-0.46943468,-9.785273,-0.016306844,-0.0030403852,-0.04434359,30.625,78.0,0.0023928226,1114658,-1088,-3422,-2128,14
100657677,4200,0,-0.6735798,1.6963576,-9.850953,-0.014020753,0.013622282,-0.053780243,30.875,78.0,0.0023928226,1114658,227,2683,-3337,8192
100758513,4236,0,-0.7139808,0.78845066,-9.901452,0.0048856186,0.005152485,-0.03381661,30.75,78.0,0.0023928226,1114658,-1038,1927,-5087,3229
100862426,5249,0,0.008798646,-0.6847271,-10.156657,-0.0040459414,-0.006514835,-0.066552445,30.875,78.0,0.0023928226,1114658,1415,-3110,-7612,14
100962177,4200,0,0.35151958,-0.9490842,-10.013227,-0.012403864,0.002691434,-0.0468917,30.75,78.0,0.0023928226,1114658,1009,-3732,-8057,8193
101062977,4200,0,0.53134763,-0.6112176,-10.6931305,-0.023394525,0.0038316047,-0.037893727,30.75,78.0,0.0023928226,1114658,211,-5670,1507,6152
101165924,5297,0,-0.0967164,1.8141584,-9.807484,0.009576989,0.010529291,-0.016152587,30.875,78.0,0.0023928226,1114658,1303,2145,-2301,3240
101266700,4192,0,0.34011447,1.4120347,-9.750124,0.02976238,0.008060396,-0.038858324,30.75,78.0,0.0023928226,1114658,2825,804,-4018,6151
101371677,5220,0,-1.1458542,-0.79823655,-10.774558,-0.03277934,-0.01996425,-0.022033801,30.875,78.0,0.0023928226,1114658,97,-3223,577,3236
101471493,4234,0,-0.6709493,-1.5940104,-10.619925,-0.00788037,0.0065597463,-0.017842865,30.75,78.0,0.0023928226,1114658,-211,1307,-822,6171
101572313,4239,0,-1.2413554,0.22321528,-9.737899,0.014493191,0.017047372,-0.04317382,30.875,78.0,0.0023928226,1114658,-1424,2343,-1699,3234
101673117,4291,0,-0.30914262,2.001048,-9.662193,0.017740613,0.009000138,-0.051113952,30.875,78.0,0.0023928226,1114658,-275,2678,-4939,3227
101778027,4102,0,0.62071264,0.76932746,-10.264605,0.016525911,-0.014042254,-0.04424979,30.875,78.0,0.0023928226,1114658,2429,-2075,-7280,3235
101876727,4201,0,0.06395938,-0.06718996,-10.391242,-0.0035661238,-0.0028198177,-0.060021225,30.875,78.0,0.0023928226,1114658,3236,-536,-2036,6178
