timestamp,integral_dt,error_count,x,y,z,x_integral,y_integral,z_integral,temperature,range_m_s2,scaling,device_id,x_raw,y_raw,z_raw,temperature_raw
49075310,4285,0,-0.5035945,-0.120565504,-10.18692,9.809772e-05,0.0025490185,-0.040752433,32.375,78.0,0.0023928226,1114658,191,777,-3933,3796
49174975,4190,0,0.07054899,0.035573963,-10.006265,0.00839522,-0.00830489,-0.040541496,32.25,78.0,0.0023928226,1114658,1245,907,-3863,3799
49277883,4113,0,-0.08785438,0.36204663,-9.493745,-0.00054595806,0.0014408808,-0.043525137,32.375,78.0,0.0023928226,1114658,-230,493,-4136,0
49380807,4232,0,-0.2180874,-0.0941259,-9.167884,0.0063321646,0.008999231,-0.035362948,32.25,78.0,0.0023928226,1114658,-856,0,-4510,2049
49482625,5251,0,-0.55256844,-0.3405305,-9.259849,0.007621421,0.008401946,-0.047880054,32.25,78.0,0.0023928226,1114658,211,952,-2996,2048
49580280,4153,0,-0.8279953,-1.1926955,-9.786645,0.0025163805,0.004127798,-0.034874268,32.25,78.0,0.0023928226,1114658,15,1098,-3027,3804
49683184,4209,0,0.2228741,0.45650727,-9.7369175,0.009166222,0.007205458,-0.043717053,32.25,78.0,0.0023928226,1114658,441,237,-3534,8193
49788214,4240,0,-0.24341573,-0.045543794,-9.981406,-0.010843955,-0.013424204,-0.04106071,32.375,78.0,0.0023928226,1114658,889,1291,-3450,2049
49888980,6304,0,-0.27392796,-0.87128013,-9.624917,0.007574276,0.0052824426,-0.059312496,32.375,78.0,0.0023928226,1114658,-851,1332,-4573,8192
49990825,5251,0,-0.9749158,-0.7102652,-9.9195,-0.00040470227,-0.0057295514,-0.047229644,32.125,78.0,0.0023928226,1114658,122,-14,-4473,3819
50090575,4200,0,-0.05496659,-0.093904726,-10.136058,-0.012489041,-0.0072690975,-0.053201277,32.125,78.0,0.0023928226,1114658,3843,31,-2331,3813
50191392,4204,0,-0.40336344,-0.054448105,-9.862032,-0.018811315,-0.022609035,-0.052581374,32.5,78.0,0.0023928226,1114658,2370,-686,-5249,0
50294274,4200,0,-0.7198177,-0.45151854,-10.021792,0.0061533926,0.017806979,-0.051884588,32.375,78.0,0.0023928226,1114658,749,1239,-3910,2049
50397208,4214,0,0.9186766,0.15265663,-9.707435,-0.01325413,0.0015474696,-0.072443046,32.375,78.0,0.0023928226,1114658,830,-2130,-5806,8193
50493800,6325,0,-1.2949983,-0.9079313,-10.588084,0.010868509,-0.012528776,-0.07095996,32.375,78.0,0.0023928226,1114658,27,1365,-3948,3815
50598774,4178,0,-0.036986675,-1.2754661,-10.363131,0.020454898,0.009136409,-0.047833033,32.375,78.0,0.0023928226,1114658,-530,3116,-1800,3824
50699574,4199,0,0.47210208,-1.0898988,-10.129669,0.00013399539,0.009244052,-0.043266606,32.375,78.0,0.0023928226,1114658,-932,-966,-3293,6200
50801437,5247,0,-1.1335934,0.3001526,-9.093928,-0.01724409,-0.00024208511,-0.05434045,32.375,78.0,0.0023928226,1114658,4145,-306,-2506,8192
50903368,4294,0,1.826947,-0.012462592,-9.728246,-0.023217028,0.0009563172,-0.031812955,32.375,78.0,0.0023928226,1114658,-1642,-5163,-6079,12
51004136,4262,0,0.6235103,-0.223626,-11.066979,-0.008750973,0.004912317,-0.034343183,32.375,78.0,0.0023928226,1114658,861,-2107,-6528,12
51107005,4214,0,-1.8914863,0.2589682,-9.3613205,0.0017652019,0.0077898772,-0.03194675,32.375,78.0,0.0023928226,1114658,979,5228,-5386,2049
51207809,4207,0,0.6624261,-0.103420764,-10.158251,-0.036841743,0.00034569576,-0.040793404,32.375,78.0,0.0023928226,1114658,-295,-2664,-1967,0
51309742,5325,0,0.5466648,0.15951762,-10.24168,-0.047575165,-0.007945268,-0.037831664,32.25,78.0,0.0023928226,1114658,2265,-4479,-4869,3836
51409375,4144,0,0.5703792,-0.5402752,-11.0264635,-0.023653328,-0.007536076,-0.054765027,32.25,78.0,0.0023928226,1114658,1057,-4314,-1596,8192
51510190,4177,0,-0.66125435,-0.7531907,-10.318672,-0.019589009,0.00314159,-0.04550044,32.25,78.0,0.0023928226,1114658,-1237,-223,-5381,8193
51612128,5344,0,0.3304138,-0.15073152,-10.097506,-0.014831006,0.004482675,-0.061716408,32.25,78.0,0.0023928226,1114658,759,-1656,-8568,3843
51715975,4189,0,0.28841826,0.54417676,-11.61117,-0.039908525,-0.007130142,-0.061229,32.375,78.0,0.0023928226,1114658,336,-4452,1283,2049
51814675,4119,0,0.10167445,0.9073399,-10.110294,-0.0018293052,0.006192702,-0.023293821,32.5,78.0,0.0023928226,1114658,1834,-1396,-7469,8193
51918670,4121,0,-1.1755525,-0.15970448,-9.79932,-9.5408504e-05,0.0019934217,-0.039904386,32.25,78.0,0.0023928226,1114658,-918,3979,-5540,12
52021555,4230,0,-1.4032515,0.13067245,-9.178308,-0.014090635,0.0062308577,-0.05942222,32.5,78.0,0.0023928226,1114658,966,1470,-6562,2049
52121284,4209,0,-0.23550187,-0.5110771,-9.654696,-0.013515089,0.004496299,-0.04023806,32.5,78.0,0.0023928226,1114658,1448,-1685,-2718,3849
52227342,4154,0,-0.8750585,0.026474247,-9.250334,-0.002382475,-0.0014500087,-0.042435065,32.5,78.0,0.0023928226,1114658,-1882,1921,-5510,3859
52328154,4229,0,-1.1628802,0.7604625,-9.196074,-0.0009110503,0.0066575906,-0.03485104,32.375,78.0,0.0023928226,1114658,309,3218,-6350,3855
52428931,5256,0,0.13751517,-0.10028994,-10.380823,0.0008414067,0.0022872803,-0.08446962,32.375,78.0,0.0023928226,1114658,444,-1128,-6074,3855
52529726,4201,0,-0.28929707,-0.6397125,-10.815247,-0.018589372,-0.007032088,-0.045349102,32.375,78.0,0.0023928226,1114658,85,-1474,1150,3851
52632625,4197,0,-1.4156306,-0.47380587,-8.92472,0.005858373,0.011684803,-0.045893636,32.5,78.0,0.0023928226,1114658,-1938,4038,-6909,2048
52733425,4200,0,0.31160304,0.97020245,-10.391857,0.020776702,0.011362624,-0.055460166,32.375,78.0,0.0023928226,1114658,1571,-2435,-4253,3852
52834225,5201,0,-1.0044631,0.5200564,-10.609278,0.011304116,-0.0019716923,-0.045939952,32.375,78.0,0.0023928226,1114658,-770,4397,-301,8193
52937159,5285,0,-0.4005991,-0.49810404,-10.407254,-0.015822062,-0.007922073,-0.030743469,32.375,78.0,0.0023928226,1114658,-710,-900,-2504,3857
53344524,4199,0,-1.0121497,0.74476,-10.547326,0.0074787843,0.0040396876,-0.04762003,32.5,78.0,0.0023928226,1114658,-610,6035,-4841,12
53749824,4127,0,-0.65459543,0.6295796,-10.644062,0.033634588,-0.0024319568,-0.048408397,32.5,78.0,0.0023928226,1114658,55,510,-4524,6303
53854834,4210,0,0.2253601,-0.09991605,-10.488369,-0.0014414694,-0.0024869554,-0.041161563,32.375,78.0,0.0023928226,1114658,-298,-762,-6489,12
53955652,4227,0,0.93357044,-0.4722771,-11.596242,-0.024360925,-0.016831292,-0.03305137,32.5,78.0,0.0023928226,1114658,823,-3805,13,12
54056471,4247,0,0.16502647,-0.7619402,-10.963027,0.017805154,-0.01024777,-0.06870704,32.5,78.0,0.0023928226,1114658,2578,144,-2559,8192
54159347,4209,0,-0.010852806,-0.4368304,-10.522395,-0.02872124,0.0033090927,-0.038233176,32.5,78.0,0.0023928226,1114658,-1696,-3708,-3502,3885
54260153,4204,0,0.5717316,1.4875185,-10.832622,0.012744511,-0.0028818394,-0.05533475,32.5,78.0,0.0023928226,1114658,1803,-4273,113,3889
54360924,4158,0,-0.047927316,0.4183147,-9.759473,0.005687837,-0.010138045,-0.042763684,32.5,78.0,0.0023928226,1114658,355,1446,-1843,3873
54463824,4199,0,-0.8515996,-0.50701356,-9.14534,0.001691642,0.011962194,-0.04215222,32.5,78.0,0.0023928226,1114658,1001,4301,-8763,12
54564632,4207,0,0.28655493,-0.7227834,-9.695173,0.010144261,-0.0055994834,-0.03501997,32.5,78.0,0.0023928226,1114658,2066,-1766,-5283,12
54666521,5296,0,-0.56136894,-0.018609315,-9.373486,0.016861115,0.0066644475,-0.050616153,32.5,78.0,0.0023928226,1114658,-472,1588,-5703,3886
54766225,4198,0,0.45610502,0.97044176,-10.283869,0.0017931064,-0.010409418,-0.06222065,32.5,78.0,0.0023928226,1114658,969,-1680,1101,12
54867024,4199,0,0.5076469,0.1492869,-10.042647,-0.020241966,-0.0012264934,-0.005258212,32.5,78.0,0.0023928226,1114658,508,-1453,390,8193
54968947,5309,0,-0.3506592,-1.0601368,-9.3433695,0.0036397013,0.00038571184,-0.046739854,32.5,78.0,0.0023928226,1114658,-887,2235,-6680,3904
55072874,4250,0,-1.3262434,-0.16703743,-9.735848,0.0031201749,0.011465703,-0.026459606,32.5,78.0,0.0023928226,1114658,721,3238,-1562,8192
55173741,4317,0,-0.6292882,1.0414654,-10.099321,0.014489003,0.0036817433,-0.065378904,32.5,78.0,0.0023928226,1114658,585,2568,-1177,3899
55274528,4303,0,0.012391407,0.9404029,-10.26442,0.013954391,-0.010158644,-0.026462588,32.375,78.0,0.0023928226,1114658,1314,1114,-2213,3899
55375321,4296,0,-0.44486234,-0.4086142,-9.316589,-0.022380745,-0.0065514594,-0.025835896,32.5,78.0,0.0023928226,1114658,2606,-224,-3961,3906
55480231,4102,0,-1.4953897,-0.6898666,-8.719203,0.00035857264,-0.0040578432,-0.06136284,32.625,78.0,0.0023928226,1114658,-520,4905,-5437,3897
55584196,4222,0,-0.4317994,1.6094173,-9.858154,0.018476956,0.0026523985,-0.052008085,32.375,78.0,0.0023928226,1114658,2832,1565,-861,8193
55684975,4200,0,-0.11419257,0.9160371,-10.3491955,-0.009646299,-0.0073180315,-0.07869573,32.5,78.0,0.0023928226,1114658,372,573,2069,3908
55785775,5250,0,0.35264838,-0.3504382,-10.029291,-0.0057724817,-0.0044786716,-0.033501923,32.625,78.0,0.0023928226,1114658,-1615,-974,-117,6386
55886575,4201,0,-1.085342,-0.92731386,-9.8839245,-0.019331237,0.008278289,-0.049755428,32.375,78.0,0.0023928226,1114658,1849,3445,-5840,8192
55987399,4211,0,-0.3989951,-0.7713103,-10.137172,-0.009835516,-0.005374301,-0.05097895,32.5,78.0,0.0023928226,1114658,-114,-1384,-3494,3906
56092375,4200,0,-0.76640874,1.3845825,-8.324052,-0.007960666,0.0074568996,-0.041224666,32.625,78.0,0.0023928226,1114658,1913,2407,-4921,3915
56191074,4199,0,-1.6131593,0.42593858,-6.3855157,0.05192885,-0.014592735,-0.040074926,32.5,78.0,0.0023928226,1114658,-24,6524,-9575,8192
56291874,4199,0,-2.502909,-0.315746,-7.161373,0.0054951007,-0.004956453,-0.032000054,32.5,78.0,0.0023928226,1114658,-2651,5560,-2381,6406
56394774,4199,0,-0.76767564,-1.0673082,-7.5653667,-0.07893029,0.0028812622,-0.031990383,32.75,78.0,0.0023928226,1114658,722,-6218,-7019,2049
56499775,4201,0,0.30415073,-0.20302312,-7.8861127,0.044201,0.0021258586,-0.049890187,32.5,78.0,0.0023928226,1114658,-1392,2622,-2503,11
56602682,4161,0,-0.045620766,0.2903007,-8.650603,0.044705544,-0.0009279592,-0.0038963805,32.625,78.0,0.0023928226,1114658,2053,3353,-982,8193
56699297,5248,0,-0.3315137,-0.022605937,-9.333732,-0.009411356,0.00077017065,-0.055453904,32.625,78.0,0.0023928226,1114658,-1470,733,-3342,3923
56804274,4177,0,-0.34822622,-1.1377982,-10.611837,0.0015012022,-0.0045258813,-0.047971323,32.625,78.0,0.0023928226,1114658,-2752,1136,-800,11
56905074,4177,0,-0.60502326,-0.24121305,-10.1368685,-0.0058624204,0.0075373612,-0.04407567,32.5,78.0,0.0023928226,1114658,-217,1541,-2906,11
57007974,4200,0,-0.46315473,0.9719523,-10.16361,-0.02343148,0.004947681,-0.05879993,32.625,78.0,0.0023928226,1114658,-1206,-164,-1138,2049
57108802,4228,0,0.14972684,0.57275116,-10.345396,0.0050585545,-0.007566784,-0.04967306,32.625,78.0,0.0023928226,1114658,1435,313,-1802,2049
57209601,4227,0,0.08735349,-0.7173258,-10.867917,-0.008854713,-0.0098423585,-0.070212394,32.625,78.0,0.0023928226,1114658,-1797,2022,976,8192
57312475,4194,0,0.2305553,-1.8254135,-11.18598,-0.004197464,-0.012118232,-0.033225585,32.5,78.0,0.0023928226,1114658,3,-2778,-2961,2048
57415378,4153,0,-1.3111383,0.07126323,-10.89078,0.014938131,0.003177104,-0.07330863,32.625,78.0,0.0023928226,1114658,4559,3745,411,3931
57516204,4196,0,-0.23440216,0.34473076,-9.6208105,-0.0077983034,-0.0013816472,-0.020408655,32.625,78.0,0.0023928226,1114658,40,382,-4189,8193
57614875,4158,0,0.49543214,0.9576867,-10.13458,0.03955195,0.0037274936,-0.050549384,32.625,78.0,0.0023928226,1114658,1170,-190,-5111,3936
57715675,4192,0,-0.86041766,1.3510898,-10.493385,-0.014270758,0.0021430093,-0.060553186,32.625,78.0,0.0023928226,1114658,-104,3115,-5749,8193
57820690,4210,0,-0.06766991,-0.93675464,-11.374798,0.001894112,-0.010147308,-0.07144326,32.5,78.0,0.0023928226,1114658,2350,774,-3094,2049
57921474,4199,0,-1.2271754,-1.6291039,-10.668089,-0.0040989295,0.0063794293,-0.048795853,32.5,78.0,0.0023928226,1114658,-3064,3403,-2673,11
58023375,5300,0,-1.0580992,-0.4346659,-10.731986,-0.036544167,0.0061911456,-0.04488876,32.75,78.0,0.0023928226,1114658,-1811,-786,-3401,3947
58124190,4266,0,0.8514389,0.46743217,-10.326672,0.016040232,-0.0046311044,-0.05217078,32.75,78.0,0.0023928226,1114658,-584,-3219,-3041,11
58223874,4199,0,-0.6375266,1.4909619,-10.114429,0.008303498,0.00030929013,-0.060212273,32.625,78.0,0.0023928226,1114658,3628,1276,-5971,11
58325745,5270,0,-0.9298003,-0.45215344,-10.424297,-0.020127058,-0.004072944,-0.037360016,32.625,78.0,0.0023928226,1114658,-597,3488,1358,11
58430726,4163,0,-1.7853327,-1.5197935,-10.504758,-0.0019029541,0.018431287,-0.027190851,32.5,78.0,0.0023928226,1114658,-371,4721,-9683,3940
58529441,4201,0,-1.1107724,-0.45473936,-10.263254,-0.0037463964,0.012515014,-0.044222996,32.625,78.0,0.0023928226,1114658,-833,2080,-3576,3953
58632325,4182,0,-0.8457136,1.2233186,-8.727505,-0.01901224,0.019981954,-0.02921499,32.625,78.0,0.0023928226,1114658,367,1575,-7987,6501
58733159,4197,0,-0.5701714,0.93826395,-10.710246,-0.012035854,-0.0035333878,-0.053431716,32.75,78.0,0.0023928226,1114658,3021,2975,-111,3952
58833925,4166,0,0.5293188,0.42469153,-10.324147,0.024940697,-0.021253804,-0.053822845,32.75,78.0,0.0023928226,1114658,3922,656,-5029,3951
58934725,4189,0,-1.6710477,-1.5062302,-10.390163,-0.004563594,-0.013999137,-0.015656833,32.75,78.0,0.0023928226,1114658,1313,2716,-3409,2048
59037757,4329,0,-0.57005274,-0.6763991,-9.399433,-0.014281151,0.009574848,-0.034879696,32.625,78.0,0.0023928226,1114658,-382,-126,-4114,3958
59138521,4296,0,-0.36564422,0.075208575,-10.262414,-0.027378576,-0.0014629542,-0.059265617,32.625,78.0,0.0023928226,1114658,-2173,-2343,-866,3970
59241324,4163,0,-0.29821563,0.42357504,-9.910118,0.016736,0.010272724,-0.036825575,32.75,78.0,0.0023928226,1114658,1438,-1976,-8166,6538
59344225,4117,0,-1.4895755,0.14238945,-9.522358,0.008266157,0.013960078,-0.040724464,32.625,78.0,0.0023928226,1114658,3621,4424,-8030,3955
59442925,4200,0,-0.032568693,-1.0850658,-10.119195,-0.017372975,-0.0051157153,-0.042964693,32.75,78.0,0.0023928226,1114658,957,-1562,-2797,2048
59543725,4200,0,-0.6209424,-0.7896362,-10.413138,0.010821841,0.004552058,-0.07502757,32.75,78.0,0.0023928226,1114658,2131,3832,523,3962
59646625,4104,0,-1.0119315,0.21834202,-9.013496,-0.0023447885,0.0123086395,-0.014956909,32.75,78.0,0.0023928226,1114658,821,3005,-3334,6537
59749554,4230,0,-0.6442657,0.8068352,-9.689192,0.01578486,-0.008021642,-0.044859078,32.75,78.0,0.0023928226,1114658,2963,2814,-2434,2049
59850324,5219,0,0.030408114,-0.18650058,-9.321865,0.006631966,-0.0031313633,-0.043329146,32.625,78.0,0.0023928226,1114658,1264,-1952,-4715,3958
59955324,4166,0,-0.9940848,-1.0960053,-9.481709,0.0046928003,0.007813839,-0.020730713,32.75,78.0,0.0023928226,1114658,1741,4246,-3596,3973
60056183,5308,0,-0.6550903,-0.26688373,-10.44045,0.0079611605,0.009013424,-0.09487181,32.75,78.0,0.0023928226,1114658,165,-729,-4551,3989
60156930,4205,0,-1.238163,0.22486362,-8.965625,-0.01982708,0.00859349,-0.026455,32.75,78.0,0.0023928226,1114658,-2619,2239,-5270,3984
60259824,4199,0,-0.17365219,0.15534256,-10.402203,-0.020712076,-0.01264066,-0.049421977,32.75,78.0,0.0023928226,1114658,-487,-1450,-4433,11
60358553,5278,0,0.09500161,0.1874915,-11.136304,0.009257455,-0.005387845,-0.011261994,32.625,78.0,0.0023928226,1114658,-483,1763,5770,3979
60463529,4182,0,-0.84646285,-1.6530603,-10.194337,-0.018456982,-0.0047864355,-0.027961798,32.875,78.0,0.0023928226,1114658,-3672,678,-422,11
60562252,4227,0,0.092679456,-0.3381163,-10.438721,0.015562826,0.0076288776,-0.04526334,32.875,78.0,0.0023928226,1114658,1101,-1558,-1507,11
60665185,4211,0,-1.1154149,0.2598622,-8.567039,0.0031821767,0.010716392,-0.016736276,32.75,78.0,0.0023928226,1114658,-2728,3176,-3022,3992
60763829,5254,0,0.57859397,0.59320027,-9.56714,0.01605399,-0.0128885405,-0.05146342,32.75,78.0,0.0023928226,1114658,1938,-3737,-7042,11
60865755,4280,0,0.40284082,0.5549175,-11.063146,0.025442652,0.0015588141,-0.06904435,32.75,78.0,0.0023928226,1114658,2267,-2224,3,3992
60967525,4177,0,-0.3356816,-0.79479,-10.565582,-0.0014608088,-0.00069871976,-0.049136054,32.625,78.0,0.0023928226,1114658,1145,305,-983,3992
61067321,4247,0,-0.7755315,-1.125689,-11.696193,-0.017117644,-0.011733404,-0.010177283,32.625,78.0,0.0023928226,1114658,-948,-1068,-1729,3979
61170189,6314,0,0.0054395767,-1.7599272,-9.227781,0.019218557,-0.013111147,-0.035681367,32.875,78.0,0.0023928226,1114658,474,-1706,581,8193
61276225,4104,0,-1.4351462,0.0023704357,-9.935327,-0.013362965,-0.006231611,-0.0663307,32.75,78.0,0.0023928226,1114658,-4053,3895,-2504,4007
61374925,5245,0,0.5697678,0.30129662,-9.325858,0.02250732,-0.011038441,-0.048127223,32.75,78.0,0.0023928226,1114658,3474,-925,-6027,12
61478875,4200,0,0.1200484,-0.7268832,-11.007954,-0.009875555,-0.008396879,-0.08245754,32.875,78.0,0.0023928226,1114658,750,-2946,-1909,3995
61578625,4078,0,0.2008042,0.16857167,-8.260618,0.0014563232,0.0109128915,-0.049888734,32.75,78.0,0.0023928226,1114658,1501,-1359,-10801,3993
61679425,4084,0,-0.70077163,0.3156306,-10.106452,-0.037488837,-0.0074225585,-0.0036927299,32.625,78.0,0.0023928226,1114658,156,-2597,-7574,3995
61780225,5251,0,-0.0770095,1.175186,-9.283916,0.023813952,-0.008124866,-0.041653454,32.75,78.0,0.0023928226,1114658,3576,-703,-6933,4005
61883158,5283,0,-0.6829194,0.5432104,-9.179577,0.017273456,-0.0017018301,-0.08176832,32.75,78.0,0.0023928226,1114658,2699,1102,-12817,2049
61980810,4221,0,0.5253959,-0.49388546,-10.224621,0.010921227,-0.0143766645,-0.03972833,32.75,78.0,0.0023928226,1114658,-1834,-2046,-506,11
62083675,4192,0,-1.3262305,-0.6801649,-10.574023,-0.0057953605,-0.007362265,-0.073697254,32.875,78.0,0.0023928226,1114658,129,3342,1469,8193
62189732,4199,0,-0.8906768,0.50278145,-9.541534,-0.002461169,0.0144001655,-0.043256454,32.875,78.0,0.0023928226,1114658,59,4020,971,4008
62288428,5215,0,-0.847791,1.3630086,-9.896487,-0.012376535,0.0023365393,-0.07366281,32.875,78.0,0.0023928226,1114658,905,2891,-2399,8192
62389225,4198,0,0.25535125,-0.40775743,-9.553429,0.002161504,-0.013570355,-0.034940083,32.75,78.0,0.0023928226,1114658,597,-2119,-9270,4013
62494225,5220,0,-0.5057501,-1.6029413,-11.038838,-0.00048345653,-0.006474275,-0.051318295,32.875,78.0,0.0023928226,1114658,2510,711,947,4006
62598187,4206,0,-1.3257815,-0.06824107,-10.443692,0.040392812,0.0070094904,-0.034070425,32.75,78.0,0.0023928226,1114658,409,2995,-6328,8192
62696954,4279,0,-0.755284,0.8851639,-10.084035,0.007196785,0.022992898,-0.029549403,32.75,78.0,0.0023928226,1114658,-1222,617,-5023,4018
62797740,4266,0,-0.02554356,0.7412404,-10.285146,-0.006545713,0.0007959312,-0.020460976,32.875,78.0,0.0023928226,1114658,2213,-1946,-3776,4013
62902675,4146,0,-0.35074538,-0.29764906,-10.968588,0.01913234,-0.014736178,-0.035609905,33.0,78.0,0.0023928226,1114658,1763,933,-3335,8193
63003475,4142,0,-0.8851586,-0.40649456,-10.830253,0.013383262,-0.014879461,-0.060976002,32.875,78.0,0.0023928226,1114658,1223,4459,-558,4027
63108474,4199,0,0.14210925,0.3094795,-9.971551,-0.0065528043,0.0008611788,-0.084383056,32.875,78.0,0.0023928226,1114658,-480,177,-2894,8192
63211397,4210,0,-1.2815405,0.9180339,-8.966325,-0.0009202891,0.019852975,-0.02790665,32.875,78.0,0.0023928226,1114658,-1219,2942,-5864,11
63312232,4258,0,-0.818758,0.26009217,-9.882121,-0.0041019847,0.0026678613,-0.050404977,32.75,78.0,0.0023928226,1114658,1946,2158,-3480,8193
63413015,4220,0,0.7992769,-1.441431,-10.888996,0.013689797,-0.015244436,-0.061345983,32.875,78.0,0.0023928226,1114658,291,-3431,-924,2048
63511683,4208,0,-0.20882644,-1.842285,-11.724118,-0.0048195785,-0.008489026,-0.03047053,32.75,78.0,0.0023928226,1114658,374,-1470,-2186,8193
63614583,6308,0,-0.23780732,-0.6255569,-10.302302,-0.022526728,0.002758124,-0.048313815,32.875,78.0,0.0023928226,1114658,-2950,-1240,-1536,6697
63715394,4219,0,-0.11936754,0.6986383,-9.974951,0.00048729067,0.0024039424,-0.05582784,32.875,78.0,0.0023928226,1114658,-2076,1092,-625,8193
63818345,4271,0,0.29481226,0.035019685,-11.182413,0.00023831087,-0.014667329,-0.039762896,33.0,78.0,0.0023928226,1114658,1884,-1468,-256,11
63919075,4191,0,1.024643,-0.1981098,-10.416129,0.0019344543,-0.0051369094,-0.035981845,32.875,78.0,0.0023928226,1114658,4193,-2471,-2350,2049
64019875,4156,0,-0.68861836,-1.1944793,-9.563998,-0.00633939,-0.00033971784,-0.04210051,32.875,78.0,0.0023928226,1114658,-576,1291,-5525,8192
64122804,4208,0,-0.52354264,0.16349448,-9.246997,0.030997878,0.017539352,-0.057660542,32.875,78.0,0.0023928226,1114658,421,3917,-7323,2049
64224637,5262,0,-0.95177674,0.581749,-10.023352,-0.0028278588,0.01694928,-0.042024113,32.875,78.0,0.0023928226,1114658,-511,1161,-1619,11
64325425,4200,0,0.105845176,0.36741963,-10.219395,-0.013355765,-0.009049173,-0.028093973,32.875,78.0,0.0023928226,1114658,556,-2940,-2327,11
64425189,4196,0,-0.26205668,-0.052716084,-10.261393,-0.0053723063,-0.00847124,-0.02764113,32.875,78.0,0.0023928226,1114658,-64,2977,-4170,8193
64527024,5249,0,-0.28164384,-1.3517116,-10.008662,-0.028236067,0.014351317,-0.019635554,33.0,78.0,0.0023928226,1114658,-2299,122,-3089,11
64627861,4226,0,-0.56485635,-0.4458482,-10.407364,0.0049202843,0.0086676,-0.058056276,32.75,78.0,0.0023928226,1114658,783,-1500,-4930,0
64732912,5323,0,-1.4137964,1.1433121,-8.924834,0.022720674,0.021946514,-0.06148433,33.0,78.0,0.0023928226,1114658,737,5203,-6641,6743
64833751,4327,0,-0.15977687,1.0676409,-11.266945,-0.011408265,-0.006760818,-0.05777125,32.875,78.0,0.0023928226,1114658,2950,678,4213,4057
64936526,4202,0,0.5078358,-0.9611226,-10.482023,0.011508301,-0.001360685,-0.07046166,32.75,78.0,0.0023928226,1114658,1974,254,-2243,8193
65036275,4140,0,-0.69353,-0.929207,-11.501775,-0.015816886,0.0021834,-0.035770636,33.0,78.0,0.0023928226,1114658,-90,-376,4144,4059
65138159,5234,0,-1.8843577,0.6065399,-9.354746,-0.016335811,0.024441762,-0.075111285,33.0,78.0,0.0023928226,1114658,80,2500,-7880,0
65235775,4200,0,-0.084548496,0.5106273,-9.524802,-0.0074174795,-0.0021935669,-0.042944826,33.0,78.0,0.0023928226,1114658,1188,742,-2957,16900
65341825,4128,0,-1.4578708,0.39976233,-10.010837,-0.015759973,-0.005181454,-0.035976537,33.0,78.0,0.0023928226,1114658,293,5790,-1735,6773
65441574,4200,0,-0.23813888,-0.48243245,-9.798572,0.014821194,0.012678504,-0.039153457,33.0,78.0,0.0023928226,1114658,927,-818,-11791,11
65547625,4200,0,-1.2260652,-0.6213984,-9.382871,0.007389253,0.006313656,-0.04570268,33.125,78.0,0.0023928226,1114658,-1679,4968,-4482,4057
65646324,5246,0,-0.91499615,0.35595742,-10.179328,0.005103224,0.009993452,-0.083708666,32.875,78.0,0.0023928226,1114658,-797,3264,667,8192
65750280,4206,0,-0.38306955,0.62107927,-9.084874,-0.03022697,0.004633897,-0.04096585,33.0,78.0,0.0023928226,1114658,1956,-1955,-3726,2049
65852152,5278,0,0.14844029,-0.7279488,-8.418999,-0.0039544175,-0.009448532,-0.008566928,33.0,78.0,0.0023928226,1114658,-44,-2372,1914,4063
65951907,4225,0,0.81843495,-0.50263494,-9.40483,-0.0043258322,0.0062190923,-0.018581672,33.0,78.0,0.0023928226,1114658,2677,-5508,-6248,6785
66052723,4248,0,-0.45095423,-0.73460275,-10.540158,-0.02154616,0.0056762043,-0.020984948,33.0,78.0,0.0023928226,1114658,-1025,-1558,3654,8193
66155575,4188,0,-0.42087445,0.47822765,-8.773813,0.019893536,0.020490175,-0.028108425,33.0,78.0,0.0023928226,1114658,-1159,3641,-769,8192
66258521,4246,0,0.40479994,0.6107493,-10.295779,-0.015919777,-0.0040762676,-0.068118826,33.0,78.0,0.0023928226,1114658,1269,-1101,-788,4074
66360324,5249,0,-0.74932295,-0.7760543,-10.087643,-0.005974569,-0.0057739015,-0.05129241,33.0,78.0,0.0023928226,1114658,43,2693,-6465,11
66457988,6313,0,0.27081454,-1.2516022,-10.566565,0.010592697,-0.010888459,-0.067568935,33.125,78.0,0.0023928226,1114658,2404,-2641,-3618,0
66559824,5249,0,-0.8816317,-1.119986,-9.645844,0.0050486424,0.015448799,-0.0384143,32.875,78.0,0.0023928226,1114658,-1386,2729,-7127,4071
67583593,4176,0,0.8280549,0.9467345,-10.11174,0.0014432698,0.012870203,-0.06720381,33.0,78.0,0.0023928226,1114658,1397,-4001,636,11
67689697,4273,0,-0.9368124,0.28175026,-10.008442,-0.034798186,-0.01175048,-0.029849537,33.0,78.0,0.0023928226,1114658,2758,89,-4587,4097
67791488,4114,0,-0.28333285,-1.6767281,-9.816869,-0.02841855,-0.0077803615,-0.019175624,33.0,78.0,0.0023928226,1114658,1281,-677,-6037,2048
67893328,4169,0,-0.4391606,-0.88791895,-9.745189,-0.033972684,0.016825745,-0.020471107,33.0,78.0,0.0023928226,1114658,2008,-2872,-7673,11
67994161,5214,0,0.3925611,-0.30217817,-9.194462,-0.021586586,0.015943713,-0.014199042,33.0,78.0,0.0023928226,1114658,-1438,-3915,-4978,8192
68097025,5250,0,-1.1641614,1.2827652,-7.553492,-0.053147458,-0.00075383385,-0.03204863,33.125,78.0,0.0023928226,1114658,1433,-2659,-7216,4101
68197855,4134,0,-0.935324,1.0551108,-8.781289,-0.04390041,-0.009322659,-0.03303366,33.125,78.0,0.0023928226,1114658,2271,74,-6139,0
68300724,4200,0,-2.2903345,-0.60154337,-11.513635,0.0069725397,-0.0075700823,-0.06531242,33.0,78.0,0.0023928226,1114658,3102,5524,-2357,11
68401524,4199,0,-0.4610212,-1.3465549,-10.089845,0.026976768,0.0074536595,-0.0653879,33.0,78.0,0.0023928226,1114658,1396,3463,-5598,11
68506527,4199,0,-0.065483585,0.4816251,-9.120227,-0.01022716,0.012946603,-0.023796115,33.0,78.0,0.0023928226,1114658,483,-831,-2641,4106
68605273,4248,0,0.97554654,1.0130144,-10.36056,-0.012966496,-0.0026958906,-0.06564599,33.0,78.0,0.0023928226,1114658,-343,-4138,-696,8192
68708131,5256,0,-0.45320797,0.80718035,-8.726804,-0.023744684,0.001988457,-0.06722568,33.0,78.0,0.0023928226,1114658,2178,-331,-13347,2049
68808950,4181,0,-0.7754356,-0.9183263,-10.556032,0.006957123,-0.010985186,-0.047403708,33.0,78.0,0.0023928226,1114658,606,4878,1840,6894
68909743,4181,0,-0.49532896,-1.0716207,-10.348088,-0.0122339465,0.0052058725,-0.037208114,33.0,78.0,0.0023928226,1114658,923,797,-4290,4114
69010530,4177,0,-0.049657546,-0.20037954,-9.699769,0.018192383,0.002256873,-0.039695542,33.125,78.0,0.0023928226,1114658,1075,-443,-4731,4116
69113425,4200,0,-0.25427973,1.0786664,-9.356239,0.0027961512,0.009542509,-0.056883633,33.125,78.0,0.0023928226,1114658,-1748,3033,-3054,8193
69214224,4199,0,-0.79585606,0.6965904,-10.582162,-0.018937001,-0.001515686,-0.040026497,33.125,78.0,0.0023928226,1114658,-1228,2760,4000,8192
69317159,4231,0,0.56434613,-0.6602282,-10.765796,0.0041302876,-0.0075626033,-0.041108463,33.0,78.0,0.0023928226,1114658,2167,-4582,-6144,4133
69417925,4170,0,0.0365414,-0.9950816,-10.873327,0.014639022,0.0056148376,-0.05072379,33.125,78.0,0.0023928226,1114658,3189,-787,-4251,0
69524012,5287,0,-0.62872565,-0.30591625,-10.451083,0.0084863,-0.008586025,-0.065083094,33.125,78.0,0.0023928226,1114658,784,-1154,-5763,11
69625865,4144,0,0.555338,0.6012645,-9.57602,-0.005604865,-0.012372411,-0.046480052,33.0,78.0,0.0023928226,1114658,485,-3475,-5510,8192
69726625,4128,0,-0.78299856,0.37688857,-8.707965,-0.004237732,0.0033225107,-0.019270893,33.0,78.0,0.0023928226,1114658,-28,2005,-9758,6918
69827427,4103,0,0.6738483,-0.3691572,-9.707465,-0.020670189,-0.009855259,-0.048099548,33.25,78.0,0.0023928226,1114658,2603,-3023,-3025,4122
69929275,5134,0,-1.0381122,-1.1271504,-11.162725,0.012125821,-0.0075665135,-0.06611214,33.125,78.0,0.0023928226,1114658,3979,3805,-402,4126
70033225,4200,0,-0.81126535,-0.15792866,-9.278678,0.019202761,0.017693724,-0.048548315,33.125,78.0,0.0023928226,1114658,1006,1786,-8359,4131
70131924,4151,0,-0.43393263,0.34558234,-10.213662,-0.028935913,-0.0054959124,-0.034494318,33.125,78.0,0.0023928226,1114658,-2522,-146,-936,6941
70232724,4200,0,-0.98385197,0.41630477,-9.849643,0.008144708,-0.0036488161,-0.056333013,33.125,78.0,0.0023928226,1114658,-301,3374,-648,4127
70334575,5250,0,-0.2563155,-0.07998934,-10.059931,-0.010609667,-0.004719956,-0.06880871,33.375,78.0,0.0023928226,1114658,3314,1666,-3986,4140
70438540,4216,0,0.030387247,-1.6613809,-10.084606,-0.021749223,0.0254843,-0.004062312,33.25,78.0,0.0023928226,1114658,-1436,-2207,-495,11
70539408,4250,0,-0.54809976,-0.55819106,-10.037119,0.0022587776,0.0017594015,-0.053768672,33.125,78.0,0.0023928226,1114658,626,28,-2856,11
70636979,5254,0,-0.44921544,0.4481027,-10.540323,0.0233049,0.006764737,-0.03809183,33.25,78.0,0.0023928226,1114658,288,563,4708,8192
70741975,4199,0,-0.0040894086,1.4099691,-10.198164,0.0261541,-0.01792297,-0.071891375,33.25,78.0,0.0023928226,1114658,2721,3402,-476,11
70840675,4200,0,0.1154734,-0.14048511,-11.5192175,-0.0057538473,-0.013009451,-0.038245995,33.125,78.0,0.0023928226,1114658,24,724,1335,8193
70945715,5292,0,0.6751287,-1.7028704,-9.57324,0.00064211775,-0.0054332344,-0.037867177,33.125,78.0,0.0023928226,1114658,2662,-3837,-5257,4138
71048581,4207,0,-1.5587214,-0.55057997,-9.932662,0.013465637,0.004184372,-0.033979848,33.25,78.0,0.0023928226,1114658,-1182,5208,676,11
71151475,6287,0,-0.5944536,0.68598366,-9.863152,-0.0034851807,0.0017699074,-0.065070935,33.25,78.0,0.0023928226,1114658,2362,917,-2039,11
71248136,5311,0,-1.7615421,1.229029,-10.055978,-0.031875573,-0.0013350224,-0.06295442,33.25,78.0,0.0023928226,1114658,871,2826,-661,4143
71353074,4175,0,-0.24304241,-0.46521673,-10.303676,0.00079860236,-0.0036101677,-0.062540986,33.125,78.0,0.0023928226,1114658,186,1870,1761,4152
71455978,4197,0,-0.23743042,-1.8976171,-10.421616,-0.028969118,-0.0116017535,-0.052804995,33.25,78.0,0.0023928226,1114658,-2507,-1167,520,16901
71556792,4217,0,-1.3638912,-0.8900458,-9.447551,0.008125643,0.014528786,-0.058738384,33.125,78.0,0.0023928226,1114658,383,2065,-7125,11
71659675,6301,0,-0.6044676,0.49547622,-10.066725,0.019592205,0.0008059314,-0.05016044,33.25,78.0,0.0023928226,1114658,-2299,-526,-4503,8193
71758383,4208,0,-0.10010626,1.3006089,-9.013536,-0.0002968043,0.01088716,-0.033181835,33.125,78.0,0.0023928226,1114658,2274,-178,-6741,11
71859227,6268,0,-0.18122345,1.3340479,-10.636629,0.026386283,-0.015739461,-0.07576082,33.25,78.0,0.0023928226,1114658,2566,-1110,-5766,11
71962083,4175,0,-0.16650197,-0.6173287,-10.043817,-0.009155347,0.00080445514,-0.056462526,33.25,78.0,0.0023928226,1114658,1120,1726,-7387,4166
72061825,4103,0,0.38858292,-1.6839881,-10.878983,-0.017940443,-0.0018259666,-0.022149466,33.25,78.0,0.0023928226,1114658,-2338,-2923,909,4173
72164725,4200,0,-1.1386343,0.080305494,-10.87975,0.01462472,0.0032523081,-0.07067943,33.125,78.0,0.0023928226,1114658,3960,2667,536,11
72264477,4202,0,-0.1855873,0.33765474,-9.374056,-0.022475336,-0.0038427343,-0.014537213,33.25,78.0,0.0023928226,1114658,2166,-2741,-5850,4174
72370562,4238,0,0.67960674,-0.15441899,-9.936173,-0.02278821,-0.006628999,-0.033177894,33.25,78.0,0.0023928226,1114658,-2408,-2708,-410,4171
72469225,5251,0,0.7848816,0.45411038,-9.457598,0.0126685845,0.0011619938,-0.06278316,33.375,78.0,0.0023928226,1114658,881,904,-8722,4166
72573192,4185,0,-1.061912,-1.3657529,-10.5443535,-0.012424378,-0.007897758,-0.064557336,33.25,78.0,0.0023928226,1114658,156,3238,-805,8193
72675053,5259,0,-0.99832785,-0.7933673,-9.608408,0.030555481,-0.0028345454,-0.059680477,33.25,78.0,0.0023928226,1114658,1049,-351,-10067,8193
72774775,4195,0,-0.14689487,0.5070458,-10.555007,-0.025345862,0.0034325437,-0.042581752,33.375,78.0,0.0023928226,1114658,-230,-930,2781,4177
72875575,4200,0,0.33512482,0.70576733,-8.837189,0.0028910195,0.011524814,-0.037619077,33.25,78.0,0.0023928226,1114658,1129,-1078,-8562,16901
72977446,5250,0,0.05736301,0.08079717,-10.552293,-0.015583879,-0.003963108,-0.03649775,33.25,78.0,0.0023928226,1114658,1551,-251,113,7060
73077189,4214,0,0.3590131,-0.7389235,-10.757452,0.014429041,-0.0016774033,-0.07983665,33.25,78.0,0.0023928226,1114658,3085,-1216,-6411,8193
73177974,4199,0,-1.761162,-1.1256388,-10.456286,0.0072008176,-0.01051497,-0.05130158,33.375,78.0,0.0023928226,1114658,970,6270,583,0
73284129,4304,0,-0.45876253,0.21468335,-9.816898,-0.0046007973,-0.0040328912,-0.054340605,33.375,78.0,0.0023928226,1114658,-1032,637,-1096,4185
73383775,4200,0,-0.06086649,0.25581038,-10.072987,-0.014495279,0.003539394,-0.0227096,33.25,78.0,0.0023928226,1114658,-3104,685,-1799,2048
73485755,5380,0,0.103186265,0.47563198,-11.57119,-0.0038440009,-0.025275458,-0.07805925,33.25,78.0,0.0023928226,1114658,3617,838,1241,4195
73585374,4184,0,0.088622555,-1.2165806,-9.414349,0.01989904,0.0016487482,-0.0020309736,33.375,78.0,0.0023928226,1114658,685,-400,-10525,8192
73686189,4215,0,-0.2490953,-1.2656118,-11.154022,-0.015617747,0.009740662,-0.037354264,33.375,78.0,0.0023928226,1114658,-466,-801,-2641,8193
73788129,5355,0,0.040029533,-0.11942863,-9.297967,0.0068114316,-0.0029734282,-0.052248072,33.375,78.0,0.0023928226,1114658,2235,-3317,-7453,4189
73890924,5205,0,0.34487024,0.51670015,-9.050729,0.013965592,0.002291,-0.06375701,33.25,78.0,0.0023928226,1114658,3336,443,-6905,8192
73990675,4154,0,-0.16381204,0.056946322,-9.942868,-0.027092557,-0.0035577023,-0.04675655,33.375,78.0,0.0023928226,1114658,-1168,1633,2554,11
74091481,4182,0,-1.3857507,-0.569552,-9.729624,0.010555152,-0.01157141,-0.06431358,33.375,78.0,0.0023928226,1114658,137,6361,3262,2048
74197525,4200,0,-0.41493002,-0.5569283,-10.050874,0.018391013,0.010382218,-0.055864714,33.25,78.0,0.0023928226,1114658,137,555,-1852,8193
74302534,5259,0,-1.1071206,1.057088,-9.253452,0.0145839825,0.010347621,-0.060356803,33.25,78.0,0.0023928226,1114658,2056,3153,-7871,4206
74403350,4205,0,0.78881097,0.108391896,-10.45563,0.001299106,-0.020861344,-0.04426864,33.375,78.0,0.0023928226,1114658,-806,-1642,417,4197
74504173,4249,0,0.13355112,-1.2782263,-9.976594,-0.01149291,-0.011838008,-0.030030262,33.375,78.0,0.0023928226,1114658,3325,-568,-5169,7093
74604954,5279,0,0.34407303,-1.2577784,-10.712195,-0.009528281,0.00060923107,-0.06385607,33.5,78.0,0.0023928226,1114658,-1193,-2216,-954,4213
74707867,5288,0,-1.3583544,-0.56704956,-9.798762,0.00741202,0.01005493,-0.070374355,33.375,78.0,0.0023928226,1114658,688,2981,-4730,11
74810767,4220,0,-1.0198711,0.7223158,-9.375944,0.008023218,-0.009304237,-0.009571182,33.5,78.0,0.0023928226,1114658,492,2710,-4329,2048
74911575,4228,0,0.56726676,0.5917435,-11.188833,0.0025520925,-0.016238749,-0.053617544,33.5,78.0,0.0023928226,1114658,1443,-1961,1206,4209
75012336,4207,0,0.13080315,-0.73416305,-10.432543,-0.011752188,-0.0035412968,-0.053154137,33.375,78.0,0.0023928226,1114658,1627,-836,-6478,8192
75113158,4199,0,-0.10248712,-1.9218401,-10.259609,0.0035066789,0.0024221514,-0.041462995,33.5,78.0,0.0023928226,1114658,-216,151,-1203,4213
75216121,4288,0,-1.2736995,-1.2768903,-9.353431,0.0031531046,0.024107404,-0.03823256,33.375,78.0,0.0023928226,1114658,-1952,4051,-3632,4226
75314736,4156,0,-1.2825217,-0.6773785,-10.111029,0.011905354,0.014197668,-0.0330398,33.375,78.0,0.0023928226,1114658,-250,3728,-4338,4230
75419725,4200,0,-0.52912474,0.6620513,-9.413678,0.00024999597,-0.0035355936,-0.014048999,33.375,78.0,0.0023928226,1114658,-2721,2843,-2298,4220
75520525,4200,0,-0.12482342,0.08379566,-10.186169,0.017683337,-0.010114486,-0.05747721,33.5,78.0,0.0023928226,1114658,1845,3174,-351,8193
75621325,4151,0,0.5543329,-0.98345494,-10.680134,0.01124973,-0.0045840545,-0.04855526,33.375,78.0,0.0023928226,1114658,2226,-1607,-2051,8192
75722162,4237,0,-0.43726668,-1.6987844,-10.125191,-0.018406391,0.0029925997,-0.022865113,33.375,78.0,0.0023928226,1114658,-1194,-1256,-3151,8192
75822924,4199,0,-1.1256759,-0.8350012,-10.507303,-0.023076857,-0.0012071258,-0.052207142,33.375,78.0,0.0023928226,1114658,-1064,1627,2036,8192
75923724,4199,0,-0.004951767,0.51703805,-8.372152,-0.0014821113,0.018853145,-0.03601431,33.5,78.0,0.0023928226,1114658,206,794,-5844,11
76024525,4184,0,-0.86823946,0.8899457,-9.33562,-0.004969902,0.0024764955,-0.03441165,33.5,78.0,0.0023928226,1114658,679,2548,-6557,8192
76127425,4128,0,0.42021337,-0.36860082,-10.97868,0.013312879,-0.005650391,-0.07895473,33.375,78.0,0.0023928226,1114658,1264,1743,677,8193
76228225,4084,0,0.15262061,-1.7336574,-10.396405,-0.028792648,-0.015802229,-0.026618373,33.5,78.0,0.0023928226,1114658,-1044,-2594,-1149,8192
76329026,4084,0,-0.65114576,-0.8592503,-9.040725,0.007159263,0.027178563,-0.03740346,33.5,78.0,0.0023928226,1114658,-2471,1618,-8797,4235
76431924,4147,0,-0.2320008,0.50635064,-10.024172,-0.0115228845,0.0051578376,-0.023347765,33.5,78.0,0.0023928226,1114658,515,-490,-2207,11
76534842,6318,0,-0.6826627,1.5926183,-10.052575,-0.008764586,0.007528656,-0.083837554,33.5,78.0,0.0023928226,1114658,1486,3668,-3454,4237
76636675,5250,0,1.1712091,-0.26536348,-10.316995,0.011012718,-0.015035999,-0.061150227,33.5,78.0,0.0023928226,1114658,841,-3076,-5007,8193
76738556,4231,0,-0.5351433,-1.1923039,-9.920192,-0.014988236,0.00010031549,-0.033037815,33.5,78.0,0.0023928226,1114658,435,295,-5381,4238
76839366,4208,0,0.06765712,-0.84153926,-9.54072,-0.0008832858,-0.0027934997,-0.044619545,33.5,78.0,0.0023928226,1114658,-693,-1608,-5373,4250
76940162,4197,0,-0.33900294,0.004699791,-8.945602,-0.027357338,0.01163754,-0.038390458,33.625,78.0,0.0023928226,1114658,-1067,19,-6123,4257
77040954,4230,0,0.32639545,0.80555624,-10.006102,-0.0010672159,-0.008684895,-0.0424809,33.5,78.0,0.0023928226,1114658,1094,-2612,-1981,11
77139625,4200,0,0.44281605,-0.1234003,-10.43433,-0.04398469,-0.007601852,-0.004326502,33.375,78.0,0.0023928226,1114658,-943,-3094,943,11
77242567,6342,0,0.17927496,-0.7160567,-9.6419,0.003394313,-0.0010230652,-0.08524219,33.5,78.0,0.0023928226,1114658,2299,-2155,-8119,4255
77347538,4184,0,-0.17057243,0.029125595,-9.105819,-0.010481391,0.009585419,-0.06313105,33.5,78.0,0.0023928226,1114658,424,267,-3954,11
77448354,4221,0,-0.8548978,0.87611604,-10.155024,-0.013830569,0.009204355,-0.027522003,33.5,78.0,0.0023928226,1114658,-1071,1748,1818,10
77544956,5272,0,-0.4844048,0.7736183,-9.5941,-0.04216518,0.009596587,-0.043148935,33.625,78.0,0.0023928226,1114658,-2244,-72,65,4256
77649925,4167,0,-0.27002427,-0.5100284,-10.494627,-0.0014531766,-0.014654381,-0.03845527,33.625,78.0,0.0023928226,1114658,-259,2893,-2433,4253
77752944,4290,0,-0.55806804,-1.2666084,-9.821554,-0.039091114,0.0029692408,-0.037086565,33.5,78.0,0.0023928226,1114658,47,-2350,-6072,4270
77853721,4296,0,-1.3619717,-0.29779127,-9.824874,0.005027941,0.0077074063,-0.04350903,33.375,78.0,0.0023928226,1114658,-966,3236,-4622,4258
77954498,4273,0,-0.59854275,0.70315415,-9.654056,-0.007851591,0.006524427,-0.03336115,33.5,78.0,0.0023928226,1114658,1313,-19,-5311,7235
78053165,6318,0,-0.18126777,0.67751014,-8.979014,-0.014347042,0.0144588435,-0.053818543,33.625,78.0,0.0023928226,1114658,23,367,-6641,4267
78159187,4213,0,0.26031998,-0.35145918,-9.318586,-0.009906559,0.0028016106,-0.02568953,33.5,78.0,0.0023928226,1114658,1747,-1221,-6536,8193
78261025,4096,0,0.212222,-1.7811173,-10.981146,-0.007972898,-0.014107734,-0.05046767,33.5,78.0,0.0023928226,1114658,-83,-1983,446,4284
78360774,5250,0,-1.1537527,-1.257876,-8.664166,-0.03120302,-0.0033398445,-0.022472585,33.5,78.0,0.0023928226,1114658,521,-2915,-6018,8193
78463711,5190,0,0.26628202,0.18751416,-10.052066,0.005650014,0.00080691423,-0.054448076,33.5,78.0,0.0023928226,1114658,-278,-2010,-3005,8193
78563425,4105,0,-1.4398986,1.3156978,-9.094672,-0.014331728,0.01574109,-0.03203065,33.625,78.0,0.0023928226,1114658,1880,890,-8115,4272
78663176,5251,0,-0.57126623,1.9623914,-9.393603,0.013916085,-0.0050407317,-0.064825535,33.5,78.0,0.0023928226,1114658,4187,1835,-4767,2049
78768195,4171,0,-0.334232,-0.88127476,-10.0100975,-0.030368708,-0.019432297,-0.0414405,33.625,78.0,0.0023928226,1114658,712,1040,-4912,8193
78870025,4200,0,-0.2078019,-1.0278759,-10.418392,-0.029403916,0.0020318727,-0.04886695,33.625,78.0,0.0023928226,1114658,-1086,-1298,-4020,4284
78973975,4177,0,0.09730995,-0.14416584,-9.885836,0.028025836,0.008363313,-0.05650128,33.5,78.0,0.0023928226,1114658,-335,-1165,-3824,4281
79072714,4239,0,-0.32641137,0.87780005,-10.221896,-0.004066216,-0.0065047992,-0.039503857,33.5,78.0,0.0023928226,1114658,1493,-2295,-3368,2049
79177677,4203,0,0.05739768,0.46954206,-10.097696,0.019997735,-0.0054648607,-0.08497598,33.5,78.0,0.0023928226,1114658,2159,1069,-7130,8193
79278541,4267,0,-0.047866475,-0.936962,-10.238208,-0.017833302,-0.0045617726,-0.03977862,33.625,78.0,0.0023928226,1114658,38,867,19,4286
79383475,4154,0,-0.1166427,-1.3505349,-10.128845,-0.002676562,-0.01031216,-0.034497794,33.75,78.0,0.0023928226,1114658,-2846,-841,-824,2048
79485325,5187,0,-0.48100984,0.086266086,-9.686043,-0.024930524,0.004941693,-0.038727507,33.5,78.0,0.0023928226,1114658,829,674,-859,4287
79585081,4152,0,-0.17636292,0.4450315,-8.904906,0.013719316,-0.0025556048,-0.030213278,33.625,78.0,0.0023928226,1114658,199,550,-8867,4291
79685875,4151,0,0.48408222,0.2385205,-10.57534,-0.0029508076,-0.010451169,-0.075286105,33.625,78.0,0.0023928226,1114658,-312,-496,581,8192
79787774,5269,0,-0.7322338,-1.3072848,-9.91723,-0.014675657,0.0011969446,-0.028851777,33.625,78.0,0.0023928226,1114658,1495,1269,-4731,0
79891675,6301,0,-0.6200647,-1.051675,-11.409545,0.007862092,-0.0026261038,-0.06447573,33.625,78.0,0.0023928226,1114658,-1251,948,1720,8193
79988275,4134,0,-0.034966428,-0.23399788,-9.3047905,0.0002991861,0.005969002,-0.0599586,33.75,78.0,0.0023928226,1114658,277,-2561,-12127,4292
80091189,4215,0,0.6455234,0.7911251,-9.518207,-0.040821474,0.0068561607,-0.011050853,33.5,78.0,0.0023928226,1114658,-790,-4689,-2325,8193
80194074,4199,0,0.26492962,0.47630873,-9.277577,0.006182824,-0.013050959,-0.061303884,33.625,78.0,0.0023928226,1114658,2702,-1679,-12745,10
80294874,4199,0,0.42534631,-0.51245487,-9.981774,0.008274354,0.000663522,-0.059380237,33.625,78.0,0.0023928226,1114658,4075,366,-4020,10
80395675,4201,0,0.21167801,-1.7925451,-9.5886755,0.028823555,-0.0018472364,-0.041589815,33.625,78.0,0.0023928226,1114658,-266,-1549,-8015,8193
80498574,4199,0,-0.26841316,-0.09381625,-10.39338,0.0037174367,-0.0040188055,-0.038622238,33.75,78.0,0.0023928226,1114658,-3860,128,-770,10
81109739,4229,0,-0.63730854,1.2374136,-9.3524065,0.011979752,0.006881943,-0.050636377,33.75,78.0,0.0023928226,1114658,-356,1569,-3603,4312
81215740,5191,0,0.4578036,-0.46979317,-11.220842,0.034780666,-0.0067333686,-0.08304116,33.75,78.0,0.0023928226,1114658,3030,2418,-3887,10
81313374,6299,0,-0.5787439,-0.41583315,-9.507994,-0.017648706,-0.014135417,-0.057934694,33.625,78.0,0.0023928226,1114658,-1118,4240,-5859,8192
81417369,4208,0,-0.71772915,-0.842154,-10.231329,-0.0012815715,0.0068687587,-0.06545705,33.75,78.0,0.0023928226,1114658,1271,1148,808,10
81516176,4351,0,-1.1241899,0.1801987,-8.933297,0.037147548,0.016578719,-0.038255088,33.75,78.0,0.0023928226,1114658,166,3966,-7465,4320
81618952,4228,0,0.5357043,1.5126361,-9.954358,0.017987235,0.006169598,-0.06742565,33.75,78.0,0.0023928226,1114658,916,-341,-4948,10
81719732,4194,0,-0.64314014,0.72911406,-10.293468,-0.0008199787,-0.008432759,-0.085008636,33.625,78.0,0.0023928226,1114658,1639,5005,-1582,8193
81822633,4098,0,-0.59187806,-1.2318232,-10.36438,0.030580416,0.001379601,-0.073712364,33.75,78.0,0.0023928226,1114658,1452,4486,-2597,10
81923425,5237,0,-1.6698408,-1.303217,-10.117267,0.0003751857,-0.003529774,-0.051252972,33.75,78.0,0.0023928226,1114658,289,6864,-3218,4318
82024225,4076,0,-1.5418626,-0.72547203,-10.185653,-0.0023505283,-0.00526374,-0.044147585,33.75,78.0,0.0023928226,1114658,-650,6296,193,8193
82129225,4200,0,-0.6599849,0.94937146,-9.659794,0.047787,-0.0032168562,-0.026753781,33.75,78.0,0.0023928226,1114658,1562,3568,-6695,4331
82225825,5250,0,-0.16249947,0.80518794,-8.64767,-0.038044766,0.0073831654,-0.04176911,33.75,78.0,0.0023928226,1114658,-461,-1280,-9438,4329
82330825,4200,0,-0.2205477,-0.533339,-9.485547,0.0021279824,-0.015287625,-0.063153066,33.75,78.0,0.0023928226,1114658,-1176,2530,-9412,4332
82431625,4200,0,-0.55380803,-1.3104851,-9.524278,0.014362744,0.0059731733,-0.0011355614,33.625,78.0,0.0023928226,1114658,-2066,2330,-3882,7386
82532425,4200,0,-1.2171569,-1.0856938,-9.203098,-0.027608123,0.0031641035,-0.022243569,33.875,78.0,0.0023928226,1114658,-3044,391,-5787,7389
82635372,4214,0,-1.3835431,0.17927656,-8.9196,-0.031533226,-0.0039217104,-0.015513053,33.75,78.0,0.0023928226,1114658,-2419,1631,-8221,4341
82736159,4235,0,-0.6397506,0.27119276,-10.300688,0.0054367837,-0.013156449,-0.01367602,33.75,78.0,0.0023928226,1114658,-2106,-764,1716,7406
82839025,4200,0,1.0566257,-0.56222063,-10.949569,-0.036065534,-0.007992856,-0.04438496,33.625,78.0,0.0023928226,1114658,4825,-4602,1092,10
82937811,4284,0,0.60581994,-1.0085602,-11.076862,0.021716706,0.0035146996,-0.062173463,33.75,78.0,0.0023928226,1114658,1303,-3284,-2365,0
83039575,4164,0,-1.261219,-0.5453983,-10.208508,0.02647667,0.007304018,-0.06814038,33.875,78.0,0.0023928226,1114658,1340,2827,-5716,2048
83140375,4171,0,-0.7316201,0.49700817,-9.40111,0.02390068,0.00089951884,-0.017147075,33.875,78.0,0.0023928226,1114658,19,-895,-10792,4343
83242224,5230,0,0.060503982,1.4172616,-10.107121,0.04411162,0.0017985858,-0.057226535,33.75,78.0,0.0023928226,1114658,2176,491,-5065,4357
83345158,5283,0,0.4489969,0.3799317,-10.6744375,-0.0007382864,-0.01342495,-0.054527678,33.75,78.0,0.0023928226,1114658,2298,2081,1537,8192
83448121,5346,0,0.19696844,-1.3034972,-9.597516,-0.035916667,0.0014965078,-0.047251005,33.75,78.0,0.0023928226,1114658,1338,-4658,-4808,4353
83548958,4328,0,-1.6490192,-0.46222153,-9.237895,-0.038495388,0.0025739342,-0.038310405,33.75,78.0,0.0023928226,1114658,223,-1422,-2224,4355
83650675,4134,0,-1.7520634,1.011923,-10.202379,0.012457706,0.004060424,-0.01191067,33.75,78.0,0.0023928226,1114658,794,1600,-2459,8193
83752564,4239,0,0.051434435,0.5521122,-10.206212,0.022701664,0.015131132,-0.056570064,33.625,78.0,0.0023928226,1114658,2629,-571,-3756,10
83851323,4299,0,-1.2766664,0.5307027,-10.470534,-0.0065782936,-0.008049007,-0.02056232,33.75,78.0,0.0023928226,1114658,1957,2012,-5157,4346
83950974,6292,0,0.90508074,0.6985298,-9.432927,0.00022201274,-0.010659227,-0.09235632,33.875,78.0,0.0023928226,1114658,729,1056,-314,8192
84057025,4087,0,-0.2536865,-1.6674067,-10.301991,0.0097834,0.0034157953,-0.036294032,33.875,78.0,0.0023928226,1114658,713,-1883,-5113,4371
84155724,5250,0,-0.4951976,-0.5588703,-10.30159,0.0023812621,-0.000640083,-0.06757148,33.875,78.0,0.0023928226,1114658,-371,-2291,-9966,16903
84256525,4193,0,-2.1266248,0.26603827,-9.520721,0.012044221,0.00384027,-0.019234326,33.75,78.0,0.0023928226,1114658,-803,5717,-3562,2048
84361525,4200,0,0.1028263,0.76012117,-10.361069,0.005307542,-0.0022720818,-0.017317938,33.75,78.0,0.0023928226,1114658,1259,-258,-891,8193
84462324,4165,0,-0.37966013,-0.6553123,-9.940233,0.01795596,0.0028793907,-0.049082913,33.75,78.0,0.0023928226,1114658,1388,4524,-6972,4365
84561025,4081,0,-0.021339027,-0.82006747,-10.1184845,0.0021894253,0.0016852893,-0.07391306,33.875,78.0,0.0023928226,1114658,661,-309,-9931,4360
84663924,4199,0,-1.0621992,-1.0079885,-9.774903,-0.0298182,0.010843574,-0.01197243,34.0,78.0,0.0023928226,1114658,-3202,-2067,-2407,8192
84766827,4202,0,-0.1801922,0.48912042,-9.230247,0.00044098776,0.0033006782,-0.044793546,33.75,78.0,0.0023928226,1114658,-1850,1934,-1380,4364
84863425,4091,0,-0.93279713,1.4113891,-8.6635475,0.02671326,0.015383655,-0.06420847,33.875,78.0,0.0023928226,1114658,1473,3927,-7329,4371
84970572,4247,0,-0.12165628,-0.8628101,-9.789028,-0.010385388,-0.013947085,-0.055225544,33.875,78.0,0.0023928226,1114658,1573,-281,-8213,4377
85071330,4172,0,-1.7328357,-1.7001714,-9.87741,-0.030108297,-0.012288967,-0.046318024,33.875,78.0,0.0023928226,1114658,-807,4653,-1160,4374
85172124,6299,0,-0.7892964,-0.6561205,-9.296361,-8.245972e-05,0.005572126,-0.08208161,33.875,78.0,0.0023928226,1114658,2191,183,-4820,4371
85273975,5251,0,-0.0635042,0.4396437,-9.5249405,-0.006621214,0.0137569215,-0.04927543,33.75,78.0,0.0023928226,1114658,-738,-1125,-1274,8193
85371625,6300,0,-0.012193224,1.1806313,-10.656231,0.0002811816,0.004736045,-0.09257547,33.75,78.0,0.0023928226,1114658,2332,-422,2687,10
85477700,4225,0,0.2698252,-0.3047941,-10.494463,0.014969896,-0.013607027,-0.045140166,33.75,78.0,0.0023928226,1114658,1835,687,-786,7479
85576375,5217,0,0.90921557,-0.40269563,-11.38828,0.031436943,-0.01259215,-0.06142866,33.875,78.0,0.0023928226,1114658,2441,1412,-4120,8192
85677188,4168,0,-0.75450975,-1.3376883,-11.244156,-0.006322439,-0.008083867,-0.027774347,33.875,78.0,0.0023928226,1114658,-1162,3074,4566,8193
85780097,4222,0,-1.6378046,0.5691589,-10.357326,0.00220361,0.016800212,-0.05859312,33.875,78.0,0.0023928226,1114658,889,5363,48,4399
85881924,4112,0,-0.8937961,0.30909407,-9.779819,-0.0006358957,0.002265304,-0.02627132,33.875,78.0,0.0023928226,1114658,1770,-850,-7101,4403
85983775,4199,0,-0.87682647,0.11030585,-10.161027,0.0022902463,-0.0047316407,-0.016099682,33.875,78.0,0.0023928226,1114658,-675,5433,-2568,2048
86084575,5206,0,0.12372108,-0.525344,-10.560438,0.023445461,-0.014103113,-0.09288241,33.875,78.0,0.0023928226,1114658,3067,-24,-6479,10
86189575,4201,0,-0.6102549,-0.37773174,-9.80354,-0.0056975903,0.004401458,-0.08118095,33.75,78.0,0.0023928226,1114658,17,2101,-5233,10
86290380,4191,0,0.21362069,0.2777155,-9.414729,-0.0027160912,0.004353485,-0.024003139,34.0,78.0,0.0023928226,1114658,446,-2072,-2015,2049
86391188,4214,0,-0.6799582,1.2459601,-9.785127,-0.017834824,0.007693187,-0.03654251,34.0,78.0,0.0023928226,1114658,-403,708,-1826,8193
86491974,4194,0,-0.3117183,0.5769297,-9.303936,0.019074673,0.0077483626,-0.058544673,33.875,78.0,0.0023928226,1114658,1377,1199,-11177,10
86597014,4240,0,-1.3697475,-1.8718332,-9.960599,0.019523464,0.004287781,-0.047922567,33.875,78.0,0.0023928226,1114658,-358,3826,-7736,4400
86697793,4218,0,-0.363944,-1.4802824,-10.860172,-0.0074825585,-0.022230677,-0.035642575,34.0,78.0,0.0023928226,1114658,-1330,-1321,-1532,0
86798595,4201,0,-1.3316635,-0.1718605,-9.091089,0.025492663,0.012772317,-0.010968115,34.0,78.0,0.0023928226,1114658,-1601,4744,-2731,4411
86899410,4225,0,-0.5698569,1.0797362,-10.961835,0.012964813,-0.0018496297,-0.048155136,33.875,78.0,0.0023928226,1114658,2287,405,-4783,4416
87003335,5260,0,-0.20290451,-0.1722877,-9.501145,0.0050654965,0.0040912735,-0.070048295,34.0,78.0,0.0023928226,1114658,-1389,1969,-4951,4411
87103075,4201,0,0.6460719,-0.83567697,-10.922875,0.04912003,-0.023800932,-0.049636815,33.875,78.0,0.0023928226,1114658,931,-1006,-3022,4409
87208150,4276,0,-0.117108084,-0.0037721575,-10.072039,0.010668733,0.008631634,-0.06858949,33.75,78.0,0.0023928226,1114658,-391,290,-2641,4410
87306779,4181,0,-0.10284081,-0.21911754,-10.283492,0.010891582,0.008535267,-0.045122482,33.875,78.0,0.0023928226,1114658,2054,-2325,-4355,10
87408624,5220,0,-0.70032257,0.61516196,-8.866188,0.008878568,0.016173432,-0.041165717,33.875,78.0,0.0023928226,1114658,-2960,3929,-5017,8192
87511525,5216,0,-0.9506042,-0.21788312,-9.513941,-0.0095967725,-0.013633053,-0.036568146,34.0,78.0,0.0023928226,1114658,60,2680,3251,10
87612373,4245,0,-0.7037158,-1.1902766,-11.926122,0.0045714816,-0.01572544,-0.08746372,34.0,78.0,0.0023928226,1114658,2841,4507,746,8192
87715321,4296,0,-0.98411345,-1.5510694,-10.738466,-0.014366722,0.0035905568,-0.054923173,34.0,78.0,0.0023928226,1114658,-1585,2372,-97,4425
87816121,4296,0,-0.3942719,-0.36907282,-10.021819,0.027087415,0.0040630884,-0.032305464,34.0,78.0,0.0023928226,1114658,914,-2848,-7093,4422
87916904,5324,0,-0.2832556,0.7721456,-9.765621,0.003357864,0.005891407,-0.011783254,34.125,78.0,0.0023928226,1114658,1262,525,1049,4431
88017730,4306,0,1.3334334,0.8681698,-10.826783,0.021303738,-0.0025001112,-0.059515458,33.875,78.0,0.0023928226,1114658,3245,-2883,432,4429
88120525,4200,0,-0.6943936,-0.9101357,-7.4496694,-0.010621787,0.0054081446,-0.030243093,34.0,78.0,0.0023928226,1114658,958,997,-14489,10
88221324,4162,0,0.46205807,-1.7585356,-9.971743,-0.009672562,-0.005664068,-0.047356308,34.0,78.0,0.0023928226,1114658,1819,-3856,-2347,10
88322140,4216,0,-0.8229432,-1.6584171,-9.213138,-0.008860104,0.007986343,-0.027480884,34.125,78.0,0.0023928226,1114658,-909,219,-4222,4433
88425035,6311,0,-0.46711332,0.50258666,-10.398383,-0.002101136,-0.00029024266,-0.07341515,34.0,78.0,0.0023928226,1114658,1483,-1556,-3504,10
88523742,4217,0,0.8765713,1.1843874,-9.398135,0.01931113,0.007300247,-0.017281754,34.0,78.0,0.0023928226,1114658,90,-3031,-5046,7599
88624558,4234,0,-0.523537,0.6643066,-10.371315,-0.010346381,-0.008639783,-0.034114167,34.0,78.0,0.0023928226,1114658,1217,725,-410,8192
88729525,4153,0,-1.1975557,-1.1884125,-10.4391165,-0.032639746,0.00039105333,-0.043221824,34.125,78.0,0.0023928226,1114658,1229,464,-2236,8193
88827175,4201,0,-0.026306745,-1.5753988,-10.075282,-0.0062646163,-0.00014555335,-0.016062925,34.125,78.0,0.0023928226,1114658,795,414,-2259,8192
88932205,5280,0,-1.6305606,0.010928782,-9.745061,-0.016905587,0.018605655,-0.031798527,34.125,78.0,0.0023928226,1114658,-1193,3425,-623,8193
89032997,4223,0,-0.6516457,0.52315146,-9.9271,0.0035631894,2.2479071e-05,-0.051709093,34.0,78.0,0.0023928226,1114658,1506,610,-3783,4444
89133821,4247,0,-0.97296757,0.56707853,-10.097542,-0.008836257,0.011308317,-0.07141514,34.125,78.0,0.0023928226,1114658,2700,3836,-3596,4438
89234590,4215,0,-0.06689191,-0.3290975,-10.96463,0.009498611,-0.025392726,-0.05384483,34.125,78.0,0.0023928226,1114658,1992,1976,-152,4441
89339575,4157,0,-0.26076746,-0.6685775,-10.555201,0.0044251443,-0.0039946097,-0.059575208,34.125,78.0,0.0023928226,1114658,2674,-982,-1242,10
89436209,4221,0,-0.060040433,-0.67241216,-11.294994,0.017268268,-0.00918532,-0.038717404,34.125,78.0,0.0023928226,1114658,-1261,-457,4548,8193
89538025,4200,0,-0.14821355,0.55415225,-9.092363,0.0157842,0.016735746,-0.05497067,34.0,78.0,0.0023928226,1114658,1182,872,-4164,8193
89644155,4279,0,-0.3551069,-0.48914433,-10.468378,0.0014218321,-0.017432963,-0.05126337,33.875,78.0,0.0023928226,1114658,1683,646,-2942,4443
89746975,4193,0,0.37385848,-1.147413,-11.536819,0.0049025593,-0.011957528,-0.07561881,34.125,78.0,0.0023928226,1114658,848,-1257,3768,4461
91066825,4200,0,-0.21564643,0.6030594,-8.79537,-0.035788365,0.008780483,-0.02016267,34.125,78.0,0.0023928226,1114658,-1596,-890,-3026,8192
91169735,4210,0,-0.75762767,-0.42814073,-9.938327,0.0011685734,-0.005979707,-0.05455193,34.125,78.0,0.0023928226,1114658,-681,2523,-3049,4485
91270583,4258,0,0.076539725,-1.0697024,-10.883353,0.00375704,-0.008547811,-0.07099214,34.125,78.0,0.0023928226,1114658,2826,-1396,-4171,4483
91371349,4179,0,-1.0117415,-1.1929623,-9.874228,-0.028105866,0.0056147706,-0.035781853,34.125,78.0,0.0023928226,1114658,-1889,753,-1949,4478
91472124,4181,0,-0.97243935,-0.015751816,-9.6321335,-0.006690676,0.009206487,-0.056718107,34.125,78.0,0.0023928226,1114658,-1088,2411,-5486,4486
91575026,6302,0,0.19918154,0.65709823,-9.325233,-0.025531132,0.005227813,-0.06777551,34.25,78.0,0.0023928226,1114658,607,-1516,-3691,2048
91676936,5311,0,-0.4184805,0.4496787,-10.224803,0.024679497,0.0010987262,-0.07504747,34.25,78.0,0.0023928226,1114658,3239,3594,-4295,9
91779775,5205,0,-0.26625505,-1.0341977,-9.506576,-0.00036506075,0.0017823068,-0.019505307,34.25,78.0,0.0023928226,1114658,-1922,-234,-1849,4488
91883725,4200,0,0.06349526,0.12872183,-10.623324,-0.0063031926,-0.010136472,-0.022791302,34.125,78.0,0.0023928226,1114658,1695,-2154,-176,4480
91983475,4108,0,-0.087336645,0.07299066,-9.322728,-0.013681391,0.0044934247,-0.028992377,34.375,78.0,0.0023928226,1114658,-3127,-112,-263,4490
92082189,5217,0,-0.48594892,1.0200139,-9.369445,0.0040036645,0.0040170685,-0.047206093,34.25,78.0,0.0023928226,1114658,-1088,3903,-3176,8193
92188228,4101,0,0.5306927,-0.82073325,-10.1615095,-0.040898964,-0.00017366293,-0.041333172,34.25,78.0,0.0023928226,1114658,1830,-3699,-8243,10
92285875,4175,0,-0.19577739,-1.7091801,-11.263854,-0.0067877383,-0.019651288,-0.018818012,34.25,78.0,0.0023928226,1114658,175,911,-34,4500
92386675,4178,0,-1.2604487,-1.6801337,-10.955588,0.021835683,-0.0011055553,-0.067222655,34.125,78.0,0.0023928226,1114658,2192,4951,-4530,8193
92491675,4200,0,-0.05689775,0.76814383,-10.038931,-0.009306329,0.0073834546,-0.022744196,34.25,78.0,0.0023928226,1114658,3197,-2738,-88,8193
92592483,4199,0,-0.35098273,1.1639222,-9.260185,0.00023273096,0.00089041155,-0.026827931,34.25,78.0,0.0023928226,1114658,-80,-942,-4693,4497
92693274,4199,0,0.2510656,0.027111338,-9.909843,-0.016614681,0.0042071003,-0.03905208,34.125,78.0,0.0023928226,1114658,-1849,-2186,-2002,4504
92796203,4229,0,0.973896,-1.6731607,-10.393795,-0.02999746,-0.000951711,-0.003969689,34.125,78.0,0.0023928226,1114658,-1241,-3802,-3463,8193
92898025,5250,0,-0.06908069,-1.8072023,-10.89178,-0.024243684,-0.010092952,-0.017260395,34.125,78.0,0.0023928226,1114658,565,-2290,1589,0
92997777,4202,0,-0.49073526,-0.5460841,-10.542491,0.031377073,0.0028438373,-0.03314046,34.25,78.0,0.0023928226,1114658,1043,-1842,-2966,0
93098579,4205,0,-0.9309589,0.6114819,-9.297318,0.014264989,0.009135268,-0.06561189,34.25,78.0,0.0023928226,1114658,570,3166,-1993,4515
93201475,4200,0,-1.0893779,0.67959523,-9.270439,0.02999927,0.0034524088,-0.055795986,34.25,78.0,0.0023928226,1114658,1500,5882,-1516,8192
93303328,5253,0,-0.3044606,-0.7945579,-10.438741,0.012939789,-0.0119356215,-0.06376967,34.25,78.0,0.0023928226,1114658,-16,1923,-2155,4508
93400975,4201,0,-0.30836228,-1.0009022,-9.841212,-0.010969256,-0.0028811235,-0.024097294,34.25,78.0,0.0023928226,1114658,2729,-1170,-10114,7738
93507025,4200,0,-0.58102596,-0.008769002,-10.618647,0.023978941,0.00074749487,-0.052887462,34.125,78.0,0.0023928226,1114658,2038,880,-1789,8193
93607824,4199,0,-0.36994693,1.4302467,-9.905734,0.038537014,0.0035803327,-0.06363624,34.375,78.0,0.0023928226,1114658,1164,1763,-5333,0
93708624,4199,0,0.08076607,1.6277555,-10.088019,0.026933553,0.0052766223,-0.059407573,34.25,78.0,0.0023928226,1114658,2672,2530,-5436,4522
93811525,4170,0,0.14106476,-0.38910478,-10.822738,0.031216336,-0.0086242035,-0.060958333,34.125,78.0,0.0023928226,1114658,932,2661,-3620,4518
93910224,4199,0,-0.7223304,-1.5541244,-10.267926,-0.013168866,-0.013653626,-0.048329618,34.375,78.0,0.0023928226,1114658,3189,1921,-5984,8192
94011025,4200,0,-1.1593912,-1.3086512,-9.519337,-0.007226785,0.010064552,-0.07533125,34.125,78.0,0.0023928226,1114658,-624,2424,-9166,10
94113925,4176,0,-0.8673828,0.34179974,-9.291844,0.012587273,0.012791735,-0.06485491,34.25,78.0,0.0023928226,1114658,284,1841,-3979,7767
94216928,4304,0,0.24194771,1.3920157,-9.538945,-0.015101522,0.003620322,-0.06808112,34.375,78.0,0.0023928226,1114658,1996,-2780,-6459,4519
94315527,4186,0,0.79625124,0.72180885,-9.914183,0.002033896,-0.016165331,-0.031894453,34.375,78.0,0.0023928226,1114658,2154,-2118,-2787,16905
94416325,4190,0,0.8313695,-0.014395685,-10.527493,-0.00028766828,-0.011530706,-0.040663872,34.25,78.0,0.0023928226,1114658,-716,-1960,285,8192
94519341,4317,0,-0.56701547,-1.6656634,-10.21917,0.0120142335,0.0061654653,-0.045431145,34.25,78.0,0.0023928226,1114658,-312,1209,-5688,4528
94624225,4097,0,0.21375288,0.6040846,-9.962891,-0.008128001,0.01373638,-0.046987247,34.25,78.0,0.0023928226,1114658,1389,-3526,-3991,8192
94723985,5260,0,0.3232762,1.0077902,-9.450319,0.020001581,-0.0068864673,-0.041531686,34.25,78.0,0.0023928226,1114658,672,-1380,-7220,8192
94824775,4198,0,0.42256755,1.2643485,-11.05615,-0.020204127,-0.012089017,-0.033822183,34.25,78.0,0.0023928226,1114658,2938,-1535,-2226,8193
94925575,4200,0,1.0318424,-0.4083089,-10.314106,-0.036027316,-0.0036571051,-0.048758395,34.25,78.0,0.0023928226,1114658,2044,-4457,-8374,16905
95026374,4182,0,0.4762961,-1.7285414,-10.913518,-0.02705221,-0.003062745,-0.017963352,34.25,78.0,0.0023928226,1114658,-1453,-3070,1767,2049
95129288,4213,0,0.28609583,-1.1523578,-10.22945,-0.0074372594,-0.00035366404,-0.005705572,34.25,78.0,0.0023928226,1114658,1499,-3040,-1796,4549
95232175,4201,0,0.75885004,0.8684438,-10.409545,-0.004069673,-0.0028619422,-0.01539005,34.25,78.0,0.0023928226,1114658,291,-3355,1953,8192
95330875,4200,0,-1.4008133,1.3028513,-9.379871,0.030839378,0.013950667,-0.07056073,34.25,78.0,0.0023928226,1114658,-509,7092,-3403,4541
95431675,4200,0,-0.3914672,0.12619077,-8.826386,0.019613652,0.008310189,-0.03773063,34.25,78.0,0.0023928226,1114658,-1036,3301,-8125,8193
95536675,4200,0,-0.040985234,-1.6077052,-10.075419,0.008772225,0.014084768,-0.05626339,34.375,78.0,0.0023928226,1114658,1334,-2035,-8163,8193
95637475,4189,0,-1.2676222,-1.4637302,-9.55851,0.002669874,-0.0023375456,-0.04906405,34.5,78.0,0.0023928226,1114658,-2869,3558,-5443,2048
95739373,5298,0,-0.89517564,0.8648814,-9.023692,-0.01017343,0.016291082,-0.039480396,34.25,78.0,0.0023928226,1114658,2257,1847,-4698,8192
95840153,4229,0,0.778662,1.1128551,-9.224684,-0.015958061,0.005521685,-0.04708116,34.375,78.0,0.0023928226,1114658,-1695,-3379,-3367,4553
