timestamp,integral_dt,error_count,x,y,z,x_integral,y_integral,z_integral,temperature,range_m_s2,scaling,device_id,x_raw,y_raw,z_raw,temperature_raw
32342718,4200,0,-0.08456703,-0.5690004,-9.906334,-0.0035669205,-3.7786664e-05,-0.043068126,46.125,78.0,0.0023928226,1114658,215,100,-3664,0
32444588,4218,0,-0.28477696,0.6501127,-9.946108,0.0036303506,-0.0007850677,-0.03764826,46.125,78.0,0.0023928226,1114658,405,1056,-2877,-4
32550617,4200,0,-0.59775084,-0.58033854,-9.648488,-0.0033321981,-0.002857769,-0.037071627,46.0,78.0,0.0023928226,1114658,225,530,-3981,8193
32651417,4192,0,0.17978102,0.7446743,-9.512866,0.002644578,-0.0022070217,-0.041062813,46.25,78.0,0.0023928226,1114658,1217,117,-4457,8193
32755367,4199,0,0.4728583,1.2749183,-10.095522,0.0034519194,0.0033920137,-0.037749574,46.25,78.0,0.0023928226,1114658,1037,207,-3882,8192
32856167,4199,0,0.3253793,1.3493149,-10.579043,0.0018997467,0.018324502,-0.04395144,46.375,78.0,0.0023928226,1114658,-316,283,-4110,10278
32962250,4170,0,-0.021341953,2.1281476,-9.6124,-0.0060855392,-0.00013671101,-0.035019513,46.25,78.0,0.0023928226,1114658,1395,777,-3431,8192
33058845,4228,0,0.27397743,1.2368672,-9.62045,-0.007359379,0.0163171,-0.04125808,46.125,78.0,0.0023928226,1114658,251,-350,-4074,2049
33162788,4220,0,0.085787416,1.6092837,-9.545535,0.00090513204,-0.008524032,-0.040203787,46.125,78.0,0.0023928226,1114658,2498,966,-3913,2049
33263574,4207,0,0.11240836,0.015270874,-9.95161,-0.011032978,-0.014531698,-0.03537881,46.375,78.0,0.0023928226,1114658,2002,-324,-3752,8192
33365418,4146,0,-0.7772866,-1.7973814,-9.71994,0.0026639132,0.0011870727,-0.04111853,46.25,78.0,0.0023928226,1114658,-136,396,-4589,8676
33467267,5160,0,-0.32034406,0.072997704,-9.50227,0.0031019931,0.022411034,-0.050526958,46.25,78.0,0.0023928226,1114658,-491,556,-4496,-4
33568067,4199,0,0.69370085,1.5287688,-9.744451,-0.007983801,0.0028650663,-0.03572241,46.125,78.0,0.0023928226,1114658,1585,77,-4235,-4
33672018,5247,0,-0.7160238,-0.62388736,-9.71069,-0.007115432,-0.007986576,-0.0547453,46.125,78.0,0.0023928226,1114658,648,-842,-3160,0
33774979,4249,0,-0.063654944,0.1823871,-9.857532,0.008612856,0.014041613,-0.03738995,46.25,78.0,0.0023928226,1114658,-1088,1475,-3073,10296
33876768,5251,0,0.7007638,1.2341816,-9.060093,0.009878077,-0.003388287,-0.047848817,46.125,78.0,0.0023928226,1114658,1369,790,-5226,10294
33978627,5217,0,0.020166269,-0.7284719,-10.16834,-0.004598628,-0.009018873,-0.05672146,46.25,78.0,0.0023928226,1114658,542,-1168,-3178,8192
34079417,4199,0,-0.37996295,-0.31124896,-9.940133,0.0016172301,0.010419999,-0.04186693,46.25,78.0,0.0023928226,1114658,-782,1182,-3189,-4
34181385,4317,0,0.17589414,1.2792203,-9.305816,0.0013170053,0.0017572233,-0.04173673,46.125,78.0,0.0023928226,1114658,861,-64,-3346,-4
34284168,4173,0,0.0040817107,-0.73457676,-10.058163,-0.0020401936,-0.007607976,-0.03707069,46.25,78.0,0.0023928226,1114658,426,-314,-2993,2049
34384968,4156,0,-0.8183445,-0.6141202,-9.72675,0.006688124,0.008533535,-0.03314987,46.25,78.0,0.0023928226,1114658,-1464,2613,-3689,8193
34486878,4261,0,0.9030745,1.3512393,-9.622329,-0.0023819036,0.005444554,-0.03849754,46.125,78.0,0.0023928226,1114658,267,-924,-4480,8688
34586568,5228,0,0.23218347,0.580782,-9.659845,-0.015316589,-0.010333699,-0.046317715,46.125,78.0,0.0023928226,1114658,1474,-846,-4295,8688
34687368,4164,0,-1.4256018,-0.70625097,-9.823518,0.0035819896,0.00471145,-0.041451205,46.125,78.0,0.0023928226,1114658,-276,2875,-3246,8192
34793418,4149,0,0.55582565,0.79706925,-9.87691,-0.0101091955,-0.0061786217,-0.045937326,46.125,78.0,0.0023928226,1114658,2164,-842,-3904,8688
34894219,4147,0,-1.2393907,-0.45920628,-9.688436,0.022695988,0.014596627,-0.037339505,46.25,78.0,0.0023928226,1114658,-1083,2735,-4124,10323
34998204,4236,0,-2.0700555,-0.87587076,-9.777137,-0.018909402,-0.002721037,-0.042269222,46.375,78.0,0.0023928226,1114658,137,725,-4458,8193
35098993,4226,0,1.4710139,1.0262053,-9.962586,-0.011770706,-0.020114977,-0.054274097,46.375,78.0,0.0023928226,1114658,3249,-1136,-3355,10324
35200818,5240,0,1.4320897,1.367161,-9.680639,-0.0018610909,-0.0013438577,-0.059007008,46.125,78.0,0.0023928226,1114658,1627,133,-4456,2048
35301619,4201,0,1.2413797,0.2594227,-9.9429,-0.008888667,-0.018223314,-0.04407588,46.125,78.0,0.0023928226,1114658,1575,-1713,-1507,10328
35403468,4201,0,-1.3944387,-0.88359463,-9.636603,0.005739536,0.0006143025,-0.041463282,46.125,78.0,0.0023928226,1114658,-1951,2338,-2878,-4
35504267,4200,0,1.8356416,1.2969683,-10.030692,-0.011419891,-0.0040952195,-0.05102986,46.375,78.0,0.0023928226,1114658,1686,-2060,-2287,-4
35604018,5251,0,-0.19423491,-0.6969239,-9.811646,0.024883782,0.0066698208,-0.040447313,46.375,78.0,0.0023928226,1114658,-1730,2122,-2310,10341
35709017,4199,0,1.6012671,0.076732166,-9.849588,0.009472393,0.020276887,-0.025601992,46.25,78.0,0.0023928226,1114658,-431,-1699,-4853,-4
35810937,4270,0,1.2814114,0.50181526,-10.010551,-0.016566543,0.0036987707,-0.04556605,46.375,78.0,0.0023928226,1114658,1383,-2697,-3115,8705
35909572,4160,0,-0.2092848,0.76171875,-9.85441,-0.027605679,-0.005556055,-0.044081107,46.25,78.0,0.0023928226,1114658,1113,-915,-4150,16953
36011417,4195,0,-0.77437335,-0.35294136,-9.7925415,0.035036493,-0.0033221638,-0.04698484,46.25,78.0,0.0023928226,1114658,-381,4103,-3276,10345
36112218,4200,0,0.61293936,0.53832406,-9.871543,-0.031604093,0.0049435627,-0.047557235,46.375,78.0,0.0023928226,1114658,487,-2540,-3102,8193
36213017,6299,0,-1.6716105,-0.16653344,-9.269847,0.04943789,-0.002030516,-0.06042412,46.5,78.0,0.0023928226,1114658,699,3188,-4551,10347
36316980,4213,0,-1.0103354,-0.53006625,-8.898187,0.049877323,-0.0067576603,-0.04717239,46.25,78.0,0.0023928226,1114658,-654,4869,-5618,-4
36417796,4225,0,0.45926008,0.10051191,-9.462922,0.03513801,0.01186105,-0.04801457,46.375,78.0,0.0023928226,1114658,548,1383,-5590,-4
36519669,4251,0,2.4795208,1.2811373,-11.53445,-0.016014196,0.00701947,-0.045709874,46.25,78.0,0.0023928226,1114658,1062,-5826,14,8702
36624618,4173,0,-0.4138452,-1.1469783,-7.9514565,0.049121905,0.002428841,-0.08276638,46.25,78.0,0.0023928226,1114658,-2770,4630,-9332,8192
36724367,4199,0,0.05728819,0.10698364,-10.623159,-0.07000181,0.002987523,-0.042035926,46.25,78.0,0.0023928226,1114658,-1122,-5185,-694,10375
36827268,4200,0,3.1414618,0.99842983,-10.956502,-0.004188058,0.009412602,-0.04586295,46.375,78.0,0.0023928226,1114658,2212,-7785,-1386,10358
36931255,4237,0,-0.19153681,-0.14323089,-11.528007,-0.05521185,0.010551128,-0.032512885,46.25,78.0,0.0023928226,1114658,-471,-1131,42,8193
37030992,5274,0,-1.9107702,0.41938728,-9.488282,-0.05629441,0.0068354146,-0.03429038,46.375,78.0,0.0023928226,1114658,-758,2133,-3142,10378
37133873,5248,0,1.3363632,0.30470094,-10.978612,0.019659653,0.0015184064,-0.0720888,46.375,78.0,0.0023928226,1114658,532,-3001,-1317,8193
37234682,4214,0,-2.0117579,0.25428495,-8.500356,-0.016410327,0.0021152021,-0.018543549,46.25,78.0,0.0023928226,1114658,48,6620,-4586,-4
37336568,4226,0,1.1941887,0.52187884,-11.062999,-0.0031578296,0.0102306,-0.06445131,46.25,78.0,0.0023928226,1114658,-2335,-4810,35,10385
37437376,4239,0,-1.3005444,1.1069965,-10.061977,-0.020830104,0.0023586906,0.004216644,46.25,78.0,0.0023928226,1114658,431,3192,-1853,10377
38352917,4199,0,-0.86875576,-0.2350901,-10.727626,0.020764727,0.0063317036,-0.067958266,46.375,78.0,0.0023928226,1114658,1237,4965,-1471,-4
38453717,4200,0,0.5216101,-0.83997256,-12.23629,-0.017109606,0.005434889,-0.017899705,46.25,78.0,0.0023928226,1114658,-1674,-2914,335,8193
38555568,5250,0,-0.8413157,1.5838554,-10.031964,-0.022377277,0.017619653,-0.029307697,46.375,78.0,0.0023928226,1114658,6,999,-4392,8192
38658468,4195,0,-0.07372538,0.740176,-10.670739,0.029707393,-0.012025906,-0.057923455,46.25,78.0,0.0023928226,1114658,2006,3205,-5961,10413
38760317,5245,0,1.5204577,-0.83077973,-10.408915,-0.00021630764,-0.0097929975,-0.043081075,46.25,78.0,0.0023928226,1114658,95,-2713,-6014,2049
38861158,4241,0,-0.60727084,-1.259648,-10.0162735,-0.016356474,0.006952246,-0.05896912,46.375,78.0,0.0023928226,1114658,-445,3233,-8194,-5
38959820,6302,0,0.3851078,-0.49564138,-9.499117,-0.03662026,0.010764087,-0.05887459,46.375,78.0,0.0023928226,1114658,-547,978,-8595,10418
39067972,4180,0,0.73302925,0.88856286,-9.408695,-0.03571995,0.005172041,-0.021417988,46.5,78.0,0.0023928226,1114658,-560,-2964,-4188,10419
39169816,5217,0,-0.4882948,-0.15890577,-9.830972,-0.036504224,-0.0009640246,-0.06258928,46.375,78.0,0.0023928226,1114658,204,751,-5158,8192
39272718,4132,0,-1.4404064,-1.2036284,-11.081867,0.0035480605,0.005699311,-0.055495884,46.375,78.0,0.0023928226,1114658,314,4525,-1728,8193
39374575,5257,0,-0.24625582,0.4717713,-10.834351,0.024251197,0.004546738,-0.03550795,46.375,78.0,0.0023928226,1114658,871,1373,903,0
39475368,4200,0,1.1161553,1.4565666,-9.264566,-0.0042947843,-0.0014953315,-0.012227087,46.375,78.0,0.0023928226,1114658,-201,-3671,-3253,10431
39576167,4197,0,0.45454863,0.83211875,-8.974083,-0.02637847,-0.0033902735,-0.020283345,46.375,78.0,0.0023928226,1114658,603,-1979,-4888,8192
39678089,4271,0,0.23925555,-1.4501169,-9.836082,-0.042488493,-0.00023553226,-0.060036626,46.25,78.0,0.0023928226,1114658,-1483,-2251,-6401,8722
39778869,6302,0,1.097037,-1.8011407,-10.238624,-0.030633945,0.0077322694,-0.06337492,46.25,78.0,0.0023928226,1114658,-2494,-4186,-4587,8719
39880667,4151,0,-1.0649537,0.12684542,-9.514165,-0.024077302,0.02207488,-0.04803981,46.375,78.0,0.0023928226,1114658,-1973,873,-6395,8725
39982518,5202,0,-0.75624025,1.4062374,-9.763273,-0.02213944,0.023606177,-0.06913307,46.25,78.0,0.0023928226,1114658,-2265,3125,-5552,-5
40081246,4229,0,0.1011627,0.30770618,-9.002167,-0.033541884,-0.0071206796,-0.021675782,46.375,78.0,0.0023928226,1114658,-1170,-1419,-2503,0
40187325,5232,0,-1.7696745,-1.1341246,-8.948026,-0.047712445,0.0147980815,-0.04856252,46.5,78.0,0.0023928226,1114658,-412,1719,-6485,8725
40290177,4182,0,-0.97887194,0.6024372,-8.2410145,-0.02787824,0.025366817,-0.03974909,46.5,78.0,0.0023928226,1114658,-882,1156,-5219,10453
40392017,5206,0,-1.2291028,1.7138181,-7.9543896,-0.033610094,0.019796807,-0.028897509,46.5,78.0,0.0023928226,1114658,-562,2771,-4402,0
40493867,5249,0,-0.8924762,0.25949392,-8.705546,-0.04419688,-0.0069435653,-0.02035804,46.5,78.0,0.0023928226,1114658,1077,626,-4147,-5
40592591,4215,0,1.922252,-0.74377567,-10.939679,0.032405782,-0.010356587,-0.052948438,46.5,78.0,0.0023928226,1114658,2275,-2560,-722,10454
40693368,4177,0,-2.4382474,-1.4099008,-9.667266,-0.0063982843,0.013133209,-0.059818193,46.375,78.0,0.0023928226,1114658,213,4363,-6276,10460
40795218,4200,0,-1.2432202,0.70876634,-9.403055,-0.029262342,0.03283464,-0.062296573,46.375,78.0,0.0023928226,1114658,-2253,1340,-4022,8193
40897067,5199,0,-1.1368121,1.8580383,-9.276642,-0.012939098,0.025067123,-0.037665356,46.375,78.0,0.0023928226,1114658,26,4051,-1024,-4
40999968,4163,0,-0.8244286,0.11456179,-10.053038,-0.01773723,0.0008886987,-0.012129292,46.375,78.0,0.0023928226,1114658,-148,2106,-741,10464
41101834,5266,0,1.9444659,-1.0907861,-10.243865,-0.034651205,-0.0074385926,-0.022624018,46.5,78.0,0.0023928226,1114658,-8,-6923,-692,0
41202617,4200,0,0.51812947,-0.34016043,-9.591261,0.05254242,-0.0028190066,-0.02298433,46.375,78.0,0.0023928226,1114658,919,1547,-2523,8192
41304516,4248,0,-1.7912197,1.5579631,-9.069375,-0.0228184,0.013671445,-0.012543756,46.5,78.0,0.0023928226,1114658,-28,4824,-2002,8725
41403174,4207,0,0.6776731,1.4319273,-9.670499,0.042263452,-0.012277233,-0.050812677,46.25,78.0,0.0023928226,1114658,2050,1601,-1562,10474
41507159,4173,0,0.7726876,0.22063729,-9.275193,0.038167235,-0.017494535,-0.029137671,46.375,78.0,0.0023928226,1114658,2676,2731,-2645,10482
41610045,4204,0,-1.2587053,-0.97516924,-9.96752,0.03610567,0.0027030893,-0.0673208,46.375,78.0,0.0023928226,1114658,1654,5114,-4927,16953
41711868,4145,0,-1.8908896,0.429686,-9.641049,-0.028311178,0.017231982,-0.010236838,46.5,78.0,0.0023928226,1114658,-240,3432,-1332,0
41812667,4127,0,1.503796,0.6034609,-9.412091,-0.011848533,0.00617299,-0.025416534,46.375,78.0,0.0023928226,1114658,-2291,-4463,-1755,10486
41914518,5171,0,-1.0015696,1.6730675,-8.99785,0.03380708,-0.011839725,-0.08761445,46.5,78.0,0.0023928226,1114658,2698,5820,-6993,8192
42019518,4200,0,-0.35227436,-1.0628711,-9.234568,0.035756264,-0.009248996,-0.0503274,46.375,78.0,0.0023928226,1114658,1340,3797,-7251,2048
42121390,4219,0,-1.669757,0.1985237,-9.891956,-0.030888654,0.026081812,-0.031170063,46.375,78.0,0.0023928226,1114658,568,2760,-337,-5
42221160,5292,0,-0.20769612,1.1959295,-9.540703,0.047829725,-0.00869007,-0.027428243,46.375,78.0,0.0023928226,1114658,1711,1671,-1240,2049
42324018,4199,0,0.36487567,2.04059,-10.66418,0.036910474,-0.018353898,-0.042072393,46.375,78.0,0.0023928226,1114658,4238,2086,-1199,10498
42425868,5250,0,-0.38155755,0.29829577,-10.24452,0.036925342,-0.004838554,-0.08811064,46.375,78.0,0.0023928226,1114658,2598,4073,-7512,8729
42526667,4199,0,-1.2762116,-1.3348114,-10.252844,0.0049066856,-0.007857458,-0.026255539,46.5,78.0,0.0023928226,1114658,379,6157,-2189,8192
42627468,4188,0,-0.23828843,-0.24256366,-9.482873,-0.05184713,0.012009359,-0.033409003,46.5,78.0,0.0023928226,1114658,-393,-3085,-9145,2048
42729368,4210,0,0.7095693,0.871304,-10.205352,-0.01916466,0.0077340524,-0.021104839,46.375,78.0,0.0023928226,1114658,-478,-3530,1095,10520
42829067,5245,0,1.3783954,1.6485732,-9.329012,0.02145489,-0.0031883821,-0.08226806,46.375,78.0,0.0023928226,1114658,-297,-3338,-6121,8193
42929868,4200,0,1.1754616,0.5859494,-9.619068,0.025288234,-0.027038135,-0.033418316,46.25,78.0,0.0023928226,1114658,2326,-3049,-5261,8193
43033817,5224,0,1.0434581,-1.7446642,-10.159984,0.030568095,-0.021607028,-0.050625026,46.5,78.0,0.0023928226,1114658,775,-2331,-2306,-5
43136751,4203,0,0.31348288,-0.52109504,-10.64608,0.010384501,-0.00044365693,-0.07985579,46.5,78.0,0.0023928226,1114658,-1704,-1518,-4885,2048
43236559,4291,0,-0.25718218,2.097058,-9.726622,0.03737076,-0.0043873116,-0.028167006,46.5,78.0,0.0023928226,1114658,2261,1701,-4462,10531
43337340,4271,0,-0.46660098,2.3651447,-8.643799,0.017133387,0.0027155906,-0.054276433,46.5,78.0,0.0023928226,1114658,2837,3877,-9529,10528
43437023,5226,0,-0.3415119,0.74311095,-8.7586,-0.04705843,-0.0076635447,-0.06368979,46.375,78.0,0.0023928226,1114658,1263,-1326,-7820,-5
43542084,4267,0,-1.1457952,-1.2774472,-10.680395,-0.03404228,0.0079948045,-0.050115008,46.5,78.0,0.0023928226,1114658,-259,2632,1605,-5
43643868,4108,0,0.011290026,0.3867758,-9.706062,-0.028849462,0.014372876,-0.012896383,46.5,78.0,0.0023928226,1114658,-1670,-3707,289,8193
43744675,4127,0,0.7709221,1.4518445,-9.812088,0.018007684,-0.008904472,-0.022555575,46.375,78.0,0.0023928226,1114658,1792,-388,970,10543
43846518,5198,0,-1.1555209,1.851905,-9.492317,0.034069464,0.002995219,-0.041703403,46.5,78.0,0.0023928226,1114658,2694,6792,-3140,8192
43949418,4149,0,-1.8333709,-1.0318174,-9.593458,-0.005675727,0.0012299671,-0.020193161,46.5,78.0,0.0023928226,1114658,1025,5728,-1979,8752
44051267,4200,0,-1.1207293,-0.72313225,-9.173535,-0.043048196,0.007906354,-0.044405464,46.5,78.0,0.0023928226,1114658,-1323,-570,-5442,10555
44153162,5294,0,-0.9326982,0.32373646,-9.575872,-0.031379372,0.025766622,-0.06935201,46.5,78.0,0.0023928226,1114658,-2076,-5484,-4134,8192
44253918,4200,0,0.41405988,1.9163866,-9.161687,0.035066642,-0.0017071322,-0.063991755,46.5,78.0,0.0023928226,1114658,954,2168,-3972,-4
44355799,4232,0,-2.5734158,1.3893384,-8.976899,-0.003278267,0.010596532,-0.050846048,46.5,78.0,0.0023928226,1114658,2447,6025,-5353,-4
44460768,4150,0,-1.1522954,-1.210028,-10.009827,-0.038998224,-0.0015588104,-0.009415943,46.375,78.0,0.0023928226,1114658,253,827,-1791,10567
44558417,4199,0,-1.0425842,-0.5614052,-9.51128,0.043344222,-0.0008682363,-0.05895492,46.375,78.0,0.0023928226,1114658,3314,3870,-3222,8192
44659218,4200,0,-1.1741219,0.9252313,-10.372332,-0.032267977,0.015289079,-0.01791009,46.5,78.0,0.0023928226,1114658,-195,687,2704,8193
44765340,4272,0,0.22532618,0.96944463,-8.665682,-0.04811383,0.008051488,-0.036112748,46.375,78.0,0.0023928226,1114658,1338,-3336,-6591,10579
44862944,5239,0,-0.5240355,0.8359004,-9.12748,0.013918292,0.0018554698,-0.043993168,46.5,78.0,0.0023928226,1114658,227,5230,-5537,8193
44965873,4255,0,-1.6838553,-0.59117657,-10.855101,0.003564035,-0.005987388,-0.038499825,46.375,78.0,0.0023928226,1114658,1466,3910,-2926,8192
45067768,5351,0,-0.49318257,-0.68164295,-9.75755,-0.053751137,0.013660317,-0.05801525,46.5,78.0,0.0023928226,1114658,-698,-1128,-7346,10583
45168540,4272,0,0.27946874,0.20333697,-10.832845,-0.0027276988,0.0056634555,-0.055774275,46.375,78.0,0.0023928226,1114658,-1833,-3161,-23,10590
45270318,4199,0,0.77665204,1.94867,-9.387831,0.031188026,-0.011374365,-0.041096054,46.5,78.0,0.0023928226,1114658,1155,-1243,-3937,8751
45372168,4200,0,0.725499,1.3884965,-10.691345,0.028715508,-0.0024163784,-0.068337955,46.5,78.0,0.0023928226,1114658,3663,3962,-1166,8192
45470916,4249,0,0.4763784,0.013866793,-10.672702,-0.038262907,-0.011492935,-0.014844379,46.625,78.0,0.0023928226,1114658,1863,-4754,-2723,10576
45576932,4214,0,-1.8054836,-0.68548375,-10.999549,-0.038129285,0.02046515,-0.037163883,46.625,78.0,0.0023928226,1114658,-454,2351,504,10585
45676668,4152,0,0.25406635,0.87556654,-8.80332,0.056133926,-0.003178909,-0.042661075,46.375,78.0,0.0023928226,1114658,1643,1725,-2894,2048
45777468,4128,0,1.5820202,0.68461835,-9.116204,-0.0357681,0.013350747,-0.06614902,46.375,78.0,0.0023928226,1114658,-2180,-5616,-2338,10596
45879318,4161,0,-0.95227253,0.1927264,-9.310908,-0.036617104,-0.008471682,-0.0009807362,46.5,78.0,0.0023928226,1114658,1350,563,-1459,10584
45981216,5251,0,1.4814135,-0.7799565,-9.088788,0.047945574,-0.013165085,-0.077287324,46.5,78.0,0.0023928226,1114658,887,2458,-11606,10600
46081967,4200,0,-1.2199781,0.58376217,-10.201754,-0.045369875,0.014095495,-0.009990131,46.375,78.0,0.0023928226,1114658,-505,-1035,2403,2049
46183879,4190,0,0.47924548,1.8233047,-9.865079,0.03512911,0.006605825,-0.057631362,46.375,78.0,0.0023928226,1114658,1963,1768,561,8193
46284618,4149,0,-0.49240762,1.2779082,-9.415439,-0.05375974,0.016557202,-0.04663965,46.625,78.0,0.0023928226,1114658,-147,-1646,-4851,2048
46388566,4198,0,0.53249246,-0.87198454,-10.654471,-0.028101074,-0.0064427396,-0.032946765,46.375,78.0,0.0023928226,1114658,201,-2716,-270,10612
46486241,5272,0,-1.2746028,-0.5608855,-9.193452,-0.0009333072,0.009409684,-0.06645907,46.5,78.0,0.0023928226,1114658,829,5254,-7399,10605
46591218,4200,0,-1.1239334,0.2367709,-9.862921,-0.042687494,0.021847663,-0.01030884,46.625,78.0,0.0023928226,1114658,249,1805,1636,2048
46690997,5279,0,-1.3947358,0.78451824,-9.409654,0.062334906,0.00260449,-0.080156796,46.5,78.0,0.0023928226,1114658,1444,6646,-5936,10609
46792818,5251,0,-1.3567971,1.9078647,-9.821867,-0.013708697,0.016317472,-0.059032932,46.625,78.0,0.0023928226,1114658,354,4736,-2727,2048
46893618,4200,0,-0.8038184,0.39298224,-10.098629,-0.0008634401,-0.007046721,-0.03459919,46.5,78.0,0.0023928226,1114658,506,5184,-4754,8777
46997568,5251,0,-0.16525857,-1.1257521,-10.9367,0.030405225,-0.007236206,-0.09345403,46.5,78.0,0.0023928226,1114658,-793,1941,-5190,8766
47094196,4229,0,-1.3941394,-1.0420558,-9.970594,-0.009595413,0.0040926193,-0.06479112,46.625,78.0,0.0023928226,1114658,-832,4015,-5706,-5
47200218,4201,0,0.5420611,0.7501056,-9.641714,-0.008096787,-0.0013575013,-0.031890925,46.625,78.0,0.0023928226,1114658,-787,-3504,-3762,8193
47298947,4212,0,0.57154,1.3074188,-9.807029,-0.012007723,-0.004829313,-0.04775739,46.5,78.0,0.0023928226,1114658,20,-3991,-7075,10639
47402948,4280,0,-0.052556805,1.0053308,-10.976608,0.031749472,-0.010729927,-0.031122455,46.5,78.0,0.0023928226,1114658,4080,4080,-2812,10638
47503692,4192,0,1.1718624,-1.1013048,-10.841939,-0.0040681255,-0.01594942,-0.055360977,46.625,78.0,0.0023928226,1114658,-962,-3049,-5883,-5
47603417,4194,0,0.0036426128,-1.1312314,-11.271323,-0.029202182,0.009914379,-0.056009997,46.625,78.0,0.0023928226,1114658,-2658,-510,-2552,10637
47707367,5224,0,0.43331578,-0.6372242,-10.443951,0.026470408,-0.0062027005,-0.042973943,46.5,78.0,0.0023928226,1114658,2024,3356,-1900,8765
47806140,4272,0,-0.12981497,2.235383,-10.1736,0.030868655,-0.0094734635,-0.039120175,46.5,78.0,0.0023928226,1114658,2075,-78,1136,10643
47906916,4248,0,0.100694,0.5984387,-10.514274,-0.010276758,-0.0030210183,-0.0084941685,46.5,78.0,0.0023928226,1114658,-278,-3090,-299,8781
48008719,5251,0,0.13176057,0.010734837,-10.078464,-0.028821459,0.01167097,-0.037455462,46.5,78.0,0.0023928226,1114658,1404,-1404,-1116,8193
48110568,5186,0,-0.11002196,-1.0905607,-9.240179,-0.042943727,0.015343899,-0.05705623,46.625,78.0,0.0023928226,1114658,-3074,-616,-4089,-5
48211367,4199,0,-1.2500471,1.1601577,-9.285878,-0.025829805,0.017250959,-0.014203468,46.625,78.0,0.0023928226,1114658,1311,3208,-2865,-5
48317418,4110,0,0.045483403,1.3485909,-10.129714,0.026701324,-0.013321357,-0.03875602,46.625,78.0,0.0023928226,1114658,1899,2191,509,8768
48418240,4165,0,0.6022107,-0.19450895,-9.964386,0.03981542,-0.004902253,-0.06956632,46.625,78.0,0.0023928226,1114658,1696,2164,-6439,10658
48520067,5198,0,0.8681773,-1.510373,-9.86624,0.0056487173,0.0012132436,-0.058077484,46.5,78.0,0.0023928226,1114658,-3102,-3188,-5427,0
48622978,6299,0,-0.14649057,-0.56947243,-9.353993,-0.035165753,0.031181822,-0.061882697,46.5,78.0,0.0023928226,1114658,-2888,1144,-5273,10655
48724818,4199,0,-0.6452024,1.9454587,-8.540883,0.018000618,0.013941424,-0.06466459,46.625,78.0,0.0023928226,1114658,35,4350,-7727,2048
48826667,5249,0,-0.56897926,1.2722837,-9.742079,0.0071359295,0.0058074417,-0.09150421,46.625,78.0,0.0023928226,1114658,1025,4928,-6949,8192
48927473,4206,0,-1.0742015,-0.67157304,-10.201887,0.0017379296,0.00073586067,-0.067847535,46.5,78.0,0.0023928226,1114658,1525,5268,-5400,10675
49028288,4221,0,-0.19339983,-1.1261324,-10.30177,-0.046552047,0.011288229,-0.05908952,46.625,78.0,0.0023928226,1114658,65,678,-6402,-5
49130151,4233,0,-1.5454136,0.8021235,-9.75468,-0.04874633,0.019669421,-0.05979517,46.5,78.0,0.0023928226,1114658,-1072,1083,-3999,10669
49233017,4200,0,-0.5460609,1.32832,-9.694173,-0.008606323,0.006360519,-0.02796237,46.5,78.0,0.0023928226,1114658,1717,3631,-2703,10660
49332768,5222,0,0.12742959,1.0622032,-10.478632,-0.036476675,0.008913319,-0.037302848,46.625,78.0,0.0023928226,1114658,1006,-710,5,10679
49435723,6336,0,0.98381394,-0.9545237,-10.867307,-0.040094454,-0.010044241,-0.03450951,46.625,78.0,0.0023928226,1114658,-589,-1888,-2525,10678
49535417,4197,0,1.744273,-2.0125353,-9.669502,-0.023543078,-0.0014556355,-0.043437008,46.625,78.0,0.0023928226,1114658,-1661,-5932,-4915,-5
49636226,4209,0,-0.2694031,-1.3252627,-10.72748,0.010998498,0.0029790574,-0.069711246,46.625,78.0,0.0023928226,1114658,-2818,-786,-134,8193
49738140,4272,0,0.6105663,0.4017574,-9.774144,-0.0131195765,0.013161072,-0.0011422291,46.5,78.0,0.0023928226,1114658,-2505,-3401,-2352,10684
49838942,5324,0,0.9211325,0.9293132,-9.230162,-0.026407957,0.0071170516,-0.04844552,46.625,78.0,0.0023928226,1114658,-858,-5224,-5453,10694
49943868,4121,0,-0.82983214,-0.4545085,-10.408095,-0.017714143,0.00023524067,-0.022030324,46.75,78.0,0.0023928226,1114658,1338,4194,-1024,10683
50045746,4228,0,-1.5995396,-1.0825658,-9.806325,-0.035327367,0.009390026,-0.009117753,46.625,78.0,0.0023928226,1114658,-318,3543,-1989,8193
50146566,4249,0,1.24079,-0.7343019,-9.487973,-0.024899328,0.014824709,-0.004457172,46.625,78.0,0.0023928226,1114658,-2850,-4898,-1376,0
50250468,4200,0,1.4644064,1.1318256,-8.980379,-0.015268844,-0.0037700823,-0.046549264,46.625,78.0,0.0023928226,1114658,-1675,-4227,-2333,10704
50351267,4199,0,1.0948664,1.0973763,-8.551529,0.027584137,-0.028421503,-0.060960762,46.5,78.0,0.0023928226,1114658,3799,-1008,-6856,10703
50453158,6290,0,-0.651879,-0.5541725,-9.163435,0.032111026,-0.016855517,-0.07731299,46.625,78.0,0.0023928226,1114658,1899,1866,-7109,8192
50554974,5256,0,-0.6875165,-1.095364,-9.7525625,0.031319756,-0.007808553,-0.09182987,46.625,78.0,0.0023928226,1114658,1692,3170,-8333,10702
50655810,4205,0,0.15955791,0.8152568,-10.126756,0.028543903,-0.0024899465,-0.0774498,46.5,78.0,0.0023928226,1114658,1736,-39,-2321,10708
50757618,4193,0,-0.109716505,1.8550841,-10.081895,0.018569404,-0.007720954,-0.06120286,46.625,78.0,0.0023928226,1114658,1353,1051,412,10697
50860568,4250,0,0.5649166,-0.043909933,-11.024277,-0.0034287851,-0.0057652737,-0.035157878,46.625,78.0,0.0023928226,1114658,951,-3106,54,10705
50959219,4201,0,0.8645207,-0.4508741,-10.206088,0.035675555,-0.0108701205,-0.08336955,46.625,78.0,0.0023928226,1114658,372,2042,-5436,8192
51063195,4228,0,0.67013943,-1.0434012,-11.141264,-0.010548962,0.0073130354,-0.03667117,46.75,78.0,0.0023928226,1114658,-1456,-2832,3083,-5
51167159,4216,0,-1.0281745,0.71994567,-9.682277,-0.024642253,0.013304403,-0.02303936,46.625,78.0,0.0023928226,1114658,-1480,2191,-1359,10715
51271068,5250,0,-0.13858761,1.1505789,-8.77581,0.0008651171,0.006696363,-0.045592703,46.625,78.0,0.0023928226,1114658,898,5117,-5776,10716
52388267,4182,0,1.2705166,0.5764983,-11.079515,0.042350527,-0.013900734,-0.048523385,46.75,78.0,0.0023928226,1114658,3223,1530,-2717,8192
52492217,5210,0,0.46672696,-1.8038979,-11.572587,0.03176424,-0.023298793,-0.07201368,46.75,78.0,0.0023928226,1114658,1848,-1224,-2200,8193
52593017,4199,0,-1.4715234,-0.5375263,-10.241427,0.019235268,0.001255871,-0.06812066,46.75,78.0,0.0023928226,1114658,274,5210,-6290,2048
52696967,5227,0,-0.36474535,1.2961264,-9.6849785,-0.0056161857,0.022206975,-0.046597064,46.625,78.0,0.0023928226,1114658,-1237,4397,-6353,-5
52896591,6420,0,-0.9198913,2.0645626,-9.2789345,0.013013883,0.0050333035,-0.081059724,46.75,78.0,0.0023928226,1114658,2758,5956,-2691,10746
53002518,4198,0,0.39547017,-1.731885,-10.819862,0.0276829,-0.0039471993,-0.06942474,46.625,78.0,0.0023928226,1114658,-987,-5,-4051,2048
53103318,4157,0,-1.989695,0.047297187,-10.274615,0.0023242042,0.019011227,-0.056033462,46.75,78.0,0.0023928226,1114658,770,6417,-2116,-5
53205167,4178,0,-1.2252504,2.2025924,-9.616608,-0.019559644,0.032421686,-0.03318885,46.75,78.0,0.0023928226,1114658,-481,3821,-100,8192
53311218,5251,0,0.036824357,0.70156175,-8.585014,0.039369617,-0.019404957,-0.07653992,46.75,78.0,0.0023928226,1114658,2734,3471,-10089,8193
53408868,4200,0,-0.21208917,0.18540671,-9.218226,-0.033593483,-0.0035320444,-0.0020664777,46.625,78.0,0.0023928226,1114658,1207,7,-3543,8192
53513867,4199,0,-1.7979559,-0.8937365,-9.240422,0.010412394,-0.00053254573,-0.065100595,46.75,78.0,0.0023928226,1114658,-687,3947,-6147,8192
53614668,4200,0,-0.177506,0.150863,-8.782308,0.03254374,-0.0016776636,-0.042364947,46.625,78.0,0.0023928226,1114658,-345,-236,-4814,-5
53716583,4264,0,0.6818086,1.5296057,-9.046109,0.00914438,-0.0071132146,-0.008484411,46.625,78.0,0.0023928226,1114658,1598,-2768,-3651,-5
53817380,4222,0,0.7201564,0.8079262,-10.041288,-0.010449457,-0.009259665,-0.01650198,46.75,78.0,0.0023928226,1114658,1301,-2687,-1366,-5
53917067,4199,0,-0.28115225,-1.1375046,-10.542223,-0.03191189,-0.000171444,-0.05757085,46.625,78.0,0.0023928226,1114658,-1504,218,-2525,-5
54017867,4199,0,-0.80990666,-0.858913,-9.129386,0.0040088124,0.009123567,-0.043430213,46.75,78.0,0.0023928226,1114658,-1751,3748,-7655,10780
54121860,4233,0,-0.07474033,-0.12527502,-9.328994,0.0029214332,-0.0034818347,-0.043523695,46.625,78.0,0.0023928226,1114658,-2158,-509,-4636,0
54220540,4210,0,0.30597076,1.0200472,-9.347077,-0.0051959814,-0.0065717604,-0.008422977,46.625,78.0,0.0023928226,1114658,-998,-1425,-448,10792
54326568,4184,0,1.0117934,-0.7387263,-9.507546,0.0022330733,-0.025007622,-0.023761235,46.75,78.0,0.0023928226,1114658,555,-2451,-3690,10782
54428476,4258,0,-0.788723,-1.0566667,-10.2201395,-0.027183041,0.0056627863,-0.022109356,46.75,78.0,0.0023928226,1114658,-132,1366,-2761,8852
54531318,4159,0,0.6496157,0.07956082,-10.293591,0.03484166,-0.014829958,-0.03094376,46.625,78.0,0.0023928226,1114658,-407,4,-555,10785
54635279,5190,0,-0.9157689,1.3381805,-9.612411,-0.025998404,0.017317392,-0.040163834,46.75,78.0,0.0023928226,1114658,420,1862,-1317,-5
54731903,4186,0,-0.55402416,1.3228393,-9.05762,-0.032867298,0.002520584,-0.015935253,46.625,78.0,0.0023928226,1114658,-550,107,-4141,0
54833717,5177,0,-0.2185433,0.56550187,-10.93105,0.044693466,-0.009723427,-0.06712382,46.875,78.0,0.0023928226,1114658,2830,3866,223,8193
54938718,4194,0,-0.6583275,-0.12388055,-11.161585,-0.020467147,0.0029193047,-0.05954108,46.625,78.0,0.0023928226,1114658,419,2410,1166,8193
55038468,5221,0,-1.0126578,0.24239643,-9.855509,0.0142356595,0.00012663245,-0.057320118,46.75,78.0,0.0023928226,1114658,1108,3864,-3376,10804
55141375,4208,0,-0.1547796,0.6497276,-8.483433,-0.013409197,0.0025155419,-0.0312817,46.75,78.0,0.0023928226,1114658,-1602,-303,-5784,10800
55240068,4188,0,-0.24320194,0.6743151,-10.327198,0.022298554,0.012503069,-0.07629299,46.75,78.0,0.0023928226,1114658,1160,3612,-4211,10798
55340868,4170,0,1.9449652,-0.39556858,-9.275547,-0.015968656,-0.017814828,-0.020831127,46.75,78.0,0.0023928226,1114658,1112,-4557,-5187,10792
55442718,4200,0,-0.7644849,-0.6811428,-11.182914,0.0140463775,-0.0100144595,-0.022144403,46.75,78.0,0.0023928226,1114658,1062,3067,-207,8193
55546667,4199,0,0.2672488,1.4772922,-9.870168,0.02212075,0.005691304,-0.055096183,46.625,78.0,0.0023928226,1114658,1639,1906,-2610,8192
55648581,4252,0,-0.11493407,1.3860184,-8.844059,-0.033479303,0.022518124,-0.055949897,46.75,78.0,0.0023928226,1114658,-1756,-314,-6825,10819
55749331,5263,0,0.48547262,-0.25874388,-9.631176,-0.0056215543,-0.028151643,-0.027323497,46.75,78.0,0.0023928226,1114658,577,-154,-2808,-6
55851168,5251,0,0.14539216,-0.7324875,-11.201225,0.016168311,-0.011319024,-0.035681617,46.75,78.0,0.0023928226,1114658,2126,285,4,8193
55951968,4176,0,-1.1043072,-0.022846488,-10.488281,0.018430091,0.010237681,-0.06651196,46.75,78.0,0.0023928226,1114658,803,5085,-859,0
56053839,4221,0,0.17317,0.31948942,-8.183427,-0.026461327,0.02177614,-0.043413922,46.75,78.0,0.0023928226,1114658,-1529,-2025,-8179,-6
56158889,4231,0,-0.55231094,0.031028803,-9.583141,-0.0006232975,0.010243819,-0.06677678,46.75,78.0,0.0023928226,1114658,-588,3137,-7599,8859
56258578,4211,0,0.42602324,-0.07525013,-10.083579,0.030129377,-0.014634718,-0.028477136,46.875,78.0,0.0023928226,1114658,1617,1641,-826,8192
56362518,5159,0,-0.6907628,-0.26412848,-9.943607,-0.029650422,0.0088856695,-0.047192942,46.75,78.0,0.0023928226,1114658,-1005,1230,-2238,8192
56461269,4251,0,-0.4559802,0.65472513,-10.198205,0.00075193215,0.0010862864,-0.069586,46.875,78.0,0.0023928226,1114658,-2064,1080,-2455,8848
56562046,4228,0,-0.07762139,0.96214086,-9.474448,-0.027849704,0.013908545,-0.008109741,46.625,78.0,0.0023928226,1114658,-246,1073,-4292,0
56668068,4200,0,0.5836201,-1.1485928,-9.295553,-0.025176246,0.00012750455,-0.039320156,46.875,78.0,0.0023928226,1114658,-597,-2375,-7514,10832
56765719,5171,0,0.7768615,-0.88806355,-10.786343,-0.020364486,0.00548028,-0.044919033,46.75,78.0,0.0023928226,1114658,535,-2737,-2597,8193
56868618,5242,0,-0.09338111,-0.76927054,-10.573742,0.013999078,0.0045935363,-0.07891901,46.75,78.0,0.0023928226,1114658,2771,4626,-4323,10838
56971518,4200,0,0.8279094,0.6206151,-9.64499,-0.008049076,0.017018305,-0.0388079,46.75,78.0,0.0023928226,1114658,-2160,-3642,-2206,2048
57071272,4204,0,0.12362163,0.82055974,-8.754396,-0.022568066,0.0074978154,-0.04345458,46.75,78.0,0.0023928226,1114658,-875,-2250,-7050,10839
57175218,5226,0,0.71346706,0.06525464,-10.153876,0.034020886,-0.013704554,-0.07416413,46.75,78.0,0.0023928226,1114658,3641,4474,-7636,8192
57278127,4210,0,0.7934081,-1.1185627,-9.156117,-0.025158182,-0.0016399322,-0.054624688,46.625,78.0,0.0023928226,1114658,-845,-4466,-6681,10841
57379980,5261,0,-0.66934586,0.54100055,-8.856119,-0.030900298,0.026695874,-0.024310833,46.5,78.0,0.0023928226,1114658,-2573,367,-4613,2048
57480768,4193,0,-0.15548164,1.6875553,-9.601799,0.02478396,0.0053046616,-0.024067044,46.625,78.0,0.0023928226,1114658,2491,3226,-279,8861
57584718,5216,0,0.5808184,-0.41911262,-9.729337,-0.030014293,-0.01604042,-0.028757488,46.625,78.0,0.0023928226,1114658,1148,-3648,-2453,-5
57683426,4208,0,-0.10138813,-1.1307594,-10.274291,-0.035047267,0.0012790412,-0.07390374,46.75,78.0,0.0023928226,1114658,-202,115,-4246,8193
57784229,4200,0,-0.5617722,-1.1571958,-10.299111,0.025780367,-0.006599695,-0.07136331,46.75,78.0,0.0023928226,1114658,1309,2737,-4822,-5
57888170,4196,0,-0.59454244,1.3282564,-10.086864,-0.0037461296,0.024477256,-0.06736959,46.75,78.0,0.0023928226,1114658,1315,2405,-1247,-5
57986936,4268,0,0.36205435,1.4476539,-9.951747,0.001652884,0.007905812,-0.0693563,46.75,78.0,0.0023928226,1114658,-110,1041,-1707,8884
58090889,4254,0,-0.34336397,0.5469747,-9.790275,0.0019935633,0.001025955,-0.03243446,46.75,78.0,0.0023928226,1114658,318,2808,-217,8879
58191669,4209,0,0.878873,-0.96665925,-11.372803,0.012004791,-0.01602848,-0.03690419,46.75,78.0,0.0023928226,1114658,529,-1370,2237,8875
58293468,4128,0,-0.3799168,-0.5938427,-9.383771,-0.0030543518,0.0023735852,-0.010160254,46.75,78.0,0.0023928226,1114658,-2858,-543,-3950,2048
58392168,4193,0,0.33055228,0.19068015,-9.187858,-0.020411277,0.016986568,-0.011586342,46.875,78.0,0.0023928226,1114658,-322,-2946,-5176,-5
58496159,4241,0,0.65304255,0.8062377,-9.740323,0.018235875,-0.019577188,-0.07516684,46.75,78.0,0.0023928226,1114658,-876,-158,-2078,10870
58596918,4200,0,1.1296031,-0.32279032,-9.860685,-0.029228322,-0.007771181,-0.06425036,46.875,78.0,0.0023928226,1114658,-1077,-3046,-3996,10881
58705111,4243,0,0.17801529,-1.0710888,-9.618138,-0.009148387,-0.004692281,-0.03924867,46.75,78.0,0.0023928226,1114658,-1637,-2149,-2443,8193
58801677,4208,0,-0.7177374,-0.25648063,-10.461644,0.031539284,-0.004879719,-0.0137016615,46.875,78.0,0.0023928226,1114658,524,2716,-658,10871
58905617,4199,0,0.48682338,1.3577847,-8.939525,-0.035071455,0.017413933,-0.049661335,46.875,78.0,0.0023928226,1114658,-152,-2445,-6588,10878
59007495,4226,0,-0.69079834,0.8377491,-10.260156,0.016330281,0.007947161,-0.05857766,46.625,78.0,0.0023928226,1114658,2603,4963,-2896,8192
59110368,4147,0,1.373923,-1.0540111,-10.475933,0.0071825627,-0.02417098,-0.016518125,46.75,78.0,0.0023928226,1114658,934,-3367,-2074,8192
59212218,4200,0,0.49673516,-0.86752117,-8.797101,-0.00694233,0.0011042178,-0.020053906,46.75,78.0,0.0023928226,1114658,-1478,-3914,-7901,8193
59313018,4195,0,0.40744138,0.22042973,-9.292889,-0.032796595,0.00493224,-0.056014337,46.75,78.0,0.0023928226,1114658,-2374,-3363,-3093,10891
59414901,4234,0,-0.028990434,0.8342949,-9.684977,-0.025484037,0.012861663,-0.04212214,46.75,78.0,0.0023928226,1114658,-1572,697,-57,8192
59515766,4298,0,-1.0014093,0.047221214,-10.618758,-0.023214718,0.00096238224,-0.046569623,46.875,78.0,0.0023928226,1114658,399,3846,57,10893
59615417,4190,0,-0.43164214,-1.1226741,-11.110865,-0.026518365,0.005755706,-0.041392814,46.875,78.0,0.0023928226,1114658,-290,1651,800,-5
59721468,4120,0,-0.8810698,-0.12596852,-9.609206,0.029495794,-0.005381239,-0.06001121,46.875,78.0,0.0023928226,1114658,810,2468,-4388,10900
59824368,4200,0,0.70439315,1.3169507,-10.322491,-0.0014983384,0.004419745,-0.039003763,46.75,78.0,0.0023928226,1114658,-452,-2479,1288,10892
59926233,4117,0,1.2449038,0.42822793,-9.808481,-0.026407477,-0.003945341,-0.010684539,46.75,78.0,0.0023928226,1114658,1079,-3626,-1896,10895
60025967,4172,0,0.77936363,-1.4399462,-9.962579,-0.020702107,-0.0038925905,-0.02897143,46.75,78.0,0.0023928226,1114658,-302,-4641,-5672,2049
60124668,4146,0,0.77024424,-1.7596703,-10.06385,0.021932634,-0.017048344,-0.0679564,46.875,78.0,0.0023928226,1114658,-454,653,-5681,8897
60230718,4200,0,-0.61630356,1.2319669,-8.687422,-0.011149482,0.026565121,-0.017382532,46.75,78.0,0.0023928226,1114658,-1062,2067,-6944,8193
60329418,4111,0,-0.12350926,0.6344708,-8.795877,-0.038317963,0.0072683217,-0.046780396,46.75,78.0,0.0023928226,1114658,-1878,-1695,-5696,10902
60431267,4199,0,-0.7010234,1.0066082,-9.478473,-0.0004085317,0.005027685,-0.028961198,46.875,78.0,0.0023928226,1114658,1168,2411,-4011,0
60533158,5290,0,-0.9894297,-0.56376785,-9.598423,0.0018018207,-0.0025372491,-0.02191064,46.875,78.0,0.0023928226,1114658,1914,4227,-3714,-5
60633917,4199,0,-1.7394062,-1.1857132,-9.888627,-0.0009079401,0.0069249067,-0.054945383,46.875,78.0,0.0023928226,1114658,1429,5852,-6338,-5
60735809,4242,0,-0.8375573,0.8629195,-9.638649,0.023897832,0.009747283,-0.02668635,46.875,78.0,0.0023928226,1114658,813,3744,-1258,10911
60840770,4184,0,0.47995165,1.3105989,-10.318087,-0.0030385437,-0.019622868,-0.03490672,46.875,78.0,0.0023928226,1114658,1868,-1849,425,-5
60944718,4170,0,0.587022,-0.70018405,-9.910107,-0.039743613,-0.008287245,-0.061119955,47.0,78.0,0.0023928226,1114658,418,-1656,-4725,8193
61045517,4177,0,0.5957521,-1.2698733,-10.826214,-0.03843607,0.006201224,-0.011966279,46.75,78.0,0.0023928226,1114658,1239,-2846,-1290,10915
61147368,4200,0,-0.40900606,-0.6667771,-9.929957,-0.04160833,0.032843914,-0.037546024,46.75,78.0,0.0023928226,1114658,-3032,-3421,-5345,8192
61249270,5302,0,1.3690418,1.0305432,-9.59775,0.0110126035,-0.004322809,-0.0450135,46.875,78.0,0.0023928226,1114658,1311,-3811,-1574,8902
61354224,4149,0,1.0081968,-0.25176004,-8.998514,0.03294338,-0.014451395,-0.06457988,46.875,78.0,0.0023928226,1114658,573,465,-4642,8192
61454012,4242,0,1.316065,-1.7725061,-9.323035,-0.06087616,0.0030242002,-0.053302255,46.875,78.0,0.0023928226,1114658,78,-6421,-7144,2049
61560042,4203,0,-0.5613238,0.45407444,-8.472,-0.040687177,0.019189695,-0.029691238,46.75,78.0,0.0023928226,1114658,-547,-2045,-6569,10922
61660818,4173,0,1.338044,1.0245321,-10.078138,0.016240712,0.003249832,-0.05422309,46.875,78.0,0.0023928226,1114658,-96,-4026,-2393,8922
61760568,5251,0,-1.094614,2.1716084,-8.58001,0.020357955,0.0055533526,-0.019791998,47.0,78.0,0.0023928226,1114658,2093,5438,-3795,8911
61863468,4201,0,-0.9226372,-0.19471285,-10.031363,0.026587866,-0.0057936213,-0.02039445,46.875,78.0,0.0023928226,1114658,848,7260,-814,-5
61965347,5279,0,-1.0606235,-1.3267512,-10.250953,-0.04073301,0.012154748,-0.0609441,46.875,78.0,0.0023928226,1114658,-564,1376,-4284,10936
62064018,4175,0,0.42069587,-1.5110556,-10.405248,0.023428002,-0.006817835,-0.014455278,46.875,78.0,0.0023928226,1114658,-195,-2648,-3268,10948
62170170,5352,0,1.6974558,1.0031056,-9.73261,-0.003932744,-0.0045316545,-0.021831153,46.875,78.0,0.0023928226,1114658,-1230,-4792,191,10940
62266667,4200,0,-1.2939463,1.7033188,-8.737826,-0.0027022618,0.014820907,-0.032118488,46.875,78.0,0.0023928226,1114658,268,4493,-4622,8192
62372718,4157,0,0.29134762,-1.2803966,-10.020615,0.037444707,-0.013984737,-0.02685454,46.875,78.0,0.0023928226,1114658,1326,1153,-4110,8193
62471417,4199,0,1.2680339,-1.6568002,-9.749865,-0.03383344,0.0059091537,-0.04707327,46.875,78.0,0.0023928226,1114658,-883,283,-5084,0
62573339,5321,0,-1.2408147,-0.30158466,-10.111045,-0.038975094,0.01868919,-0.021194104,47.0,78.0,0.0023928226,1114658,-96,-385,-1630,10942
62676196,4224,0,-0.62333703,1.4396607,-8.960709,-0.010825334,0.019686466,-0.064042196,47.0,78.0,0.0023928226,1114658,-1311,3437,-4094,-5
62775918,4194,0,-0.4578204,0.51095825,-9.922394,-0.028200574,0.006257835,-0.044553842,46.875,78.0,0.0023928226,1114658,-532,630,-2280,8192
62878880,4262,0,-1.0658572,-0.7488586,-9.208443,-0.012683599,0.0060569257,-0.03837643,46.875,78.0,0.0023928226,1114658,368,3657,-8218,8928
62980673,4098,0,-0.7877509,-0.6310746,-9.998619,0.011011172,0.0060706353,-0.056039114,47.0,78.0,0.0023928226,1114658,611,4441,-3202,8925
63081468,4076,0,-1.2060893,0.7321343,-10.044037,0.0073484117,0.0025292945,-0.033043075,46.875,78.0,0.0023928226,1114658,342,5131,859,10950
63185424,4155,0,0.37366104,1.2981713,-8.866085,0.020254532,-0.012850295,-0.05277,46.875,78.0,0.0023928226,1114658,2704,-1578,-9094,10965
63286217,4121,0,1.3329339,0.11252528,-10.102173,-0.006438941,-0.01673952,-0.06250403,47.0,78.0,0.0023928226,1114658,-894,-2675,-3315,10948
63388068,4200,0,1.0931948,-1.18576,-10.93374,-0.019119801,-0.0016594412,-0.027694406,46.875,78.0,0.0023928226,1114658,-227,-1657,1753,-5
63488869,4201,0,-0.35788384,-1.4992616,-10.467557,-0.03940886,0.008039292,0.0031016176,46.875,78.0,0.0023928226,1114658,-2371,-1446,686,2048
63590728,5260,0,-0.8198969,0.4816881,-8.664331,-0.029966079,0.0331243,-0.035309415,47.0,78.0,0.0023928226,1114658,-2922,926,-6267,-5
63695768,4251,0,-0.94277966,1.6357839,-9.86304,0.018744271,-0.0021199426,-0.032153163,47.0,78.0,0.0023928226,1114658,2178,6625,1473,8193
63796560,4237,0,-0.6175232,-0.26907498,-9.323083,0.01775549,0.0041888794,-0.036017947,47.0,78.0,0.0023928226,1114658,965,5358,-7702,10970
63898409,4238,0,-1.3136376,-0.94968903,-10.755644,0.006660541,-0.0008628201,-0.041669983,47.0,78.0,0.0023928226,1114658,2453,3543,-2577,8930
63997068,4200,0,0.8527153,-1.500583,-10.089539,-0.018777376,0.0015977009,-0.008014783,47.0,78.0,0.0023928226,1114658,-567,-4771,-3764,8193
64098947,4228,0,0.3823509,0.27081895,-10.269341,0.030938696,0.0005243683,-0.062535614,46.875,78.0,0.0023928226,1114658,-603,705,-562,10969
64199723,6277,0,-1.5323954,1.8401624,-9.259605,-0.028460545,0.02486981,-0.03867863,47.0,78.0,0.0023928226,1114658,-180,5977,-3041,10972
64303716,4216,0,-0.4216441,0.2855947,-9.308129,-0.0040178886,-0.0020988584,-0.034253687,46.875,78.0,0.0023928226,1114658,-511,6626,-6191,10977
64407645,4228,0,-1.7723088,-1.4795634,-9.564725,0.0010653307,-0.0017653056,-0.043693643,47.0,78.0,0.0023928226,1114658,2017,4566,-10407,10985
64508489,4272,0,0.7954775,-1.0610169,-10.748796,-0.03496488,0.021199139,-0.0026286968,47.0,78.0,0.0023928226,1114658,-2245,-5659,-1315,8925
64609269,4242,0,-0.7868667,1.1417199,-9.320803,0.052786343,-0.0032155574,-0.06182392,46.875,78.0,0.0023928226,1114658,2063,6258,-4166,8929
64711098,4119,0,-0.5250142,1.3732003,-8.770922,-0.03526324,0.012935848,-0.021344092,47.0,78.0,0.0023928226,1114658,-674,1170,-4087,10986
64812923,5205,0,1.4075817,0.72286695,-10.462214,0.052456833,-0.021598494,-0.061796527,46.875,78.0,0.0023928226,1114658,3277,491,-1793,-6
64916868,4191,0,-0.76268786,-1.0534701,-9.824376,0.045993727,0.0011338531,-0.060483783,46.875,78.0,0.0023928226,1114658,1486,6015,-6356,2048
65018760,4242,0,0.9400523,-0.09303665,-9.032299,-0.04120406,0.018226802,-0.032423478,47.0,78.0,0.0023928226,1114658,-2607,-5150,-1904,2049
65118468,4196,0,-1.8261461,2.2118545,-9.370818,-0.0028504352,0.012731019,-0.05307683,46.875,78.0,0.0023928226,1114658,-141,6699,-650,11010
65217168,4191,0,-0.09761339,1.8147686,-8.820833,0.0502226,-0.015589935,-0.035703257,47.0,78.0,0.0023928226,1114658,2273,3829,-3188,2048
65320068,4200,0,-1.678936,0.5705259,-10.333224,-0.025909238,-0.0040624826,-0.008752321,47.0,78.0,0.0023928226,1114658,2206,2710,-506,10992
65421918,4200,0,2.3248756,-1.3722786,-11.018849,0.01686902,-0.013444219,-0.05864464,46.875,78.0,0.0023928226,1114658,174,-4445,299,0
65523768,5251,0,-2.2759686,-0.60505944,-9.239718,-0.001248355,0.008625119,-0.070903584,47.0,78.0,0.0023928226,1114658,27,6117,-7851,10997
65625618,5251,0,1.0642083,0.53279805,-8.783136,-0.032958705,0.0199842,-0.021070179,46.875,78.0,0.0023928226,1114658,-760,-5245,-6474,-5
65726418,4185,0,-0.70459485,2.2325296,-9.381689,0.031860817,-0.0058446415,-0.03666672,47.0,78.0,0.0023928226,1114658,4354,4554,-4519,-5
65827250,4219,0,1.0617176,0.11477176,-10.22747,-0.010370303,-0.013673328,-0.08135266,46.875,78.0,0.0023928226,1114658,-256,-4671,-3161,-5
65929067,4199,0,-0.86593574,-0.8340315,-9.326246,0.022185555,0.0015284074,-0.039875638,47.0,78.0,0.0023928226,1114658,1654,5389,-10244,8193
66029873,4205,0,0.98546064,-1.3057498,-10.464929,-0.029476766,-0.0024017368,-0.017463904,47.0,78.0,0.0023928226,1114658,-2310,-6176,-1572,8193
66133818,4197,0,-0.031585928,2.3353908,-9.009734,0.062021665,-0.00016430278,-0.020728527,47.0,78.0,0.0023928226,1114658,2496,3889,-2943,11007
66234618,6274,0,1.4401971,0.87261194,-9.384801,-0.025265334,0.0051628132,-0.07676864,47.0,78.0,0.0023928226,1114658,-216,-1930,461,11024
66336541,5304,0,0.50338304,0.0811626,-8.993357,0.05509891,-0.008460067,-0.07928361,47.125,78.0,0.0023928226,1114658,2111,3850,-9873,11016
66437360,4293,0,1.9557488,-1.5096078,-10.369826,-0.030162109,0.0013806333,-0.036404554,47.125,78.0,0.0023928226,1114658,-1854,-7214,-2488,11018
66539159,4191,0,-2.6471882,0.3763425,-9.657842,0.024592586,0.0023669722,-0.025302866,47.0,78.0,0.0023928226,1114658,1416,8532,-2074,8949
66643076,5259,0,0.15995756,1.4454982,-9.761554,-0.060926925,0.016088707,-0.06388162,47.0,78.0,0.0023928226,1114658,422,-4201,-2824,11030
66743888,4141,0,-0.8849096,1.0605936,-8.361795,0.03554029,-0.006191921,-0.027522467,47.0,78.0,0.0023928226,1114658,2478,6246,-9018,-5
66848868,4194,0,-1.0959417,-0.87023157,-10.05148,-0.028924977,-0.0018020439,0.0074092466,47.0,78.0,0.0023928226,1114658,264,2514,-3426,11033
66950718,4200,0,0.90755457,-0.97056836,-10.8260145,0.026024546,-0.0019452175,-0.05579053,47.125,78.0,0.0023928226,1114658,-38,-942,560,8193
67047317,4158,0,1.605633,-0.9159641,-10.698946,-0.008631034,-0.0059724506,-0.02732719,47.125,78.0,0.0023928226,1114658,-1975,-4311,-682,11027
67153388,4221,0,1.0702227,1.5865777,-8.760811,0.034888245,-0.016117528,-0.026907705,47.0,78.0,0.0023928226,1114658,2761,-459,-5410,8952
67255218,4200,0,-0.34364748,-0.30169988,-10.970566,-0.048251964,0.00022714667,-0.05391152,46.875,78.0,0.0023928226,1114658,1613,-1732,910,-5
67358194,4276,0,1.5876231,-1.1421725,-10.853115,0.016297476,-0.0039481837,-0.07208502,47.125,78.0,0.0023928226,1114658,-622,-4314,-2982,8192
67459968,4200,0,-3.507921,0.0011836576,-8.784942,-0.03808531,0.016482996,-0.03731871,47.0,78.0,0.0023928226,1114658,-1462,4732,-4510,8943
67562941,4274,0,-0.44566995,1.1421027,-8.908254,-0.0043990626,0.00058125606,-0.03529051,47.0,78.0,0.0023928226,1114658,-1254,-5310,-5255,11033
67664725,4185,0,-0.4402216,0.7883293,-8.865729,0.039934635,-0.014494118,-0.027033027,47.0,78.0,0.0023928226,1114658,2818,5200,-5326,-5
67765540,4140,0,0.97268915,-1.2859558,-11.572933,-0.030937407,-0.008502828,-0.055691626,47.0,78.0,0.0023928226,1114658,808,-4316,624,11048
67867367,4199,0,-2.193713,-0.9690659,-10.091354,0.02213689,0.007574008,-0.061593104,47.125,78.0,0.0023928226,1114658,1499,7666,-5881,2049
67968167,4199,0,0.3022168,0.08961834,-9.331105,0.030505497,0.00601517,-0.0680544,47.0,78.0,0.0023928226,1114658,-1270,-1037,-5413,8192
68070069,4223,0,-1.040345,1.7660723,-8.331419,-0.029927587,0.016333891,-0.022836674,47.0,78.0,0.0023928226,1114658,-1593,1418,-3782,8941
68168718,4159,0,-2.1025257,2.16735,-9.243964,0.0016186362,-0.003204881,-0.02141998,47.0,78.0,0.0023928226,1114658,1902,6928,-2786,8193
68274768,4200,0,0.754051,-1.2083968,-10.088896,-0.0690932,-0.0041773054,-0.036514286,47.125,78.0,0.0023928226,1114658,411,-5120,-4668,-5
68376618,5250,0,-2.9565156,-1.1355374,-9.191336,-0.0014868634,0.00807507,-0.025858054,47.0,78.0,0.0023928226,1114658,-1848,6474,-4332,11060
68479536,4218,0,2.249361,1.1539056,-9.401145,-0.044706773,0.02317941,-0.034347016,47.0,78.0,0.0023928226,1114658,-1690,-6974,-4373,2049
68579268,4150,0,-2.1225173,1.2194152,-10.677993,-0.04120626,0.0029198276,-0.023353683,47.125,78.0,0.0023928226,1114658,-533,2898,1790,8192
68683218,5250,0,1.0521326,-0.18884628,-10.090132,0.05807174,-0.017749695,-0.04765294,47.125,78.0,0.0023928226,1114658,1949,5272,-5534,2049
68784017,4199,0,2.5000362,-1.7062417,-10.578904,-0.0072522443,-0.0060660066,-0.037243236,47.125,78.0,0.0023928226,1114658,-1968,-6559,-3202,11056
68885868,4157,0,-2.3503103,-0.012673423,-9.737423,-0.05176761,0.012195271,-0.01085164,47.0,78.0,0.0023928226,1114658,-1445,2521,-182,0
68986671,4193,0,-2.149408,1.3399639,-9.221845,0.018972935,0.0013238932,-0.03371957,47.0,78.0,0.0023928226,1114658,1967,8264,-2834,11070
69088568,4251,0,1.2203029,1.1773744,-9.755621,0.037141994,-0.014626509,-0.071852066,47.0,78.0,0.0023928226,1114658,1686,-2131,-4171,11076
69188267,5249,0,2.4347262,-0.49494472,-9.959005,0.000677892,-0.007349088,-0.08749516,47.0,78.0,0.0023928226,1114658,204,-5279,-5604,8192
69291168,4200,0,-1.4171318,-1.1433634,-10.836114,-0.033026986,0.0040184446,-0.040556733,46.875,78.0,0.0023928226,1114658,-274,3120,-839,2049
69390968,4250,0,-2.594812,-0.022314912,-9.4616585,0.0086959535,0.014962349,-0.04395899,47.125,78.0,0.0023928226,1114658,176,6461,-7685,8949
69494940,5323,0,1.5650373,1.6584162,-9.918559,0.02328798,0.007253646,-0.09055147,47.125,78.0,0.0023928226,1114658,271,-3888,-2312,11066
69595748,4280,0,-0.95286655,0.7313764,-10.162487,-0.055719666,0.010309943,-0.048332445,47.125,78.0,0.0023928226,1114658,1307,-632,-1833,11073
69699686,5317,0,1.2001672,-0.65007037,-10.624356,0.054099593,-0.0034861253,-0.087343656,47.0,78.0,0.0023928226,1114658,2505,7509,-6959,8949
69800504,4286,0,0.7463605,-0.039774712,-9.636007,0.012160577,0.012727709,-0.06668572,47.0,78.0,0.0023928226,1114658,-429,-4390,-8962,8949
69902270,4110,0,0.10920959,1.1463443,-9.0849,-0.04133385,0.021101084,-0.01652077,47.0,78.0,0.0023928226,1114658,-494,-3167,-5331,11085
70007268,4200,0,1.3679196,0.023593182,-9.087163,-0.0012592834,-0.016181763,-0.055480305,47.0,78.0,0.0023928226,1114658,365,-4987,-7556,11091
70104918,4184,0,0.79515326,-0.2882924,-11.006685,-0.0422288,-0.009287678,-0.04743824,47.0,78.0,0.0023928226,1114658,2206,-4867,-1204,8937
70205718,4169,0,-1.7600636,-1.9230007,-9.40835,0.012755909,0.0013165101,-0.053717952,47.125,78.0,0.0023928226,1114658,664,6277,-6811,8193
70307581,4214,0,1.6630235,-0.9421214,-10.368576,-0.029102629,0.011990886,-0.029283244,47.125,78.0,0.0023928226,1114658,-2163,-5852,-1506,-6
70409418,5250,0,-2.2742665,2.236435,-9.22491,0.035137054,0.011950876,-0.032336682,47.0,78.0,0.0023928226,1114658,2073,7812,-1608,11103
70512361,4202,0,-0.6442817,0.70253885,-9.585976,-0.033770286,0.0074109337,-0.049034324,47.0,78.0,0.0023928226,1114658,469,730,-3324,2049
70614209,5291,0,1.9464699,-0.47540385,-9.63523,0.033455186,-0.021011526,-0.043347057,47.0,78.0,0.0023928226,1114658,1466,-1843,-4610,-6
70716018,5250,0,-1.742814,-1.1197217,-10.123882,0.028251696,-0.0043164818,-0.059499387,47.0,78.0,0.0023928226,1114658,1364,7997,-2539,2049
70816854,4236,0,0.75842756,0.05591625,-9.538318,-0.034662165,0.016693102,-0.008881414,47.125,78.0,0.0023928226,1114658,-797,-3863,-2637,11104
70922940,4250,0,-0.15991217,1.0517393,-9.949152,-0.043869838,0.011010101,-0.0010650079,47.0,78.0,0.0023928226,1114658,-740,-1345,-315,11086
71023755,4211,0,1.4771014,-0.0023900967,-9.623112,-0.009999736,-0.021307062,-0.07216793,47.0,78.0,0.0023928226,1114658,-623,-4013,-5318,11095
71123418,4200,0,0.9726628,-0.34281728,-10.696274,0.041414045,-0.009546677,-0.05021424,47.125,78.0,0.0023928226,1114658,4087,2675,-1105,-5
71224217,4200,0,-1.7460953,-1.2768764,-9.701622,-0.03734483,0.012893284,-0.024824228,47.125,78.0,0.0023928226,1114658,-728,2865,-5691,8193
71328185,4217,0,-1.5977993,1.4673954,-9.152788,-0.013312813,0.019140666,-0.0101372,47.125,78.0,0.0023928226,1114658,-764,4754,-2238,-5
71426940,6372,0,1.1788589,0.69196916,-9.881935,0.013889684,-0.0040808166,-0.041785587,47.0,78.0,0.0023928226,1114658,-2050,-5202,-1522,11106
71528718,5250,0,0.89662516,1.5611955,-9.623017,-0.0047242353,-0.0072403434,-0.07877022,47.0,78.0,0.0023928226,1114658,1601,-4394,-5840,8193
71630568,5245,0,1.6436136,-0.3458823,-10.372056,0.014935204,-0.025946617,-0.032311276,47.125,78.0,0.0023928226,1114658,12,-2610,139,-5
71731368,4200,0,0.67264724,-1.772572,-10.687438,0.03182219,-0.013864445,-0.06766427,47.125,78.0,0.0023928226,1114658,-239,360,-3834,-5
71836367,4200,0,0.842456,-0.47523656,-9.5719,-0.0219163,0.01522949,-0.008711117,47.125,78.0,0.0023928226,1114658,-2215,-4830,-3901,2049
71938219,4099,0,0.80398154,1.4244668,-10.297027,-0.0070941593,0.0060405107,-0.050989594,47.125,78.0,0.0023928226,1114658,-1672,-3478,-520,11108
72044268,4201,0,-0.76835674,0.09477032,-9.874528,-0.0046901098,0.0024739425,-0.06529381,47.125,78.0,0.0023928226,1114658,2482,5609,-6530,11109
72140867,4199,0,0.89118326,-1.2225735,-10.082538,-0.010221755,-0.0067277527,-0.054353822,47.0,78.0,0.0023928226,1114658,-1760,-1939,-3352,11129
72246940,4223,0,-1.1169684,0.60299945,-8.948538,0.005475368,0.020760087,-0.042691123,47.125,78.0,0.0023928226,1114658,539,5358,-5478,11123
72347744,4227,0,-1.3683624,1.4902723,-9.132714,-0.020528581,0.036047753,-0.060255498,47.25,78.0,0.0023928226,1114658,-1540,2327,-6326,11118
72447467,4199,0,0.29232514,0.79957473,-9.713667,-0.03695101,0.012667199,-0.05491047,47.125,78.0,0.0023928226,1114658,-1460,-2062,-3381,11120
72551418,5232,0,-1.128926,0.24176164,-9.66128,-0.021878665,-0.003970799,-0.026868086,47.125,78.0,0.0023928226,1114658,493,4588,363,8192
72650163,4246,0,1.165952,-1.2198737,-10.372255,-0.028580826,0.0007322508,-0.007972123,47.0,78.0,0.0023928226,1114658,-1413,-3548,-1200,11126
72749871,5253,0,1.5644915,-1.4990212,-10.877445,-0.002259372,-0.009546933,-0.030749284,47.25,78.0,0.0023928226,1114658,-1722,-4442,-361,8193
72852804,5287,0,0.7105267,0.15885572,-8.988225,-0.021295592,0.010940639,-0.04215096,47.25,78.0,0.0023928226,1114658,-1328,-4769,-6092,8970
72954619,5226,0,-0.69847864,1.7165712,-9.089537,-0.021052979,0.011480676,-0.052690484,47.0,78.0,0.0023928226,1114658,-2149,-2911,-5739,-6
73055432,4214,0,0.45534083,0.37557596,-9.458719,-0.035610944,-0.0007572243,-0.053450085,47.125,78.0,0.0023928226,1114658,-1328,-2436,-5822,8193
73157316,4213,0,0.47027975,-1.2564843,-9.314518,-0.033802148,-0.00063845457,-0.04998255,47.125,78.0,0.0023928226,1114658,-576,-2400,-9795,11129
73260215,4247,0,-2.0564282,-0.21337047,-9.342026,-0.025031306,0.014513368,-0.056522213,47.125,78.0,0.0023928226,1114658,-758,3952,-7120,8970
73362045,4227,0,-0.02388086,1.6610374,-9.133562,0.0100493375,0.01313106,-0.072193496,47.25,78.0,0.0023928226,1114658,-104,2238,-6707,-6
73462927,4310,0,-0.6063014,1.3746964,-8.877227,0.02662021,0.0015581413,-0.060302187,47.0,78.0,0.0023928226,1114658,365,3401,-7190,8986
73564691,4144,0,1.5238166,0.06316502,-9.326356,0.044493802,-0.01273401,-0.054118574,47.125,78.0,0.0023928226,1114658,1951,-671,-6906,11131
73665468,6299,0,0.60098046,-0.46273518,-10.460957,0.021212272,-0.01440398,-0.0419767,47.125,78.0,0.0023928226,1114658,795,-1112,-1498,8192
73771527,4208,0,-0.23401484,0.9502234,-9.438443,-0.0013812872,0.012007804,-0.06477846,47.25,78.0,0.0023928226,1114658,-562,2734,-5950,8192
73870257,4211,0,-1.076857,1.5211357,-9.892854,0.023925494,0.014251495,-0.023343422,47.25,78.0,0.0023928226,1114658,245,4789,-1906,-6
73974175,4208,0,1.5388088,0.3699692,-9.66543,-0.010068735,-0.018820848,-0.015394551,47.125,78.0,0.0023928226,1114658,116,-4993,-1906,8192
75092469,4251,0,-0.378464,-1.0976328,-10.874606,0.0168073,0.0035618446,-0.0802976,47.125,78.0,0.0023928226,1114658,1711,4031,-4011,9001
75196378,4199,0,-0.08630773,0.1189832,-10.026878,-0.021524733,0.016006054,-0.058080867,47.125,78.0,0.0023928226,1114658,-1266,-679,-3984,2049
75296161,5192,0,-0.8830536,0.79280996,-8.573241,-0.028881814,0.018903604,-0.04374613,47.125,78.0,0.0023928226,1114658,-2086,2998,-5029,11167
75396921,4203,0,0.7046442,1.5706903,-9.878262,0.040381424,-0.0059960647,-0.030383913,47.125,78.0,0.0023928226,1114658,2439,1159,-1364,2048
75500868,5198,0,-0.5890944,-0.8595758,-9.111689,-0.036396228,-0.008650565,-0.019350868,47.25,78.0,0.0023928226,1114658,87,-3600,-1648,2049
75601668,4196,0,-0.7464621,-0.5348131,-10.312547,-0.0030179573,0.008376462,-0.03693299,47.25,78.0,0.0023928226,1114658,-1224,4993,1726,2049
75703518,4200,0,-0.9164553,1.1282722,-10.055442,-0.004198076,0.018164909,-0.0725048,47.125,78.0,0.0023928226,1114658,-971,3446,-4432,11191
75802243,4197,0,-0.9766024,1.3787326,-9.261216,0.021267382,0.014069925,-0.01804853,47.25,78.0,0.0023928226,1114658,27,4248,-4613,11185
75906171,4204,0,1.5244418,0.053157344,-9.570809,0.008274126,-0.028933866,-0.024709094,47.375,78.0,0.0023928226,1114658,1509,-4228,-2440,11182
76012218,5206,0,-1.0662141,-0.5754842,-9.370827,0.0051729213,0.0121620605,-0.05578986,47.125,78.0,0.0023928226,1114658,-508,4475,-6695,8193
76110936,4207,0,0.071115695,0.39081424,-10.012901,-0.011941474,0.0196559,-0.024493469,47.125,78.0,0.0023928226,1114658,777,1306,-2661,9004
76214937,4269,0,0.5921176,2.0044258,-9.710693,0.026771141,-0.011615683,-0.024557404,47.125,78.0,0.0023928226,1114658,1899,-260,1272,9002
76315741,4273,0,1.941326,0.45839053,-10.426066,0.020973299,-0.014683467,-0.048941888,47.125,78.0,0.0023928226,1114658,2334,-3480,-1171,11194
76415418,5219,0,1.2864131,-0.9968688,-9.94872,0.0144466,-0.028281698,-0.079152904,47.25,78.0,0.0023928226,1114658,859,-1969,-4895,-6
76518342,4190,0,0.8402703,-1.5972568,-9.965214,-0.016957965,0.014678291,-0.05448122,47.25,78.0,0.0023928226,1114658,-3594,-3307,-5283,2049
76617017,4199,0,0.9680621,-0.5270801,-9.334172,0.005625426,-0.013794036,-0.043671224,47.125,78.0,0.0023928226,1114658,-1033,-3096,-4861,-6
76718977,4310,0,1.2265773,1.2908394,-8.527034,0.0078103244,-0.008524406,-0.035386156,47.125,78.0,0.0023928226,1114658,-828,-4200,-4886,11194
76821826,4249,0,0.5844237,0.38427383,-9.467422,-0.036965765,0.011956687,-0.052408338,47.125,78.0,0.0023928226,1114658,-519,-820,-5016,0
76924694,4138,0,-1.7574613,-0.50741875,-10.6905985,-0.036975913,0.011370305,-0.043343153,47.375,78.0,0.0023928226,1114658,967,2078,-3235,-6
77026517,4199,0,-1.0148445,-0.85892147,-10.620466,-0.03558162,0.008381121,-0.039052542,47.125,78.0,0.0023928226,1114658,795,1950,-528,11197
77128368,4159,0,-0.7989326,0.8968293,-9.441317,-0.0315922,0.014004105,-0.0056204638,47.25,78.0,0.0023928226,1114658,-426,161,-2924,-6
77229170,4173,0,0.9521735,1.1123651,-9.748857,-0.013976578,-0.0022233902,-0.015286013,47.125,78.0,0.0023928226,1114658,-1722,-3721,-3362,2049
77331018,5214,0,1.7249506,1.1977482,-9.4546385,0.02210633,-0.017055465,-0.055820752,47.25,78.0,0.0023928226,1114658,329,-2901,-4501,11193
77437073,4204,0,0.18499218,-1.5950372,-10.1205015,-0.045310672,-0.005567148,-0.018329961,47.25,78.0,0.0023928226,1114658,312,-2842,-4175,8193
77535812,4245,0,1.5427274,-1.630786,-10.41112,0.028801672,-0.018935172,-0.02722882,47.25,78.0,0.0023928226,1114658,948,-830,-2886,11215
77637618,5250,0,-0.9829398,-0.5572413,-10.131179,0.047329187,-0.004651617,-0.084172934,47.125,78.0,0.0023928226,1114658,-167,3239,-4754,-6
77738417,4185,0,-0.3746188,2.4148254,-10.045278,0.028228935,0.013290324,-0.046099614,47.25,78.0,0.0023928226,1114658,2488,4355,-2141,2049
77840268,4200,0,-0.6599627,2.1691146,-9.189112,0.0030937707,0.008657549,-0.022108868,47.25,78.0,0.0023928226,1114658,1518,4607,-3374,2048
77941068,4200,0,-0.28150812,-0.09148668,-9.745406,-0.030080194,0.001791591,-0.021175854,47.25,78.0,0.0023928226,1114658,343,3694,-5091,-6
78042959,4241,0,0.4522738,-1.3208071,-10.054772,-0.054703664,0.0016632351,-0.05374164,47.25,78.0,0.0023928226,1114658,157,-3662,-6380,-6
78145865,4206,0,0.5690188,-0.98668903,-11.122764,-0.039765026,0.012289173,-0.029233098,47.125,78.0,0.0023928226,1114658,-1315,-2957,695,9010
78247774,4305,0,1.3065114,0.49973565,-9.526423,-0.0067670117,0.004125126,-0.036766555,47.25,78.0,0.0023928226,1114658,-2689,-5164,-2143,11236
78347418,5216,0,-0.74205434,2.7063642,-8.415128,0.008670908,0.005014286,-0.044440266,47.25,78.0,0.0023928226,1114658,875,4005,-6670,8192
78452469,4243,0,-0.4746317,0.41172642,-10.617535,0.02703184,0.011380891,-0.057256963,47.25,78.0,0.0023928226,1114658,2592,7729,-1873,9032
78553269,4251,0,-0.25519007,-1.6076527,-11.113661,-0.043440454,-0.00018206483,-0.033121265,47.25,78.0,0.0023928226,1114658,-449,-1420,2078,9018
78655067,4150,0,1.8308487,-1.4663273,-10.507416,-0.011432344,-0.00406892,-0.018560113,47.25,78.0,0.0023928226,1114658,-1739,-4987,-729,8193
78756922,5155,0,0.9596437,-0.08289452,-8.666659,0.04958261,-0.0025237815,-0.027153464,47.25,78.0,0.0023928226,1114658,1785,4336,-3749,11243
78857722,4204,0,-1.3203348,2.4002297,-8.322316,-0.03346503,0.02057906,-0.008285559,47.25,78.0,0.0023928226,1114658,462,3847,-3413,8193
78961668,5199,0,-0.73375124,0.9060309,-9.146778,-0.04644152,0.0007175174,-0.05462465,47.375,78.0,0.0023928226,1114658,-22,-1760,-4393,8192
79064593,4211,0,1.0585458,-1.0369662,-11.116133,-0.039165836,0.008336245,-0.02819359,47.25,78.0,0.0023928226,1114658,1217,-4240,-1648,11244
