timestamp,integral_dt,error_count,x,y,z,x_integral,y_integral,z_integral,temperature,range_m_s2,scaling,device_id,x_raw,y_raw,z_raw,temperature_raw
32060226,4006,0,0.18780561,0.5044277,-9.647033,0.0017645017,0.0027424041,-0.039668776,70.39058,156.9064,0.0047884034,1442826,51,-109,2111,12776
32160219,3998,0,0.17647168,0.09458995,-9.6953745,-0.00032584346,0.004092074,-0.04015508,70.39335,156.9064,0.0047884034,1442826,-231,56,1876,12777
32264236,4017,0,-0.047789764,0.19702819,-9.896546,0.00024913298,-0.0012653314,-0.04029535,70.38227,156.9064,0.0047884034,1442826,-73,-45,1932,12773
32365819,3985,0,0.040568143,0.7876413,-9.500457,0.0049132747,0.0062703365,-0.040714137,70.39889,156.9064,0.0047884034,1442826,-99,-238,2098,12779
32465820,3999,0,-0.091348186,-1.8731825,-9.491915,-0.005865652,-0.0023540198,-0.038748644,70.38781,156.9064,0.0047884034,1442826,-115,245,2080,12775
32569833,4014,0,-0.23874244,-1.010201,-9.477199,-0.004828641,-0.0075653787,-0.045801736,70.437675,156.9064,0.0047884034,1442826,97,115,2470,12793
32669819,3951,0,-0.2568781,-0.50949454,-9.765536,-0.002546217,-0.0066352757,-0.04188016,70.38227,156.9064,0.0047884034,1442826,91,-2,2211,12773
32773823,3997,0,0.17628203,-0.7053393,-9.966842,0.0068197716,0.006107808,-0.034083046,70.41274,156.9064,0.0047884034,1442826,-370,-428,1992,12784
32873858,4039,0,0.5716682,0.21902303,-9.588219,0.0047823037,0.009449016,-0.03274513,70.401665,156.9064,0.0047884034,1442826,-616,-116,1994,12780
32973820,4000,0,0.6077076,1.1804094,-9.459035,-0.001733518,0.003722933,-0.039438963,70.37673,156.9064,0.0047884034,1442826,1,251,2087,12771
33075419,3999,0,0.015729912,0.18576527,-9.814953,-0.0022716038,-0.00775032,-0.040004328,70.404434,156.9064,0.0047884034,1442826,413,193,2480,12781
33175419,4000,0,-0.34394267,-0.6481662,-9.938669,0.00038522898,0.0001314177,-0.035097435,70.38227,156.9064,0.0047884034,1442826,-113,-229,1923,12773
33279419,3955,0,0.8176352,0.7753383,-9.584974,0.005465278,0.0018957476,-0.04083571,70.41828,156.9064,0.0047884034,1442826,140,-70,1995,12786
33379433,4014,0,0.66700345,0.23588356,-9.754457,-0.0068853716,-0.0057220836,-0.04021608,70.45152,156.9064,0.0047884034,1442826,502,488,1957,12798
33483473,4047,0,-0.47228166,-0.2725882,-9.906123,0.008407969,0.0046853675,-0.039598376,70.41551,156.9064,0.0047884034,1442826,-205,-587,1986,12785
33583419,3999,0,1.1909738,0.9705104,-9.600819,0.0051641054,0.004145859,-0.039074216,70.41551,156.9064,0.0047884034,1442826,108,140,1634,12785
33683419,4000,0,0.15497905,0.42343035,-9.699301,-0.006466469,-0.008568708,-0.04305436,70.476456,156.9064,0.0047884034,1442826,451,360,2032,12807
33785019,4000,0,-0.31060082,-1.026296,-10.059713,0.0052000396,0.0038049286,-0.037441898,70.46537,156.9064,0.0047884034,1442826,-62,-402,2037,12803
33889019,4000,0,0.762532,1.1858522,-9.394659,-0.0023522135,0.0037294654,-0.04265397,70.45429,156.9064,0.0047884034,1442826,126,238,2434,12799
33989019,4000,0,-0.0730854,-0.11168388,-9.91429,-0.0023605176,-0.007085616,-0.038668774,70.45706,156.9064,0.0047884034,1442826,502,331,2359,12800
34089053,4034,0,-0.5719423,-0.24980548,-9.8337755,0.005768772,0.0018734573,-0.03659576,70.46537,156.9064,0.0047884034,1442826,-297,-403,1706,12803
34193062,4029,0,1.1736206,0.4320456,-9.672795,-0.003358204,-0.005261597,-0.040362965,70.45429,156.9064,0.0047884034,1442826,580,522,2049,12799
34293019,4000,0,-0.9409925,-0.87794423,-9.87259,-0.0064806743,-0.0035865614,-0.038564295,70.45429,156.9064,0.0047884034,1442826,-346,-150,2101,12799
34397020,4001,0,1.3187362,1.1043075,-9.382446,0.00475803,0.004319958,-0.034687508,70.45983,156.9064,0.0047884034,1442826,112,190,1960,12801
34497819,4000,0,-0.022563085,0.52768725,-9.727327,-0.007319973,-0.0068219146,-0.04269749,70.484764,156.9064,0.0047884034,1442826,616,277,2386,12810
34597819,3967,0,-0.31300187,-0.9146605,-10.025978,0.0048358953,-0.0006001831,-0.039164495,70.484764,156.9064,0.0047884034,1442826,-168,-373,1836,12810
34697819,4000,0,0.6322192,0.5224597,-9.566715,0.0023915689,0.0068989135,-0.036620647,70.476456,156.9064,0.0047884034,1442826,-170,-55,1755,12807
34801819,4000,0,-0.08668864,-0.47050217,-9.9130335,-0.0076562637,-0.007991124,-0.041008692,70.46814,156.9064,0.0047884034,1442826,90,314,1994,12804
34901819,4000,0,-0.56284976,-0.15722156,-9.740581,0.0037207766,0.0066368626,-0.03508734,70.515236,156.9064,0.0047884034,1442826,-636,-341,1920,12821
35005862,4043,0,1.1214949,0.54098976,-9.63484,-0.004283075,-0.009821844,-0.040891163,70.49307,156.9064,0.0047884034,1442826,337,584,2113,12813
35105828,4009,0,-0.7494611,-0.8917847,-9.986126,-0.006409206,-0.003586304,-0.03987765,70.49307,156.9064,0.0047884034,1442826,-166,-94,2069,12813
35205820,4001,0,0.402807,-0.07664304,-9.776274,0.009624822,0.010142464,-0.037404887,70.518005,156.9064,0.0047884034,1442826,-482,-489,1860,12822
35310621,4802,0,0.023932822,0.6039752,-9.693589,-0.0067633996,-0.0074540824,-0.05018686,70.49584,156.9064,0.0047884034,1442826,450,268,2231,12814
35411468,4049,0,-0.13428691,-0.7798593,-10.041321,0.005430475,-0.00095789414,-0.037751373,70.54848,156.9064,0.0047884034,1442826,-88,-327,1861,12833
35511419,3999,0,0.47106642,0.5764993,-9.496758,0.0057335296,0.003945289,-0.03680673,70.5097,156.9064,0.0047884034,1442826,-222,-49,2064,12819
35611419,4000,0,0.7516821,0.39544296,-9.703794,-0.0008493593,-0.0022224362,-0.040006854,70.50415,156.9064,0.0047884034,1442826,392,191,2303,12817
35715432,3968,0,-0.49211586,-0.20428745,-9.791039,0.0055675046,0.005860706,-0.033008326,70.54848,156.9064,0.0047884034,1442826,-507,-385,1943,12833
35819419,4000,0,0.86482996,0.5719114,-9.796516,-0.0010866383,-0.007863536,-0.039745227,70.52631,156.9064,0.0047884034,1442826,369,203,1599,12825
35919454,4022,0,-0.8259565,-0.82684195,-10.013473,-0.0032676565,0.0012636067,-0.037877865,70.52908,156.9064,0.0047884034,1442826,-474,-354,2116,12826
36021063,4044,0,0.754874,0.5922538,-9.49745,-0.0101095345,-0.005247662,-0.047397867,70.54571,156.9064,0.0047884034,1442826,1054,629,2149,12832
36121075,4055,0,1.191875,1.0251757,-9.324596,-0.0026386196,-0.0049201464,-0.041806377,70.559555,156.9064,0.0047884034,1442826,19,607,2232,12837
36221023,3996,0,1.3953598,1.1598432,-9.231086,-0.0019786053,-0.0015618395,-0.039651893,70.51247,156.9064,0.0047884034,1442826,14,495,1888,12820
36325036,4017,0,-0.02853095,-0.072719775,-9.712878,-0.011789488,-0.019373817,-0.04688376,70.54571,156.9064,0.0047884034,1442826,343,374,2406,12832
36425021,3997,0,-1.0322264,-0.9443545,-10.20098,-0.0010729738,-0.007684489,-0.041409895,70.57895,156.9064,0.0047884034,1442826,-133,-538,2092,12844
36525021,4002,0,-0.5227507,-1.0585026,-10.138846,0.010493498,0.00845909,-0.03533036,70.58172,156.9064,0.0047884034,1442826,-993,-1004,1279,12845
36629063,4043,0,1.1229984,1.0066652,-9.28137,-0.002153661,-0.008963826,-0.04143914,70.57895,156.9064,0.0047884034,1442826,68,859,2054,12844
36730620,4001,0,-0.42995825,-0.8749995,-9.932416,-0.009652171,-0.010263011,-0.046957627,70.5734,156.9064,0.0047884034,1442826,-325,37,2473,12842
36830619,4000,0,-0.3023091,-0.21608248,-10.06998,0.0026789973,0.017812721,-0.03657262,70.55125,156.9064,0.0047884034,1442826,-604,-255,1561,12834
36934619,4000,0,1.0110391,0.2658086,-9.435247,-0.0003393886,-0.00844982,-0.042550568,70.57895,156.9064,0.0047884034,1442826,154,635,2571,12844
37034635,4016,0,-0.2984045,-0.124358565,-9.785134,0.008414334,0.0029836278,-0.031297237,70.565094,156.9064,0.0047884034,1442826,-483,-596,2529,12839
37138619,4000,0,-0.46163985,-0.00949704,-9.881715,0.00826941,-0.00029095722,-0.032320492,70.58449,156.9064,0.0047884034,1442826,-34,-295,2515,12846
37242620,3991,0,-0.47745416,-0.06308756,-9.991776,0.0056044566,-0.005031908,-0.04348998,70.58172,156.9064,0.0047884034,1442826,517,-489,1682,12845
37342660,4041,0,-0.7409771,0.63449526,-9.756438,0.0012597222,-0.0040990287,-0.046235833,70.60664,156.9064,0.0047884034,1442826,1200,-474,2176,12854
37444220,3999,0,-0.657731,0.05866072,-9.652506,0.004079898,-0.010407474,-0.043887403,70.601105,156.9064,0.0047884034,1442826,365,-608,2449,12852
37544221,4001,0,-0.34706455,-0.21402429,-9.826966,0.0032798694,-0.004094539,-0.0478728,70.595566,156.9064,0.0047884034,1442826,-28,-221,2941,12850
37648219,3999,0,0.112202324,-0.27581012,-10.061751,0.013686137,-0.006003642,-0.033948176,70.601105,156.9064,0.0047884034,1442826,13,-450,1712,12852
37748227,3993,0,0.3976499,-0.42211375,-9.899755,0.015473487,-0.007735656,-0.038965233,70.637115,156.9064,0.0047884034,1442826,-447,-609,1847,12865
37852219,3999,0,0.7804546,0.28084525,-9.754101,-0.009131177,0.00715223,-0.039212823,70.62604,156.9064,0.0047884034,1442826,51,1046,1332,12861
37956220,3981,0,-0.47812924,-0.1444072,-9.6408615,0.013559594,-0.0031792335,-0.045069374,70.61773,156.9064,0.0047884034,1442826,40,-1092,2012,12858
38057019,3955,0,1.1493675,0.13048585,-9.8302765,-0.0013177632,0.0030835366,-0.033284876,70.675896,156.9064,0.0047884034,1442826,-57,495,2212,12879
38157019,3994,0,-0.91768813,0.2933808,-9.528497,0.0055359923,-0.00012436701,-0.047166247,70.62881,156.9064,0.0047884034,1442826,-164,-948,2931,12862
38261055,4036,0,-0.02805876,-0.021148283,-9.512275,-0.010305476,-0.0009451136,-0.03889303,70.64266,156.9064,0.0047884034,1442826,9,349,1882,12867
38361019,3999,0,0.9626828,0.050607603,-10.051204,0.0109065445,-0.0016462554,-0.034998525,70.65097,156.9064,0.0047884034,1442826,339,392,1322,12870
38461031,3968,0,-0.33508757,0.27248597,-10.001785,0.011572441,0.0034245087,-0.030614935,70.66482,156.9064,0.0047884034,1442826,431,-1040,1563,12875
38565050,4026,0,0.18111746,0.3529008,-9.769733,0.020080023,0.0030359626,-0.02813568,70.65097,156.9064,0.0047884034,1442826,-41,-451,1931,12870
38665060,4041,0,1.0154079,-0.42149425,-9.708237,0.01015776,-0.0010611846,-0.025866803,70.65097,156.9064,0.0047884034,1442826,-825,684,1105,12870
38765020,4001,0,-0.6334573,0.29282907,-9.57853,-0.012962411,0.002362574,-0.04125015,70.675896,156.9064,0.0047884034,1442826,167,-920,1882,12879
38869019,4000,0,-0.08358393,-0.22257365,-9.78923,-0.024944777,3.115309e-05,-0.061481427,70.66482,156.9064,0.0047884034,1442826,-146,278,2369,12875
38970658,3981,0,1.2998091,-0.013481523,-9.908993,0.013681847,-0.0048099095,-0.02616131,70.68698,156.9064,0.0047884034,1442826,-944,566,744,12883
39070620,4000,0,-1.0371544,0.08349354,-9.531581,0.0030549283,-0.0026097135,-0.036973506,70.69806,156.9064,0.0047884034,1442826,468,-1045,2123,12887
39174620,4001,0,0.10487236,0.23307705,-10.414156,-0.021849113,-0.0028146177,-0.055071827,70.70637,156.9064,0.0047884034,1442826,131,-120,1565,12890
39274619,3999,0,0.16346705,0.14590836,-9.729458,0.023181666,-0.0044510234,-0.030992895,70.68975,156.9064,0.0047884034,1442826,-287,-463,1097,12884
39374626,4006,0,-0.29236922,0.23119265,-10.33741,-0.007542822,0.0003299663,-0.05249291,70.72853,156.9064,0.0047884034,1442826,-429,-569,1732,12898
39478652,4030,0,-0.67260796,0.20233664,-9.823025,0.00212004,0.008222408,-0.053405114,70.69252,156.9064,0.0047884034,1442826,808,-1024,2203,12885
39578619,3999,0,-0.2365756,-0.32428086,-9.509837,-0.0054987166,-0.00081362476,-0.038796194,70.68144,156.9064,0.0047884034,1442826,26,-358,2669,12881
39680226,4006,0,-0.42138317,0.6535047,-9.988852,0.0046063075,0.007088036,-0.038778245,70.68698,156.9064,0.0047884034,1442826,1068,-870,2611,12883
39780219,4000,0,-0.4949753,-0.086125694,-9.513339,0.00140863,0.0048509883,-0.03672206,70.7036,156.9064,0.0047884034,1442826,889,-674,3529,12889
39884238,4019,0,0.28503805,0.48959368,-9.618155,0.015692987,-0.0028699362,-0.046347946,70.69529,156.9064,0.0047884034,1442826,451,-409,1266,12886
39984228,4009,0,0.5381479,-0.09837867,-9.93178,0.009089041,-0.0058672708,-0.038780145,70.7036,156.9064,0.0047884034,1442826,497,344,2910,12889
40088220,3995,0,-0.13076313,0.3121966,-9.704779,-0.003100605,0.012218822,-0.04869457,70.73961,156.9064,0.0047884034,1442826,396,-256,2188,12902
40188219,4000,0,-0.093877606,0.44329053,-9.813004,0.0111690005,0.004311958,-0.02947595,70.7313,156.9064,0.0047884034,1442826,126,-394,1579,12899
40289019,4000,0,0.95922345,-0.1690057,-9.7577305,0.0037353053,-0.008334929,-0.03993033,70.66759,156.9064,0.0047884034,1442826,148,366,1469,12876
40389034,4015,0,0.5545242,0.45170093,-9.548264,-0.007744715,-0.0026419577,-0.05205237,70.74238,156.9064,0.0047884034,1442826,1026,729,2563,12903
40493019,3943,0,0.26122573,0.19525175,-9.907863,0.009155363,-0.0082488675,-0.03851055,70.74515,156.9064,0.0047884034,1442826,732,-132,2148,12904
40593019,4000,0,0.6058589,0.31736517,-9.337728,-0.0016419569,-0.00020759867,-0.04415831,70.75346,156.9064,0.0047884034,1442826,651,519,2931,12907
40697020,4001,0,0.13151532,-0.05071455,-10.424486,0.007958336,-0.0031583705,-0.046961054,70.72576,156.9064,0.0047884034,1442826,-89,-238,1011,12897
40797058,4039,0,-0.06184892,0.46772096,-10.278671,-0.012524346,0.001780832,-0.0385786,70.76454,156.9064,0.0047884034,1442826,-43,372,1686,12911
40897019,3955,0,-0.23056924,0.28995728,-10.287422,0.0083697075,-0.001496833,-0.047884658,70.76454,156.9064,0.0047884034,1442826,403,-497,1282,12911
41001034,4015,0,-0.00500015,-0.14026485,-10.471189,3.2218755e-05,0.0011586829,-0.050681733,70.783936,156.9064,0.0047884034,1442826,997,143,3190,12918
41101019,4000,0,-0.20528866,-1.5593504,-10.57147,-0.0007645603,-0.00032483615,-0.046598848,70.750694,156.9064,0.0047884034,1442826,169,124,1615,12906
41202628,4002,0,-0.1900657,-0.34026542,-10.40228,0.0036527235,0.004742306,-0.04952623,70.783936,156.9064,0.0047884034,1442826,23,-666,906,12918
41302621,4002,0,-0.49753475,0.7980833,-9.848003,-0.0037098862,0.0023500212,-0.05609757,70.77285,156.9064,0.0047884034,1442826,-497,-786,988,12914
41406663,4044,0,-0.19951811,0.37391418,-9.364855,0.007977415,-0.006743933,-0.051242143,70.76177,156.9064,0.0047884034,1442826,350,-343,4147,12910
41506619,4000,0,0.41022897,0.47645143,-9.54734,0.014522116,0.0037761568,-0.024062322,70.81163,156.9064,0.0047884034,1442826,1993,279,2143,12928
41606619,3993,0,0.33239192,-0.30930957,-9.468544,0.003085827,-0.0025701157,-0.04039891,70.783936,156.9064,0.0047884034,1442826,593,318,2260,12918
41710639,4020,0,0.16582215,-0.6920965,-9.932726,-0.005189638,-0.0024494838,-0.028489456,70.789474,156.9064,0.0047884034,1442826,-770,744,1399,12920
41810619,3986,0,-0.06341841,0.53726923,-9.029851,-0.0018516941,0.00213941,-0.03085804,70.8144,156.9064,0.0047884034,1442826,-270,509,996,12929
41912220,3994,0,0.46257237,0.8549007,-9.261431,-0.0024738782,0.0028617992,-0.041017756,70.80055,156.9064,0.0047884034,1442826,-137,863,2194,12924
42016226,4007,0,0.3633303,0.634861,-9.316763,0.010615791,0.0010644037,-0.03792118,70.80055,156.9064,0.0047884034,1442826,828,36,3789,12924
42116219,3999,0,0.08567861,-0.5508723,-9.733217,0.006428167,-0.0005289805,-0.042741828,70.80332,156.9064,0.0047884034,1442826,1242,-412,2782,12925
42216219,4000,0,-0.07578856,-1.286253,-9.78964,-0.009350733,0.0028546033,-0.044917833,70.83379,156.9064,0.0047884034,1442826,-304,-286,2207,12936
42320259,4040,0,0.6216913,0.33104384,-9.963155,0.0061823823,0.00013453572,-0.039521534,70.83933,156.9064,0.0047884034,1442826,-352,-188,773,12938
42420250,4030,0,0.0063664084,0.73818964,-9.519044,0.008583497,0.004308284,-0.045213588,70.83379,156.9064,0.0047884034,1442826,119,-365,2182,12936
42525019,4800,0,0.56407946,0.72772646,-9.320045,0.009834048,-0.0054508075,-0.05067697,70.80332,156.9064,0.0047884034,1442826,539,248,2957,12925
42625820,4001,0,0.63748366,-0.25899225,-9.189679,0.007287729,-0.0052973824,-0.018844672,70.89474,156.9064,0.0047884034,1442826,305,627,3510,12958
42729828,4009,0,-0.21319564,-0.6832629,-10.524964,0.0010494706,0.00037790032,-0.039323825,70.85319,156.9064,0.0047884034,1442826,-631,-863,1223,12943
42829819,4000,0,-0.18490534,-0.04587869,-9.885123,0.0011411991,0.0008795621,-0.040311236,70.861496,156.9064,0.0047884034,1442826,-462,600,3378,12946
42929819,4000,0,-0.53930384,0.7933617,-10.149722,-0.0022538998,0.010876291,-0.043043524,70.83933,156.9064,0.0047884034,1442826,-563,-828,1350,12938
43033851,4032,0,0.11738958,0.72990155,-10.336553,-0.005061367,-0.0013901112,-0.042037033,70.84487,156.9064,0.0047884034,1442826,41,376,2022,12940
43133841,4022,0,-0.022730261,0.23920459,-9.9298315,0.00092115195,0.0025845186,-0.039536472,70.861496,156.9064,0.0047884034,1442826,170,-467,3416,12946
43234618,3992,0,0.35718286,-0.72130585,-10.55952,0.005584543,-0.012240967,-0.041075137,70.872574,156.9064,0.0047884034,1442826,1118,54,1382,12950
43339420,3987,0,-0.3434317,-1.1031971,-10.611458,-9.0159825e-05,0.0056303996,-0.042301767,70.861496,156.9064,0.0047884034,1442826,-128,-643,784,12946
43439464,4044,0,-0.123948336,-0.5615968,-10.008088,0.0046969103,0.010587793,-0.031471997,70.88365,156.9064,0.0047884034,1442826,-348,-633,1652,12954
43543419,4000,0,0.10786034,1.0259167,-9.499495,-0.00015206507,0.00015291403,-0.031768106,70.900276,156.9064,0.0047884034,1442826,-512,354,2545,12960
43647419,3993,0,0.3510647,0.36475566,-8.224959,-0.0037331195,-0.0028302057,-0.041282818,70.903046,156.9064,0.0047884034,1442826,148,900,2949,12961
43747420,4001,0,-0.013879607,-0.40431145,-7.882888,-0.014337139,-0.00057296315,-0.031493537,70.92244,156.9064,0.0047884034,1442826,295,544,1806,12968
43851420,4000,0,-0.31376997,0.028095307,-7.6278276,0.009388726,0.0026427,-0.02451453,70.900276,156.9064,0.0047884034,1442826,438,-436,2572,12960
43949035,4015,0,0.1340372,0.16971764,-8.405854,0.0058387388,0.0064936937,-0.030920232,70.900276,156.9064,0.0047884034,1442826,-616,-94,1060,12960
44053020,3977,0,-0.08259639,1.1701627,-8.87929,0.0073051606,0.004682267,-0.03301783,70.95291,156.9064,0.0047884034,1442826,-117,-592,1517,12979
44153019,4000,0,-0.23656802,0.9914013,-9.329183,-0.006736021,-0.00020507467,-0.034525715,70.95568,156.9064,0.0047884034,1442826,179,-128,2913,12980
44257019,3999,0,0.5507167,-0.76067823,-10.702707,0.009835173,-0.017191105,-0.054453965,70.93075,156.9064,0.0047884034,1442826,297,-394,1526,12971
44361019,3995,0,-0.26704884,-1.9853213,-10.871754,-0.012053418,-0.0010851428,-0.051956017,70.95845,156.9064,0.0047884034,1442826,-604,-7,2004,12981
44461020,4000,0,-0.30855578,-0.8408871,-11.100888,0.002702057,0.0065519935,-0.036035754,70.99446,156.9064,0.0047884034,1442826,-506,-468,2745,12994
44561826,4007,0,0.5620083,-0.041678075,-10.466648,-0.0024762778,-3.9943494e-05,-0.040088676,70.93906,156.9064,0.0047884034,1442826,-65,898,3263,12974
44662619,3993,0,-0.6122545,0.7918754,-10.489716,-0.009141926,0.016673377,-0.041424666,70.93906,156.9064,0.0047884034,1442826,-527,-76,1980,12974
44766662,4043,0,0.12306021,1.3545433,-10.407021,-0.0044574696,-0.0050860546,-0.046308517,70.99446,156.9064,0.0047884034,1442826,-379,189,1783,12994
44866629,4010,0,-0.08427036,1.14533,-10.513084,0.001606033,0.0038844778,-0.03798028,70.95845,156.9064,0.0047884034,1442826,322,-882,1576,12981
44970639,4020,0,0.42535603,-0.6457874,-11.097363,-0.0009945766,-0.0008644375,-0.03310704,70.97784,156.9064,0.0047884034,1442826,231,-421,2169,12988
45070645,4026,0,0.4208198,-0.99946946,-10.883067,0.0007654093,-0.013142571,-0.047754616,70.9723,156.9064,0.0047884034,1442826,685,841,2705,12986
45170619,3978,0,-0.12868178,-1.3336562,-10.537496,-0.0045889067,0.00083124056,-0.03676889,70.986145,156.9064,0.0047884034,1442826,-475,-496,1398,12991
45272219,4000,0,0.018429235,-0.16837521,-9.863373,0.004390102,0.01592354,-0.04134377,70.99446,156.9064,0.0047884034,1442826,-120,-403,651,12994
45376219,4000,0,0.42229378,1.2545608,-8.608156,-0.008568332,0.004652018,-0.05404942,71.02216,156.9064,0.0047884034,1442826,-27,896,2321,13004
45476219,4000,0,0.26482683,1.0681261,-8.942599,0.0013489263,-0.0035228366,-0.01978385,71.00831,156.9064,0.0047884034,1442826,141,663,3098,12999
45576254,4035,0,-0.020243622,0.9358317,-9.853934,0.010708714,-0.009129728,-0.039569035,71.01108,156.9064,0.0047884034,1442826,783,-123,744,13000
45680219,4000,0,0.6555648,-0.8063955,-9.843902,-0.0018852542,-0.010096846,-0.041885156,71.05263,156.9064,0.0047884034,1442826,-899,478,1806,13015
45784219,4000,0,-0.038587265,-0.38140196,-9.310295,-6.206159e-06,0.006238506,-0.041176323,71.02216,156.9064,0.0047884034,1442826,-133,22,2661,13004
45885843,4017,0,-0.58154905,0.10025452,-8.798268,0.0046778265,0.007817231,-0.040856514,71.01385,156.9064,0.0047884034,1442826,-1233,-558,2932,13001
45989826,3958,0,0.6149826,1.2494341,-8.746496,0.004587567,-0.0038946264,-0.031205982,71.01939,156.9064,0.0047884034,1442826,539,790,3350,13003
46089819,4000,0,0.8299348,0.7128039,-9.463246,0.00016183534,-0.008660462,-0.025367066,71.04432,156.9064,0.0047884034,1442826,516,523,1864,13012
46189828,4009,0,0.48269424,-0.121104695,-10.068823,-0.0024941796,-0.019793913,-0.037261307,71.02493,156.9064,0.0047884034,1442826,-466,84,1548,13005
46289869,4043,0,0.26538298,-0.7835444,-9.520022,-0.008266406,0.002478822,-0.04657386,71.04155,156.9064,0.0047884034,1442826,369,483,2564,13011
46393827,4008,0,0.12672357,-0.10203716,-9.8021345,0.005686878,0.0025139914,-0.048240863,71.04986,156.9064,0.0047884034,1442826,-65,-337,575,13014
46497820,4001,0,-0.33566552,1.2115649,-9.418089,-0.011388073,0.012423998,-0.04899276,71.03324,156.9064,0.0047884034,1442826,-167,329,1205,13008
46599446,4027,0,-0.30415386,1.5691462,-9.467585,-0.0061056777,0.009548697,-0.03485063,71.04709,156.9064,0.0047884034,1442826,673,-603,1151,13013
46699430,4011,0,-0.08715761,0.93114007,-9.703714,-0.0023496207,0.005345716,-0.05712181,71.07479,156.9064,0.0047884034,1442826,846,-571,1155,13023
46803426,3963,0,0.63281196,-1.0368674,-10.184268,0.0013872938,-0.013487568,-0.033766113,71.08033,156.9064,0.0047884034,1442826,504,373,1964,13025
46907419,3989,0,0.23335813,-1.194298,-9.342712,-0.004609326,0.011598254,-0.014645119,71.058174,156.9064,0.0047884034,1442826,-115,823,3907,13017
47011422,4003,0,-0.37712735,0.5439846,-9.787641,0.0015149694,0.0047991844,-0.057114225,71.08587,156.9064,0.0047884034,1442826,-868,-1055,901,13027
47111419,3999,0,-0.4144405,1.2620369,-9.175524,-0.0051104184,0.00019021297,-0.040346917,71.08033,156.9064,0.0047884034,1442826,-743,-582,2394,13025
47213026,4796,0,-0.044623666,1.167287,-8.909738,-0.008040653,0.0010113649,-0.035644926,71.10249,156.9064,0.0047884034,1442826,61,557,2719,13033
47313019,4000,0,0.63612884,0.5634378,-9.517055,0.007376944,-0.0053684874,-0.023757514,71.1108,156.9064,0.0047884034,1442826,471,-87,1408,13036
47417019,4000,0,0.101383165,-1.3864936,-9.264922,0.0007114365,-0.01356647,-0.029882208,71.10526,156.9064,0.0047884034,1442826,179,591,4592,13034
47517019,4000,0,0.40017655,-1.2353914,-9.668194,0.0071246894,0.004148222,-0.034637123,71.07756,156.9064,0.0047884034,1442826,711,122,1758,13024
47617020,4000,0,-0.4340123,-0.64276093,-9.483114,-0.0013694181,0.008725701,-0.03726334,71.12465,156.9064,0.0047884034,1442826,-702,-198,3220,13041
48641819,4000,0,0.2634999,0.34889814,-10.106091,-0.0077980123,-0.009523789,-0.041358784,71.19113,156.9064,0.0047884034,1442826,181,429,2075,13065
48745826,4007,0,0.35099444,-1.1898347,-9.925893,-0.0054157367,-0.001938774,-0.04266814,71.18559,156.9064,0.0047884034,1442826,-237,285,1519,13063
48847419,3999,0,-0.03203806,-0.8274318,-10.23361,0.0019276582,-0.0018237772,-0.044590373,71.16067,156.9064,0.0047884034,1442826,203,-298,417,13054
48947426,4006,0,0.12812719,-0.41626266,-9.169715,0.0016723089,0.019223418,-0.019766547,71.177284,156.9064,0.0047884034,1442826,-767,797,1932,13060
49051483,4064,0,0.31996465,1.4612306,-9.613225,0.0034685784,0.0035377443,-0.03250666,71.15789,156.9064,0.0047884034,1442826,436,-49,780,13053
49151463,4042,0,-0.07437863,1.6019822,-9.06668,-0.0064582867,0.013132988,-0.04216517,71.18282,156.9064,0.0047884034,1442826,198,346,2791,13062
49251419,4000,0,0.47733843,1.6851922,-9.488815,0.015178434,-0.0010633257,-0.033642218,71.22714,156.9064,0.0047884034,1442826,912,-16,3745,13078
49355419,3976,0,0.07413608,-0.07492314,-9.784555,-0.00523182,-0.006027025,-0.058091316,71.177284,156.9064,0.0047884034,1442826,626,-158,1981,13060
49456219,4000,0,0.7369356,-1.2945518,-10.152517,0.0003122997,-0.007588246,-0.033870663,71.18005,156.9064,0.0047884034,1442826,-606,698,2840,13061
49556219,3998,0,-0.048921127,-1.3892685,-10.117024,-0.004009105,-0.012271497,-0.04879343,71.23269,156.9064,0.0047884034,1442826,255,-400,2927,13080
49660219,3999,0,-0.42283767,-0.65947104,-9.587216,-0.007792599,0.011468677,-0.04965035,71.18559,156.9064,0.0047884034,1442826,-38,-331,841,13063
49760220,3985,0,0.105795346,0.47869158,-9.757802,0.0058177966,0.012440007,-0.027175674,71.16344,156.9064,0.0047884034,1442826,507,-58,193,13055
49864226,4007,0,-0.27459863,1.7743661,-9.652093,0.0014891296,0.012501579,-0.055440444,71.24654,156.9064,0.0047884034,1442826,-200,-323,631,13085
49964244,4024,0,-0.09653449,1.8721514,-8.798087,-0.0036480105,-0.0009678813,-0.04679309,71.210526,156.9064,0.0047884034,1442826,-220,1077,4153,13072
50064219,3999,0,0.23941685,1.3393207,-9.657407,0.017566556,-0.004632623,-0.025951924,71.22992,156.9064,0.0047884034,1442826,-6,-549,2986,13079
50168219,4000,0,0.02883687,-0.3361341,-10.0304365,0.0023077766,-0.007136369,-0.061066557,71.23546,156.9064,0.0047884034,1442826,1325,-173,872,13081
50268219,4000,0,0.18096676,-1.0660329,-10.19895,-0.0041626142,-0.002973837,-0.038807806,71.210526,156.9064,0.0047884034,1442826,689,-42,1084,13072
50369022,4003,0,0.70106643,-1.1408972,-10.139713,-0.0037119791,0.0007643801,-0.01696787,71.249306,156.9064,0.0047884034,1442826,224,115,-862,13086
50469021,4002,0,0.21682754,-0.94679505,-9.689709,-0.0010980938,-0.002760919,-0.02797842,71.23546,156.9064,0.0047884034,1442826,-111,376,3271,13081
50573033,4014,0,0.01093804,0.7309839,-9.602264,-0.0016546499,0.004143585,-0.02818316,71.24377,156.9064,0.0047884034,1442826,-656,175,789,13084
50677057,4031,0,0.13727409,1.7454783,-9.025631,-0.005065002,0.0086920755,-0.029022317,71.23269,156.9064,0.0047884034,1442826,-505,669,3643,13080
50781070,4051,0,-0.004053806,0.26457292,-9.979614,-0.0032904427,-0.006296131,-0.025802694,71.23823,156.9064,0.0047884034,1442826,602,-8,2099,13082
50881034,4014,0,0.8487983,-0.6050267,-9.72005,-0.0024182096,-0.002612454,-0.019001577,71.22992,156.9064,0.0047884034,1442826,423,1089,3366,13079
50985026,4006,0,0.028426407,-0.9332687,-9.549057,0.0016531508,0.0028338158,-0.032236423,71.249306,156.9064,0.0047884034,1442826,-658,16,4203,13086
51085020,3953,0,-0.12876613,-0.5188033,-9.198715,0.0006682518,0.00933601,-0.025805386,71.2687,156.9064,0.0047884034,1442826,-1173,253,4941,13093
51185825,4805,0,-0.43645427,0.39421624,-9.239915,-0.0042194244,0.015156478,-0.044597805,71.290855,156.9064,0.0047884034,1442826,-133,-239,2171,13101
51290619,4000,0,0.12627201,1.5762746,-9.58866,0.012487995,-0.00034660788,-0.039270304,71.27978,156.9064,0.0047884034,1442826,722,-413,1064,13097
51394619,3958,0,0.5909053,-0.21356097,-9.981552,0.0043594716,-0.006880336,-0.026483046,71.30471,156.9064,0.0047884034,1442826,323,441,1806,13106
51494620,4001,0,0.41783324,-0.809905,-9.885913,0.0035160126,-0.010857848,-0.029785376,71.290855,156.9064,0.0047884034,1442826,-135,126,1664,13101
51598619,4000,0,0.08310515,-1.0335271,-9.712432,-0.010358432,0.0025885436,-0.041174605,71.29917,156.9064,0.0047884034,1442826,199,254,2147,13104
51698626,4007,0,-0.36633846,-0.54516906,-9.670542,-0.007252828,0.0017839752,-0.025507098,71.290855,156.9064,0.0047884034,1442826,-744,774,3251,13101
51802620,4001,0,-0.41229764,1.4619633,-9.22681,0.005307521,0.0054975813,-0.056780152,71.28255,156.9064,0.0047884034,1442826,-639,-894,2078,13098
51903419,4000,0,-0.09172018,1.9110734,-9.59727,0.0052551054,-0.0010012691,-0.04848849,71.31025,156.9064,0.0047884034,1442826,-350,-966,2025,13108
52003419,4000,0,0.00039975793,1.3311094,-9.85772,0.005787643,-9.5521566e-05,-0.047050275,71.2687,156.9064,0.0047884034,1442826,-309,-705,1987,13093
52107419,4000,0,0.4324947,-0.58195263,-10.000714,-0.0010771002,-0.012476265,-0.04323936,71.33518,156.9064,0.0047884034,1442826,-892,140,2336,13117
52211442,4023,0,0.1730651,-0.51997787,-9.904868,0.0014634582,0.0020439217,-0.04954296,71.329636,156.9064,0.0047884034,1442826,187,51,1779,13115
52311419,4000,0,0.2965728,0.2344362,-10.009266,0.0008315286,0.0075088446,-0.04024689,71.30471,156.9064,0.0047884034,1442826,140,516,2006,13106
52411419,3980,0,-0.103855,1.0331928,-9.788261,-0.011096943,0.012764482,-0.05035687,71.33795,156.9064,0.0047884034,1442826,-583,-42,-4,13118
52515419,3969,0,0.28478366,1.5711917,-9.837163,0.00792439,0.00018825708,-0.040265877,71.326866,156.9064,0.0047884034,1442826,1295,261,2482,13114
52615450,4030,0,0.73810464,0.7778916,-9.453512,-0.0062443265,-0.006281525,-0.038850915,71.3241,156.9064,0.0047884034,1442826,-143,607,4020,13113
52719419,4000,0,0.5696672,-1.1985463,-10.456435,-0.0011192295,-0.015048739,-0.052506745,71.329636,156.9064,0.0047884034,1442826,505,169,724,13115
52820219,4000,0,0.33805716,-0.9100024,-9.797407,0.005797827,0.004567002,-0.039732315,71.34903,156.9064,0.0047884034,1442826,246,141,3637,13122
52924219,4000,0,0.19560924,-0.2917809,-9.361298,0.007914967,0.008929035,-0.03186141,71.36565,156.9064,0.0047884034,1442826,-342,-147,2224,13128
53024230,4001,0,0.115672596,0.24238151,-9.7501335,-0.0026276307,0.00042613095,-0.034247767,71.34349,156.9064,0.0047884034,1442826,-422,407,1683,13120
53128225,4006,0,-0.028992802,1.3927795,-9.724409,0.004967191,0.0027967284,-0.045777317,71.33795,156.9064,0.0047884034,1442826,921,-439,1011,13118
53228259,4040,0,0.53240836,0.32780033,-9.592977,-0.005412263,-0.00030747487,-0.033461753,71.35457,156.9064,0.0047884034,1442826,473,-62,1551,13124
53328219,3982,0,-0.09781046,-0.20392703,-10.223416,-0.0034269833,-0.0033159659,-0.054237414,71.36565,156.9064,0.0047884034,1442826,624,-1031,922,13128
53432258,4039,0,0.50641364,-1.449946,-10.125706,-0.0048316084,-0.014343035,-0.045024417,71.3518,156.9064,0.0047884034,1442826,-1125,372,2241,13123
53532219,4000,0,-0.034535065,-1.1717166,-10.284629,-0.008942153,2.180459e-05,-0.056877807,71.3795,156.9064,0.0047884034,1442826,-94,-696,-156,13133
53633019,4000,0,0.07938003,-0.24327035,-9.630897,-0.010960463,0.011188006,-0.05272358,71.37396,156.9064,0.0047884034,1442826,-1045,320,1883,13131
53737019,4000,0,-0.38111636,1.6955582,-9.740236,0.0036117006,0.0015764253,-0.0410795,71.38781,156.9064,0.0047884034,1442826,-385,-935,1283,13136
53837019,4000,0,-0.63699347,1.6159549,-9.822883,-0.0007609592,0.00349882,-0.04232198,71.40997,156.9064,0.0047884034,1442826,419,-925,1337,13144
53941067,4041,0,0.31358624,-0.104484156,-10.644845,0.011608178,-0.009885117,-0.032446783,71.4072,156.9064,0.0047884034,1442826,1506,-153,372,13143
54045026,4007,0,0.14111987,-1.6450541,-10.132854,-7.077673e-05,-0.00763941,-0.031164853,71.39058,156.9064,0.0047884034,1442826,-724,314,2300,13137
54145019,3957,0,-0.14427094,-0.6910473,-9.4858675,0.0044488306,0.008141566,-0.03666742,71.4072,156.9064,0.0047884034,1442826,580,286,2870,13143
54249047,4017,0,0.186534,1.2324268,-9.181212,0.0048178006,0.009940602,-0.034736704,71.4072,156.9064,0.0047884034,1442826,309,591,2063,13143
54349062,4021,0,0.033409,1.606383,-8.915087,0.0069047334,0.0056139464,-0.026455127,71.42105,156.9064,0.0047884034,1442826,287,-385,2897,13148
54449081,4061,0,-0.40340137,1.5213938,-9.325865,-0.00432575,0.00574583,-0.036934353,71.39058,156.9064,0.0047884034,1442826,684,-522,1617,13137
54550619,3998,0,0.5300735,0.5165423,-9.317783,-0.00314732,0.0014708675,-0.038940474,71.42105,156.9064,0.0047884034,1442826,409,163,4243,13148
54654649,4030,0,0.2848546,-1.5463954,-10.585839,0.0058780843,-0.009376659,-0.046959527,71.41828,156.9064,0.0047884034,1442826,-474,-444,918,13147
54754626,4007,0,0.027194502,-1.326395,-10.159845,0.0017091542,0.0010263936,-0.035668228,71.445984,156.9064,0.0047884034,1442826,-273,-724,1320,13157
54854620,4001,0,0.109870106,-0.8241019,-9.737048,-0.0016149699,0.009721799,-0.038368627,71.443214,156.9064,0.0047884034,1442826,-219,-536,1438,13156
54958619,4000,0,0.27514383,1.2661405,-9.206165,0.0073638004,0.008250589,-0.03654792,71.4626,156.9064,0.0047884034,1442826,547,459,1446,13163
55058619,3999,0,0.4262205,1.6135377,-9.330353,0.0056163543,0.0037975274,-0.04402698,71.437675,156.9064,0.0047884034,1442826,676,520,2126,13154
55160220,4001,0,0.36199576,1.1999831,-9.482981,0.0052208407,-0.0069871624,-0.04507517,71.41551,156.9064,0.0047884034,1442826,1070,81,3250,13146
55264219,3959,0,0.53932065,-0.8174822,-10.376578,-0.004277532,-0.0021139751,-0.032548722,71.46814,156.9064,0.0047884034,1442826,138,262,2498,13165
55364219,4000,0,0.122371875,-1.0172044,-9.96029,-0.0016786798,-0.0019032904,-0.029033896,71.476456,156.9064,0.0047884034,1442826,51,-302,2990,13168
55468226,4006,0,0.38403037,-0.5200261,-9.36048,0.0014005121,0.0029630193,-0.026340755,71.479225,156.9064,0.0047884034,1442826,-173,661,2740,13169
55568220,3978,0,0.24969676,0.3324849,-9.310633,-0.007971564,0.00018313341,-0.032038204,71.4626,156.9064,0.0047884034,1442826,-928,497,2386,13163
55668219,3992,0,0.15137982,1.2620193,-9.266685,-0.0062953546,0.013491005,-0.038978864,71.45983,156.9064,0.0047884034,1442826,-537,127,1605,13162
55768220,4001,0,-0.25819167,1.679115,-9.290015,0.0069310106,0.008138139,-0.036713935,71.50693,156.9064,0.0047884034,1442826,131,-876,1921,13179
55869836,3990,0,0.39159852,1.3264865,-9.669097,0.010136533,-0.008424777,-0.03407454,71.47369,156.9064,0.0047884034,1442826,497,-262,1572,13167
55973819,4000,0,0.290725,-0.38198775,-9.95239,0.00023256961,0.00018799957,-0.030349104,71.49861,156.9064,0.0047884034,1442826,1330,249,2628,13176
56073819,4000,0,0.594739,-0.81192505,-9.723181,-0.0072255833,-0.001944346,-0.047713913,71.52631,156.9064,0.0047884034,1442826,569,91,2748,13186
56173866,4047,0,0.1269149,-0.60096765,-9.2418,-0.002686002,0.0039301636,-0.031528782,71.515236,156.9064,0.0047884034,1442826,172,29,4624,13182
56277827,4001,0,0.64056736,0.72843754,-9.165589,0.0066729495,0.007953858,-0.037770156,71.50693,156.9064,0.0047884034,1442826,565,410,2641,13179
56377819,4000,0,0.5800879,0.85722274,-9.105774,0.0009936808,0.0013296134,-0.04123661,71.48753,156.9064,0.0047884034,1442826,-597,565,2323,13172
56478619,4000,0,0.1100813,0.98181266,-9.356133,-3.7933933e-05,-0.005150205,-0.0318316,71.50693,156.9064,0.0047884034,1442826,555,526,2755,13179
56582619,4000,0,0.32382128,-0.3622801,-9.692229,-0.0064636134,-0.001472532,-0.03630378,71.51247,156.9064,0.0047884034,1442826,148,119,2345,13181
56682619,3993,0,-0.063860446,-0.8868734,-10.3827,0.0022388576,-0.0038970672,-0.03553558,71.518005,156.9064,0.0047884034,1442826,293,-936,1210,13183
56782619,3957,0,0.19093272,-0.653998,-10.355689,0.0075541604,-0.0047937483,-0.042347804,71.52908,156.9064,0.0047884034,1442826,240,-412,-228,13187
56886619,3988,0,-0.1941999,-0.59120345,-9.927138,-0.0020778677,0.0074733994,-0.03954578,71.53185,156.9064,0.0047884034,1442826,-1017,-413,2527,13188
56986619,3977,0,-0.09536806,0.056880735,-10.315503,-0.00760429,0.00768468,-0.03686085,71.54017,156.9064,0.0047884034,1442826,-991,-88,339,13191
57090641,4022,0,0.1924017,1.2576281,-9.489588,-0.009744735,0.0059771747,-0.037627544,71.518005,156.9064,0.0047884034,1442826,301,924,3423,13183
57190626,4007,0,-0.03516174,1.4684706,-9.575155,0.0007749011,0.0025560549,-0.050462067,71.56786,156.9064,0.0047884034,1442826,320,-1075,2768,13201
57290627,4008,0,0.50510025,0.71580285,-10.138343,0.0059310775,-0.0021446487,-0.0562193,71.51247,156.9064,0.0047884034,1442826,1692,176,2063,13181
57395419,3998,0,-0.02539441,-0.80094653,-10.007076,-0.005551805,-0.0046417867,-0.046286352,71.57063,156.9064,0.0047884034,1442826,817,70,2735,13202
57495419,4000,0,-0.2361567,-0.47343874,-9.712405,0.0013535314,0.0071515115,-0.057188492,71.559555,156.9064,0.0047884034,1442826,-49,-623,2608,13198
57599419,3981,0,0.41578725,0.7328595,-9.380563,-0.0059357174,-0.0030332175,-0.046166174,71.56786,156.9064,0.0047884034,1442826,75,734,3314,13201
57703426,4007,0,0.12324956,1.1297892,-10.040469,0.00569339,-0.003474085,-0.04069052,71.54294,156.9064,0.0047884034,1442826,858,127,2674,13192
57803450,4031,0,0.31868458,0.4841952,-10.324387,-0.0022059754,0.0028212916,-0.03817688,71.54571,156.9064,0.0047884034,1442826,283,55,2052,13193
57903419,4000,0,0.5225051,-0.33404455,-10.446629,0.012748887,-0.009254044,-0.046385475,71.562325,156.9064,0.0047884034,1442826,1029,409,2267,13199
58007419,4000,0,0.4599111,-1.4790796,-10.523321,-0.0031320949,0.0010739582,-0.03425319,71.5734,156.9064,0.0047884034,1442826,-550,-519,1451,13203
58107419,4000,0,-0.16542974,-1.082269,-9.796729,-0.0013294073,0.010119467,-0.037689377,71.57063,156.9064,0.0047884034,1442826,-469,39,3947,13202
58208219,4000,0,-0.54295874,-0.6882822,-10.060614,0.0032929464,0.0074539385,-0.045253552,71.5928,156.9064,0.0047884034,1442826,-256,-1015,1412,13210
58313019,3999,0,0.5738605,1.1963066,-9.022096,-0.0019359798,0.0016253451,-0.05272525,71.59003,156.9064,0.0047884034,1442826,-585,597,2632,13209
58413020,4000,0,0.37535068,1.4436415,-9.194793,0.0034270217,-0.0073716925,-0.027663311,71.5928,156.9064,0.0047884034,1442826,266,588,3494,13210
58513019,3948,0,0.3671155,0.9981187,-9.646413,0.0075835665,-0.008054883,-0.032586034,71.598335,156.9064,0.0047884034,1442826,851,-135,1802,13212
58617020,4000,0,0.64736944,-0.8841754,-10.524417,-0.0028538033,-0.01529351,-0.03948292,71.60942,156.9064,0.0047884034,1442826,-18,317,1954,13216
58717019,3999,0,0.27489564,-1.6799843,-10.752795,0.00070150365,-0.007395667,-0.038307674,71.601105,156.9064,0.0047884034,1442826,828,41,1428,13213
58817020,3982,0,0.09696536,-1.2275728,-10.346214,0.000261452,-0.001682122,-0.0485928,71.60664,156.9064,0.0047884034,1442826,330,-309,2200,13215
58921819,3994,0,-0.15263228,0.87715054,-9.707707,0.003581011,0.009199166,-0.045363117,71.603874,156.9064,0.0047884034,1442826,150,14,980,13214
59021857,4030,0,-0.27790338,0.97013485,-9.490036,0.011311198,0.009422567,-0.03341253,71.60664,156.9064,0.0047884034,1442826,-840,-624,2681,13215
59125820,4000,0,0.39904913,1.1440974,-9.759668,0.009776497,-0.014641833,-0.037884913,71.637115,156.9064,0.0047884034,1442826,1042,-365,2663,13226
59225820,4001,0,0.046275403,0.5336829,-9.853131,0.010155591,-0.0038845344,-0.042721566,71.6205,156.9064,0.0047884034,1442826,-19,-886,1187,13220
59325826,4006,0,0.4485217,-0.93888444,-9.738781,-0.0038277544,-0.0014321542,-0.037027586,71.65097,156.9064,0.0047884034,1442826,78,54,2231,13231
59425836,4017,0,0.5095068,-1.4294589,-9.94626,-0.005226756,-0.0018966692,-0.037542958,71.6205,156.9064,0.0047884034,1442826,-564,864,3082,13220
59529820,4001,0,0.103564486,-0.31485343,-9.808776,0.0008464422,0.00465464,-0.033519298,71.6205,156.9064,0.0047884034,1442826,-725,-658,1065,13220
59629819,3999,0,-0.099447355,0.57778734,-9.139255,0.0012177485,0.010578732,-0.0327939,71.61219,156.9064,0.0047884034,1442826,-288,-569,3169,13217
59731419,4000,0,0.3331717,1.5893425,-8.969757,0.016576527,0.0071872324,-0.044160303,71.62881,156.9064,0.0047884034,1442826,307,61,3851,13223
59835420,4001,0,0.676708,0.46652138,-10.202381,0.0002898687,-0.016461104,-0.030200046,71.6482,156.9064,0.0047884034,1442826,-172,103,1244,13230
59939433,4014,0,0.17685336,-0.80334586,-9.900936,0.00092267315,0.0022683889,-0.04689084,71.62881,156.9064,0.0047884034,1442826,-224,-393,2745,13223
60039419,3983,0,0.070622146,-1.0329205,-10.09084,0.0033724848,-0.00018621038,-0.051243916,71.637115,156.9064,0.0047884034,1442826,-359,-134,2518,13226
60139426,4007,0,0.05681247,-0.5064542,-9.726028,0.0069147167,0.008257989,-0.051193528,71.68144,156.9064,0.0047884034,1442826,457,-49,1534,13242
60243430,3980,0,0.11733144,0.76939034,-9.705409,-0.0044780746,0.0029813605,-0.030482223,71.6482,156.9064,0.0047884034,1442826,-1259,129,-56,13230
60347468,4046,0,0.056038808,1.7340273,-9.288149,0.0037826914,0.0034640357,-0.053403042,71.675896,156.9064,0.0047884034,1442826,81,-451,2888,13240
60445026,3960,0,0.13783999,1.6056166,-9.356208,-0.0032599913,0.003894841,-0.040223192,71.68975,156.9064,0.0047884034,1442826,344,-607,2047,13245
60549020,4001,0,0.37552553,-0.25329292,-10.151608,-0.002409787,-0.010388352,-0.045322627,71.66482,156.9064,0.0047884034,1442826,-239,12,921,13236
60649019,4000,0,0.16843897,-1.0300658,-9.780585,-0.00688726,-0.007633738,-0.036600076,71.66482,156.9064,0.0047884034,1442826,-339,120,3133,13236
60753019,4000,0,-0.061733473,-0.29774642,-10.101636,0.0051166276,0.00265383,-0.040733323,71.68421,156.9064,0.0047884034,1442826,-856,-537,2469,13243
60857020,4001,0,0.33353817,1.1078397,-9.476241,0.0057354714,0.0058958954,-0.041749325,71.68421,156.9064,0.0047884034,1442826,333,728,2820,13243
60957019,3999,0,0.2035015,1.5156372,-9.83971,0.013309476,0.0033776138,-0.045573227,71.68144,156.9064,0.0047884034,1442826,802,-5,894,13242
61058619,3999,0,0.4968445,1.0671755,-10.104286,0.01489377,-0.0059861015,-0.037832573,71.70083,156.9064,0.0047884034,1442826,818,-178,1669,13249
61158620,4000,0,0.19238326,0.56013817,-9.745009,0.002783449,-0.0079065915,-0.046092115,71.67313,156.9064,0.0047884034,1442826,570,-143,2892,13239
61262668,4048,0,0.19525059,-1.2894218,-10.24639,0.002459445,-0.008299111,-0.03455937,71.72299,156.9064,0.0047884034,1442826,421,183,1714,13257
61362626,4007,0,-0.037019942,-1.2047112,-10.142051,0.00497728,0.0018879437,-0.031110886,71.711914,156.9064,0.0047884034,1442826,-601,-499,921,13253
61466619,4000,0,0.22756425,0.98236156,-9.314211,0.004741261,0.008466143,-0.041610364,71.71468,156.9064,0.0047884034,1442826,61,300,2307,13254
61570619,3955,0,0.6552253,1.4471549,-9.446303,0.0062097446,-0.00014611524,-0.026095318,71.70637,156.9064,0.0047884034,1442826,42,821,1932,13251
62889821,4002,0,0.23970957,1.5569987,-8.714445,-0.0034875262,0.008635674,-0.038148493,71.73684,156.9064,0.0047884034,1442826,-478,172,3195,13262
62991419,4000,0,0.48970866,1.6773345,-9.382378,-0.0044370396,-0.003246367,-0.05793388,71.747925,156.9064,0.0047884034,1442826,212,490,1608,13266
63091419,4000,0,0.042900242,1.421446,-10.013263,0.015133632,-0.0077645006,-0.031105978,71.759,156.9064,0.0047884034,1442826,1402,-298,1846,13270
63191419,3973,0,0.3349932,0.2591951,-9.996734,-0.0005950749,-0.0072269677,-0.033029012,71.77008,156.9064,0.0047884034,1442826,834,-209,2439,13274
63295426,4007,0,0.05499904,-1.2695585,-10.211642,-0.006081059,-0.005420899,-0.06761062,71.75346,156.9064,0.0047884034,1442826,-22,-661,1055,13268
63395420,4001,0,0.041410062,-1.360595,-10.25646,-0.010854405,0.0011498074,-0.057839505,71.76731,156.9064,0.0047884034,1442826,-377,-295,657,13273
63499419,4000,0,-0.10964087,0.26168647,-9.202507,-0.0025603971,0.011216593,-0.031624682,71.76454,156.9064,0.0047884034,1442826,-166,-782,1654,13272
63603419,3953,0,0.025977155,1.6465685,-8.855019,0.0014067116,0.0016878156,-0.043124206,71.786705,156.9064,0.0047884034,1442826,78,-326,3649,13280
63705019,3999,0,0.21172261,1.3569384,-9.343965,0.00064581877,-0.0060489792,-0.049221456,71.77839,156.9064,0.0047884034,1442826,553,-408,3205,13277
63809019,3991,0,0.20092592,-0.47528943,-10.032478,0.009183421,6.131199e-05,-0.03408689,71.76454,156.9064,0.0047884034,1442826,1117,-449,726,13272
63909031,4012,0,0.36767808,-0.880693,-9.6963625,0.0070989765,0.00217863,-0.03668123,71.81995,156.9064,0.0047884034,1442826,520,510,3308,13292
64009020,3994,0,0.17369498,-0.86073875,-9.912935,0.008521593,0.004789332,-0.039781503,71.73961,156.9064,0.0047884034,1442826,-266,98,3734,13263
64109048,4028,0,0.144082,-0.09955017,-9.222541,0.0075734905,0.007294832,-0.031710096,71.79501,156.9064,0.0047884034,1442826,-841,-158,3765,13283
64213020,4001,0,0.50706136,1.2793137,-9.707163,0.0019254042,0.003037113,-0.04893571,71.783936,156.9064,0.0047884034,1442826,-114,98,912,13279
64314619,4000,0,0.43396705,0.85294694,-9.809129,-0.002863131,-0.008705768,-0.033182066,71.79778,156.9064,0.0047884034,1442826,79,332,2291,13284
64414619,4000,0,0.7087266,0.3350509,-10.152546,-0.0030736465,-0.011674516,-0.04427049,71.81995,156.9064,0.0047884034,1442826,-468,-131,296,13292
64514620,4001,0,0.5211011,-0.26000804,-10.251335,-0.0034854487,-0.014062185,-0.04549688,71.85319,156.9064,0.0047884034,1442826,-570,94,-185,13304
64618619,3999,0,0.21580386,-0.6304885,-9.741938,0.009630613,0.007239854,-0.030976094,71.79778,156.9064,0.0047884034,1442826,164,-236,1735,13284
64722619,4000,0,-0.20554475,0.35028452,-9.874423,-0.0057456456,0.006516968,-0.048524875,71.81995,156.9064,0.0047884034,1442826,304,-152,299,13292
64822653,4034,0,-0.13701239,1.585157,-9.287358,-0.0046797516,0.014287228,-0.037643373,71.83933,156.9064,0.0047884034,1442826,548,-490,1964,13299
64923473,4054,0,-0.107865535,1.4282335,-9.328332,0.0042912317,-0.0037167615,-0.054118615,71.84764,156.9064,0.0047884034,1442826,254,-269,2603,13302
65028219,3976,0,0.55275625,0.06519678,-9.593253,-0.0014507186,0.008015462,-0.017756252,71.828255,156.9064,0.0047884034,1442826,1108,292,1847,13295
65132259,4001,0,0.22791441,-0.9797314,-10.524042,0.0023406022,-0.0061685927,-0.06390758,71.8421,156.9064,0.0047884034,1442826,436,-85,298,13300
65232227,4001,0,0.2678518,-0.7594818,-10.046372,0.0034399217,-0.00036126352,-0.046561323,71.831024,156.9064,0.0047884034,1442826,760,378,2040,13296
65336229,4010,0,0.110097036,0.82760334,-9.165374,0.00060465606,0.0049474896,-0.017321076,71.8421,156.9064,0.0047884034,1442826,-245,706,3604,13300
65436219,4000,0,0.4773266,1.2830901,-9.19345,0.01354843,0.008168926,-0.036885496,71.85596,156.9064,0.0047884034,1442826,335,498,3663,13305
65536264,4045,0,0.045621395,1.7353957,-9.469029,0.0043947296,-0.0039590346,-0.061424658,71.84487,156.9064,0.0047884034,1442826,-509,-1134,1146,13301
65641819,3999,0,0.11289818,0.16389894,-10.329945,0.009856091,-0.0077819116,-0.048072226,71.85873,156.9064,0.0047884034,1442826,957,-346,1282,13306
65741820,3967,0,0.3305707,-1.1077161,-10.139722,-0.0018158037,-0.010730191,-0.038765967,71.87534,156.9064,0.0047884034,1442826,-186,-474,2017,13312
65841819,3999,0,0.60306907,-1.1533087,-10.010974,0.00040893233,-0.00039580226,-0.035446282,71.88643,156.9064,0.0047884034,1442826,248,873,2985,13316
65945820,4001,0,-0.12767044,-0.9633018,-9.789308,-0.001285415,0.010035028,-0.019786075,71.84487,156.9064,0.0047884034,1442826,-142,287,2031,13301
66045819,4000,0,-0.19526131,0.543874,-9.544679,0.0056824335,0.012881324,-0.040872026,71.85319,156.9064,0.0047884034,1442826,1001,-190,2170,13304
66149820,4001,0,0.25751823,1.792034,-8.999113,0.0076225824,0.01261556,-0.044048198,71.87811,156.9064,0.0047884034,1442826,295,79,3028,13313
66247419,3999,0,0.20705843,1.9946069,-9.306007,-8.381286e-05,0.0006593832,-0.046491377,71.89751,156.9064,0.0047884034,1442826,43,189,2603,13320
66351419,4000,0,0.71035314,1.0884984,-10.035584,0.006128112,-0.012617592,-0.052690912,71.85873,156.9064,0.0047884034,1442826,744,94,3249,13306
66451465,4042,0,-0.077621885,0.048147317,-10.148018,-0.006287921,-0.009352331,-0.04873485,71.89197,156.9064,0.0047884034,1442826,241,-435,1560,13318
66551419,4000,0,0.6714776,-1.0068194,-10.162102,0.0012542685,-0.017720746,-0.048262708,71.83656,156.9064,0.0047884034,1442826,593,192,2897,13298
66655419,4000,0,0.1699303,-1.5290982,-9.998455,0.0013444384,0.00083990465,-0.038175493,71.89474,156.9064,0.0047884034,1442826,663,313,3377,13319
66755419,3998,0,-0.33234882,-0.9472825,-9.907146,-0.008931566,0.0063642384,-0.042017277,71.88088,156.9064,0.0047884034,1442826,-120,-219,1178,13314
66856226,4007,0,0.112004995,0.008463706,-9.453165,0.001651729,0.0037037856,-0.038233165,71.87811,156.9064,0.0047884034,1442826,14,215,3402,13313
66961020,4001,0,0.47026518,1.6073968,-8.755693,0.010433775,0.0057647764,-0.029945828,71.89751,156.9064,0.0047884034,1442826,1075,92,3642,13320
67061019,3993,0,-0.28082186,1.3426062,-9.750937,-0.004139138,-0.0010932595,-0.037702642,71.911354,156.9064,0.0047884034,1442826,646,-596,1572,13325
67161057,4037,0,0.92089003,0.8953932,-9.757427,0.0063534044,-0.009079708,-0.035344556,71.905815,156.9064,0.0047884034,1442826,857,296,2708,13323
67265053,4034,0,0.11139652,-1.244929,-10.457123,0.0079041235,0.0011069681,-0.037555624,71.869804,156.9064,0.0047884034,1442826,1194,297,1869,13310
67365034,4015,0,0.040279098,-1.5238528,-10.209232,-0.0077941394,0.001688513,-0.039692514,71.89474,156.9064,0.0047884034,1442826,103,110,1077,13319
67465020,4001,0,-0.44248992,-0.9090736,-10.490375,0.0052830074,0.003911524,-0.052966077,71.911354,156.9064,0.0047884034,1442826,551,-522,565,13325
67566619,4000,0,-0.31792212,-0.20177963,-9.244492,-0.0045769326,0.014282421,-0.018030982,71.92244,156.9064,0.0047884034,1442826,237,88,3329,13329
67670620,4001,0,0.3435832,1.2666215,-9.401462,-0.0017193741,0.010407612,-0.03358134,71.92798,156.9064,0.0047884034,1442826,-704,133,-164,13331
67770625,4006,0,0.01977697,1.786022,-9.809664,0.008476975,0.008530439,-0.05671657,71.91689,156.9064,0.0047884034,1442826,287,-444,917,13327
67870626,4005,0,0.52415967,1.1281838,-9.779087,-0.0007823035,-0.0052715153,-0.04051245,71.950134,156.9064,0.0047884034,1442826,-24,537,1073,13339
67974656,4037,0,0.9278618,-0.25075623,-10.363776,0.011000973,-0.0053804526,-0.041443337,71.93906,156.9064,0.0047884034,1442826,1105,538,2288,13335
68074619,3999,0,0.2729098,-1.2737805,-9.900191,-0.0041044625,-0.010041686,-0.03890209,71.93906,156.9064,0.0047884034,1442826,-92,-54,2222,13335
68176226,4002,0,0.1375028,-1.6578044,-10.510078,-0.003132343,0.0023010466,-0.038130112,71.944595,156.9064,0.0047884034,1442826,149,-60,-525,13337
68280219,4000,0,-0.1607408,-0.73795635,-9.543472,-0.0026138318,0.009511635,-0.038146555,71.950134,156.9064,0.0047884034,1442826,-100,389,1679,13339
68380219,3999,0,-0.2091308,0.6873092,-9.729322,0.008351796,0.010551147,-0.029615538,71.96399,156.9064,0.0047884034,1442826,-785,-466,474,13344
68480220,4001,0,-0.20717338,1.0454236,-9.087964,-0.004451097,0.016554032,-0.037626576,71.947365,156.9064,0.0047884034,1442826,-229,241,3256,13338
68584222,3996,0,-0.19691762,1.4212332,-9.325645,-0.00047365896,0.004840275,-0.03380035,71.947365,156.9064,0.0047884034,1442826,681,-193,2152,13338
68684221,3978,0,0.8550335,1.0171379,-9.678268,0.0015641795,-0.007623684,-0.04368651,71.96399,156.9064,0.0047884034,1442826,-85,62,1810,13344
68785019,3990,0,0.54627085,0.42706865,-10.180437,0.008138787,-0.012983801,-0.053051904,71.92521,156.9064,0.0047884034,1442826,855,-205,2397,13330
68889024,4005,0,-0.045296893,-1.387239,-10.176626,-0.0004611772,-0.0054137763,-0.054303423,71.96122,156.9064,0.0047884034,1442826,338,-389,626,13343
68989048,4023,0,-0.011921417,-1.2673247,-9.883382,0.0022733267,0.0020613093,-0.028996406,71.947365,156.9064,0.0047884034,1442826,-610,164,2985,13338
69089065,4046,0,-0.13737464,-0.5507709,-9.760683,-0.009115192,0.013395179,-0.025746074,71.96399,156.9064,0.0047884034,1442826,-82,441,355,13344
69193019,4000,0,-0.32238746,1.3276908,-9.308211,-0.00015978864,0.0068408744,-0.0437756,71.96676,156.9064,0.0047884034,1442826,-82,-792,1059,13345
69293019,4000,0,-0.20868579,1.5935261,-9.7359915,-0.0066852528,0.006022795,-0.04547609,71.9723,156.9064,0.0047884034,1442826,462,-474,1011,13347
69397019,3997,0,0.020749573,0.65411615,-9.910769,0.011824194,-0.00442438,-0.028463721,71.9723,156.9064,0.0047884034,1442826,1396,-37,1980,13347
69497025,3981,0,0.67082185,-0.52217865,-10.123577,0.0087596,-0.004554429,-0.032483637,71.96122,156.9064,0.0047884034,1442826,1259,26,832,13343
69597062,4023,0,0.730802,-1.3131279,-10.1781225,0.00048898417,-0.01118041,-0.03718421,71.99723,156.9064,0.0047884034,1442826,48,755,2263,13356
69698619,3950,0,-0.042030774,-1.6143317,-10.289502,-0.0037777885,0.004460327,-0.027599044,72.00554,156.9064,0.0047884034,1442826,-731,125,2051,13359
69802626,3976,0,0.26084447,0.33670035,-9.2746315,-0.0024520303,0.0009791371,-0.028963514,71.99723,156.9064,0.0047884034,1442826,337,582,2429,13356
69902648,4029,0,-0.097688034,1.1023827,-9.301643,-0.008350719,0.013662685,-0.046647195,71.99446,156.9064,0.0047884034,1442826,-205,196,2321,13355
70002622,4002,0,-0.053228844,1.2829423,-9.187455,0.00912576,0.00644352,-0.03162607,72.00554,156.9064,0.0047884034,1442826,-80,-26,1725,13359
70106619,4000,0,-0.04897773,0.65717244,-10.064113,0.0065312297,-0.0028459195,-0.035064794,72.00277,156.9064,0.0047884034,1442826,-116,-428,2087,13358
70206619,4000,0,0.5551215,-0.2611594,-9.714007,-0.0012078236,-0.01289992,-0.045919962,71.986145,156.9064,0.0047884034,1442826,-393,264,2512,13352
70308222,4003,0,0.39626864,-0.7193824,-10.297575,0.010750939,-0.0074488744,-0.03942015,72.03601,156.9064,0.0047884034,1442826,-542,-167,1908,13370
70408260,4041,0,0.19110237,-1.0973891,-10.086978,-0.0028409273,0.0039685043,-0.040370785,72.04155,156.9064,0.0047884034,1442826,-901,-347,-460,13372
70512219,4000,0,0.091749065,0.23954539,-9.577675,-0.0112217665,0.0010427206,-0.04030857,72.01108,156.9064,0.0047884034,1442826,-357,519,2024,13361
70612226,4007,0,-0.03758249,1.5964885,-9.317086,0.011695736,0.0013690089,-0.03879133,72.03324,156.9064,0.0047884034,1442826,-56,-338,1684,13369
70716219,4000,0,-0.04269404,1.1379503,-10.092039,0.00746899,-1.561374e-05,-0.040931728,72.04709,156.9064,0.0047884034,1442826,418,-353,2412,13374
70816219,4000,0,0.4627984,-0.20760892,-9.478131,-0.0009735403,-0.011434295,-0.030743485,72.07756,156.9064,0.0047884034,1442826,-666,196,2310,13385
70916219,4000,0,0.573249,-0.4331572,-9.956815,0.0072777956,-0.002572501,-0.034418173,72.02493,156.9064,0.0047884034,1442826,219,184,4365,13366
71021019,3993,0,-0.45049506,-0.5202735,-9.949267,0.0062265643,0.00704749,-0.045941886,72.06925,156.9064,0.0047884034,1442826,221,-1071,1410,13382
71121048,4029,0,0.31576985,0.17634027,-9.489171,0.0055748243,0.00018522236,-0.0246392,72.06094,156.9064,0.0047884034,1442826,488,-237,231,13379
71221019,3999,0,-0.085684516,0.5485337,-9.37318,-0.0069597904,-0.0055622705,-0.02157868,72.06371,156.9064,0.0047884034,1442826,-272,1061,3548,13380
71325023,4004,0,0.025074406,1.1558119,-9.814524,0.010081684,-0.004848077,-0.03603901,72.04986,156.9064,0.0047884034,1442826,-168,-342,2359,13375
71425020,4000,0,0.038751524,0.9296258,-10.092926,0.0033648382,-0.012751764,-0.0460231,72.0554,156.9064,0.0047884034,1442826,655,55,2486,13377
71529070,4008,0,0.42705014,-0.8924362,-9.7293825,-0.003139197,0.0020881637,-0.023267321,72.03878,156.9064,0.0047884034,1442826,-11,508,3640,13371
71633026,4006,0,-0.090099566,-0.23886459,-9.378937,0.0051257876,0.008587423,-0.032730337,72.058174,156.9064,0.0047884034,1442826,-965,-256,3306,13378
71737027,4007,0,0.38044348,1.5625088,-9.540914,0.010143181,0.0062679667,-0.03865465,72.08033,156.9064,0.0047884034,1442826,173,24,759,13386
71838619,3973,0,0.23278248,1.6023605,-9.525101,0.014475309,0.002340411,-0.031827193,72.07479,156.9064,0.0047884034,1442826,1080,-370,1762,13384
71938619,3999,0,-0.27003402,1.3790852,-9.4281435,0.007401534,-0.0034645556,-0.058723953,72.05263,156.9064,0.0047884034,1442826,358,-408,3201,13376
72042619,4000,0,0.34097683,-0.9689172,-10.203097,0.0039403494,-0.00871162,-0.0499617,72.04986,156.9064,0.0047884034,1442826,-49,-382,694,13375
72142619,3998,0,0.055302963,-0.84575593,-9.90168,-0.003913158,0.0033395048,-0.04784329,72.096954,156.9064,0.0047884034,1442826,439,-232,1987,13392
72246619,3999,0,-0.12067273,-0.18837087,-9.520188,0.0061850925,0.006140833,-0.03497075,72.096954,156.9064,0.0047884034,1442826,-1162,-708,1766,13392
72350619,3969,0,-0.09405026,1.5135524,-9.666195,0.00582278,0.0051345075,-0.04651036,72.07202,156.9064,0.0047884034,1442826,-635,-276,1436,13383
72452219,4000,0,0.01702648,1.6952251,-9.12895,-0.00822855,0.0013903981,-0.05074672,72.07756,156.9064,0.0047884034,1442826,44,342,3048,13385
72552219,3955,0,0.88214695,0.9529781,-9.998038,0.014394894,-0.010561755,-0.027953226,72.06925,156.9064,0.0047884034,1442826,1033,377,3421,13382
72652219,4000,0,0.18900341,0.0056224912,-9.881761,-0.0043509733,-0.0027030406,-0.04785349,72.14404,156.9064,0.0047884034,1442826,382,-715,512,13409
72756253,4034,0,-0.0475895,-1.4062432,-10.198694,-0.0058679683,-0.0025848425,-0.03386815,72.0831,156.9064,0.0047884034,1442826,338,-301,1948,13387
72856251,3997,0,-0.13126288,-1.6502186,-9.739154,-0.00052558427,-0.0061649466,-0.028888574,72.10249,156.9064,0.0047884034,1442826,-1391,43,2701,13394
72956223,3995,0,-0.22275844,0.015622258,-9.658174,0.00404484,0.010368955,-0.05059142,72.11634,156.9064,0.0047884034,1442826,456,-471,1339,13399
73057019,4799,0,-0.4118428,0.41632238,-9.523295,-0.0041988697,0.009407204,-0.046538956,72.14127,156.9064,0.0047884034,1442826,-695,-137,2285,13408
73161819,4000,0,-0.11605101,1.6712881,-9.207907,0.0036269706,0.0042287144,-0.057045992,72.130196,156.9064,0.0047884034,1442826,431,-517,2997,13404
73261819,4000,0,-0.027872512,1.0578305,-9.7074995,-0.014952255,-0.007409843,-0.051277366,72.11357,156.9064,0.0047884034,1442826,470,148,2408,13398
73365819,4000,0,0.6067052,-0.7501035,-9.549605,-0.0036559054,-0.0049727815,-0.046808,72.11634,156.9064,0.0047884034,1442826,154,-46,3534,13399
73469861,4042,0,-0.14028835,-1.0855477,-9.743759,0.0012119645,0.003551182,-0.029655213,72.132965,156.9064,0.0047884034,1442826,-585,-63,1820,13405
73569819,4000,0,-0.1921789,-0.5010638,-9.183345,-0.005757974,0.010756791,-0.028305406,72.14404,156.9064,0.0047884034,1442826,-160,40,2054,13409
73673819,3991,0,-0.42047945,1.5442141,-9.298477,-0.010967607,0.0035824426,-0.043462016,72.15512,156.9064,0.0047884034,1442826,-44,-450,1982,13413
73779461,4042,0,0.038377155,0.88830584,-9.715768,0.002760628,-0.014239322,-0.06467602,72.15235,156.9064,0.0047884034,1442826,-64,-847,2060,13412
73879419,3999,0,0.32725602,-0.44660583,-9.823332,-0.0031355813,0.0014092799,-0.035763822,72.16344,156.9064,0.0047884034,1442826,872,209,1784,13416
73983420,3984,0,0.0178119,-1.3988992,-10.440743,-0.002354155,-0.0012348564,-0.04112607,72.14958,156.9064,0.0047884034,1442826,-960,-361,1437,13411
74083420,4001,0,-0.057287388,-1.3469537,-9.906784,-0.0059792064,0.00052382855,-0.042511716,72.14127,156.9064,0.0047884034,1442826,-630,541,2020,13408
74183421,4001,0,-0.70694226,-0.05176089,-10.138268,0.0016063154,0.005407997,-0.048350606,72.130196,156.9064,0.0047884034,1442826,-128,-642,-159,13404
74287419,4000,0,0.25570053,1.9699785,-9.278904,0.008388715,0.011638894,-0.039085895,72.14127,156.9064,0.0047884034,1442826,235,-65,2945,13408
74385025,4005,0,-0.096684515,1.921389,-9.390897,0.004653211,0.0038924138,-0.036088314,72.14681,156.9064,0.0047884034,1442826,24,34,1586,13410
74489019,4000,0,0.23224072,0.9457727,-9.803318,0.012478123,0.0005670082,-0.04902136,72.15235,156.9064,0.0047884034,1442826,179,-606,1102,13412
74589019,4000,0,0.5881752,-0.4631964,-9.6052,0.008223865,-0.0037497962,-0.046682015,72.16067,156.9064,0.0047884034,1442826,-116,87,1281,13415
74689020,4001,0,0.7363683,-1.1078112,-10.129441,0.00045691011,-0.008999014,-0.045911744,72.18836,156.9064,0.0047884034,1442826,15,498,281,13425
74793026,3970,0,-0.5263133,-0.9301924,-10.206593,-0.0075029936,-0.0008888084,-0.059353128,72.174515,156.9064,0.0047884034,1442826,-936,-456,351,13420
74893019,3969,0,-0.49873668,-0.23899344,-9.450424,0.0033367048,0.011407664,-0.03225493,72.15235,156.9064,0.0047884034,1442826,-62,-548,1139,13412
74993819,3957,0,-0.14573473,0.68919104,-9.100084,0.008331887,0.00045907265,-0.022103585,72.177284,156.9064,0.0047884034,1442826,-654,-33,2553,13421
75097819,4000,0,-0.62974393,1.1419269,-9.639575,-0.0041385503,-0.0016754629,-0.041039683,72.174515,156.9064,0.0047884034,1442826,435,-857,-244,13420
75197826,4006,0,-0.073227346,1.0800401,-9.682568,0.0068572215,-0.0059654107,-0.041867945,72.18282,156.9064,0.0047884034,1442826,535,-783,2466,13423
75297819,3987,0,0.74988556,-0.4383177,-10.163616,0.021517202,-0.008879036,-0.018776458,72.16621,156.9064,0.0047884034,1442826,337,-186,2686,13417
75401858,4039,0,-0.083290525,-1.2815188,-10.0036,-0.004804922,-0.0024182778,-0.031040536,72.210526,156.9064,0.0047884034,1442826,-674,-162,2687,13433
75501853,4034,0,-0.36694077,-0.6522751,-10.003368,0.011957109,3.9977487e-05,-0.041578755,72.1939,156.9064,0.0047884034,1442826,-60,-157,2647,13427
75605819,3988,0,-0.0017992437,0.6852188,-8.908754,0.0009359218,0.005708408,-0.014166269,72.18559,156.9064,0.0047884034,1442826,-286,899,3464,13424
75705819,4000,0,0.017064791,1.2509443,-8.694004,-0.003430592,0.0069170734,-0.0387816,72.207756,156.9064,0.0047884034,1442826,43,1214,4112,13432
75809819,4000,0,0.17779572,0.40914586,-9.7383585,0.014094992,0.002978146,-0.04304736,72.20222,156.9064,0.0047884034,1442826,1049,49,3480,13430
