timestamp,integral_dt,error_count,x,y,z,x_integral,y_integral,z_integral,temperature,range_m_s2,scaling,device_id,x_raw,y_raw,z_raw,temperature_raw
35565870,4000,0,-0.09656776,0.5547095,-9.905631,-7.392538e-05,0.0014875375,-0.0409829,65.30471,156.9064,0.0047884034,1442826,48,8,2198,10940
35665977,4107,0,0.28022665,0.035064284,-9.939412,0.0036753172,-0.00251689,-0.04103701,65.296394,156.9064,0.0047884034,1442826,307,-7,2177,10937
35765911,4041,0,0.48639065,-0.77602667,-9.761456,0.00060016476,0.0016157255,-0.03457107,65.30748,156.9064,0.0047884034,1442826,-411,198,1887,10941
35865870,3933,0,0.14855811,-0.20559019,-10.237089,-0.0011564468,-0.007693322,-0.040390037,65.33518,156.9064,0.0047884034,1442826,487,143,2320,10951
35966693,4803,0,0.678924,2.488263,-9.6261015,0.0020442002,-0.004739551,-0.052141637,65.31302,156.9064,0.0047884034,1442826,917,98,2269,10943
36071494,4001,0,0.85928875,2.4143252,-9.908432,-0.0005687743,-0.0051106657,-0.045005593,65.30471,156.9064,0.0047884034,1442826,809,64,1906,10940
36171507,4014,0,0.92018205,2.426027,-9.440025,-0.0008157171,-0.004746411,-0.044714823,65.29917,156.9064,0.0047884034,1442826,756,284,2745,10938
36271493,3999,0,-0.08725193,0.14469507,-9.834996,-0.004707128,-0.011728981,-0.04426051,65.31579,156.9064,0.0047884034,1442826,340,181,2128,10944
36375493,3924,0,1.1132892,0.7012238,-9.347173,0.0011906937,-0.0028681294,-0.034747303,65.31579,156.9064,0.0047884034,1442826,66,420,2103,10944
36475501,4007,0,0.27015492,0.5779811,-9.716673,0.014471123,0.00455851,-0.037464403,65.35734,156.9064,0.0047884034,1442826,204,-620,1773,10959
36575502,4008,0,-1.1230537,-0.8817931,-10.06122,-0.00011771405,0.009331651,-0.03714191,65.33241,156.9064,0.0047884034,1442826,-238,-467,2097,10950
36679493,3999,0,-0.7388764,-0.9975666,-10.36015,-0.001565876,-0.0011655746,-0.039749786,65.329636,156.9064,0.0047884034,1442826,-750,-207,1574,10949
36783494,4001,0,-0.60677236,-0.7603422,-10.276285,0.00631451,0.005787134,-0.03798077,65.3241,156.9064,0.0047884034,1442826,140,-693,1640,10947
36885094,3993,0,-0.7623448,-0.38172984,-9.953656,-0.0002930074,-0.003040895,-0.040091373,65.31302,156.9064,0.0047884034,1442826,-55,-141,2255,10943
36989100,4006,0,0.19374585,0.028715663,-9.672675,-0.008988477,-0.014103499,-0.04183568,65.31302,156.9064,0.0047884034,1442826,791,631,2488,10943
37089094,3984,0,0.5404936,0.37115544,-9.673024,0.009800024,0.014330876,-0.03559691,65.326866,156.9064,0.0047884034,1442826,-463,-372,1916,10948
37189102,4002,0,0.27630886,0.41198325,-9.609905,-0.0017412025,-0.010816769,-0.04177533,65.31025,156.9064,0.0047884034,1442826,655,417,2394,10942
37293094,4000,0,0.36617762,0.37643874,-9.648584,0.008880686,0.005521274,-0.036248468,65.33795,156.9064,0.0047884034,1442826,-325,-191,1662,10952
37393094,3997,0,-0.9968478,-0.1948981,-10.12105,-0.010361724,-0.0019445195,-0.046471775,65.30194,156.9064,0.0047884034,1442826,-81,-147,2011,10939
37493094,3958,0,0.69223547,0.46616513,-9.530218,-0.010129632,0.0023888578,-0.03969978,65.34072,156.9064,0.0047884034,1442826,463,760,2208,10953
37597118,4024,0,-0.8367831,-0.16463652,-10.079948,-0.00087226904,0.007870528,-0.040382728,65.34626,156.9064,0.0047884034,1442826,477,-633,1753,10955
37698737,4868,0,-0.40413603,-0.014356925,-9.402656,-0.010754777,-0.02154481,-0.054463513,65.36565,156.9064,0.0047884034,1442826,729,535,3454,10962
37798733,4037,0,-0.26249418,0.36345792,-9.725908,0.0134753715,0.00036164356,-0.038345244,65.37396,156.9064,0.0047884034,1442826,157,-590,2634,10965
37898699,4000,0,0.85306644,0.39615545,-9.530122,-0.006509495,0.0024250825,-0.02702298,65.31579,156.9064,0.0047884034,1442826,599,803,2325,10944
38002693,3994,0,1.2431959,0.02253393,-9.729466,0.0049087247,-0.000430397,-0.027376723,65.36288,156.9064,0.0047884034,1442826,724,631,1645,10961
38102693,3994,0,1.0146009,0.06274485,-10.265772,-0.0060701068,0.013074304,-0.047567237,65.36842,156.9064,0.0047884034,1442826,385,1011,2289,10963
38202780,4087,0,-0.9578048,0.5712847,-11.105149,-0.007650411,0.0037123682,-0.05731827,65.3795,156.9064,0.0047884034,1442826,-293,-592,1786,10967
38306717,4024,0,-0.10794087,-0.29184625,-10.130097,-0.016467966,-0.013118072,-0.038590558,65.37119,156.9064,0.0047884034,1442826,-455,-261,1341,10964
38406693,3999,0,-0.29493552,-0.27651432,-10.190923,-0.013414032,0.0041713323,-0.054463565,65.35734,156.9064,0.0047884034,1442826,-4,-375,2583,10959
38510697,4004,0,0.07649959,0.33907005,-9.610405,-0.012717411,-0.004644128,-0.040508576,65.39889,156.9064,0.0047884034,1442826,-737,735,787,10974
38612343,4029,0,0.3202677,1.2221953,-10.178049,0.0054063997,-0.0013664727,-0.04045815,65.35457,156.9064,0.0047884034,1442826,536,229,2454,10958
38712326,4012,0,-0.28068686,0.949158,-10.168889,0.004796012,0.0017358052,-0.039985478,65.38504,156.9064,0.0047884034,1442826,502,62,2062,10969
38812320,3998,0,0.18667278,0.10812181,-9.6547575,-0.0076442556,-0.0056341058,-0.04617536,65.37119,156.9064,0.0047884034,1442826,-793,-112,482,10964
38916314,4000,0,-0.13526656,0.118556805,-10.504321,-0.01065234,-0.0050745015,-0.054719493,65.38504,156.9064,0.0047884034,1442826,-715,-334,1212,10969
39016340,4016,0,-0.2510581,-0.37955713,-12.055295,-0.007991242,0.005121165,-0.058781475,65.36288,156.9064,0.0047884034,1442826,-118,-641,1233,10961
39116322,4008,0,0.5431067,-0.3803093,-11.26797,0.006662352,-0.0039599654,-0.050522685,65.37396,156.9064,0.0047884034,1442826,-995,-441,140,10965
39220335,4021,0,-0.5544839,0.8425559,-10.499914,-0.007811196,0.0061087124,-0.050450318,65.37119,156.9064,0.0047884034,1442826,-212,-905,2706,10964
39320314,4000,0,-0.058309153,0.7978322,-10.777874,0.0031985515,0.0012947551,-0.05744555,65.39058,156.9064,0.0047884034,1442826,391,-644,2808,10971
39425894,3995,0,-0.11308181,-0.8805934,-11.430154,-0.0043686763,-0.0011077933,-0.03629028,65.36842,156.9064,0.0047884034,1442826,-83,610,4125,10963
39529937,4043,0,0.012364345,-0.062768765,-11.217981,-0.003145557,0.0083266925,-0.046263322,65.41828,156.9064,0.0047884034,1442826,-1278,9,-30,10981
39629894,4001,0,-0.36077276,1.3654169,-10.734365,0.0056810956,0.007995676,-0.04630565,65.42659,156.9064,0.0047884034,1442826,127,-1090,1979,10984
39729907,4008,0,0.69080615,1.8821387,-10.247551,-0.00234384,-0.005256843,-0.046126377,65.4072,156.9064,0.0047884034,1442826,400,1153,4142,10977
39833920,4027,0,0.54522085,-0.47867954,-11.624692,-0.0018738172,-0.015024625,-0.04839518,65.4072,156.9064,0.0047884034,1442826,518,-237,3125,10977
39933907,4013,0,0.42037395,-1.3177646,-11.614951,-0.00046243006,0.003782534,-0.028534342,65.45152,156.9064,0.0047884034,1442826,-474,386,2947,10993
40033937,4044,0,-0.17884542,-0.21294154,-9.861069,-0.004996624,0.012824672,-0.04281508,65.37119,156.9064,0.0047884034,1442826,-491,-119,2784,10964
40137943,4002,0,0.052294053,1.1708648,-9.350255,0.013148975,1.1071679e-06,-0.03973065,65.39889,156.9064,0.0047884034,1442826,416,-575,1051,10974
40239500,3965,0,-0.06163538,0.6607438,-9.483733,-0.002496982,-0.009218378,-0.04416969,65.38781,156.9064,0.0047884034,1442826,519,-275,2149,10970
40339501,3985,0,0.8695712,-0.697695,-9.699409,-0.0011143652,0.000354558,-0.029873677,65.42936,156.9064,0.0047884034,1442826,-195,185,176,10985
40439495,4002,0,0.22068393,-0.5996004,-9.355114,0.0103913015,0.0014936478,-0.029739711,65.434906,156.9064,0.0047884034,1442826,-31,-232,1366,10987
40543493,3993,0,0.02561245,1.5775626,-8.887145,0.010281623,0.008561669,-0.03469269,65.42659,156.9064,0.0047884034,1442826,373,27,1250,10984
40643493,4000,0,-0.13611868,1.0316997,-9.28113,-0.0036600344,-0.0011480344,-0.065160185,65.443214,156.9064,0.0047884034,1442826,68,-520,1344,10990
40747500,4007,0,0.1377552,-1.1258551,-9.986607,-0.0055137924,-0.007176839,-0.039723042,65.434906,156.9064,0.0047884034,1442826,-86,-139,1424,10987
40847500,4001,0,0.3539651,-1.1789923,-9.214677,-0.0043649403,0.00056020706,-0.0283565,65.47092,156.9064,0.0047884034,1442826,-634,749,2511,11000
40947527,4033,0,-0.2183486,0.7320908,-9.009667,0.0065219062,0.012208009,-0.024428343,65.434906,156.9064,0.0047884034,1442826,101,-191,554,10987
41051494,4001,0,0.06882042,1.6598141,-9.092859,0.0054175397,0.0044498746,-0.046220247,65.434906,156.9064,0.0047884034,1442826,965,-463,598,10987
41153093,3989,0,0.2459764,-0.49407557,-10.012619,-0.004433451,-0.008405123,-0.039631426,65.437675,156.9064,0.0047884034,1442826,510,38,2969,10988
41253100,4007,0,0.77831966,-1.6733851,-9.971895,-0.0029927592,-0.006046485,-0.034815446,65.45706,156.9064,0.0047884034,1442826,-552,538,1152,10995
41353097,4004,0,0.17980544,-0.8694822,-9.776921,0.01536592,0.006260555,-0.015420419,65.45983,156.9064,0.0047884034,1442826,437,-221,724,10996
41457093,3989,0,-0.24766399,1.6225786,-9.253689,0.009814933,0.006263587,-0.03092997,65.45429,156.9064,0.0047884034,1442826,226,-403,803,10994
41561070,3977,0,0.45670167,0.26676404,-9.583784,0.0120854415,-0.007503755,-0.033357218,65.476456,156.9064,0.0047884034,1442826,-1,-533,1426,11002
41661122,4046,0,0.47674724,-1.2140769,-10.62059,0.0034022504,-0.009980125,-0.044913746,65.48753,156.9064,0.0047884034,1442826,59,-304,2475,11006
41765093,3994,0,-0.23429894,-0.83007115,-10.067871,-0.00022078329,0.0049461494,-0.023749541,65.46814,156.9064,0.0047884034,1442826,-79,186,2516,10999
41865130,4031,0,0.06583302,0.53210366,-9.645428,-0.0069527444,0.005744774,-0.043737013,65.515236,156.9064,0.0047884034,1442826,-495,361,2193,11016
41966694,3994,0,-0.29612207,1.3304201,-9.0694275,-0.004739826,0.0005471738,-0.052775487,65.51247,156.9064,0.0047884034,1442826,297,-264,2917,11015
42070700,3981,0,0.79602367,-0.37124068,-9.935903,-0.0051258346,-0.013178109,-0.049693853,65.484764,156.9064,0.0047884034,1442826,-557,526,2396,11005
42170702,4009,0,0.24659815,-0.95360386,-10.581376,-0.00050709286,0.0007324622,-0.032236703,65.53462,156.9064,0.0047884034,1442826,28,7,2393,11023
42270694,3961,0,-0.25215214,-0.014820713,-9.956082,0.0035701967,0.01698969,-0.028775943,65.51247,156.9064,0.0047884034,1442826,13,-263,1209,11015
42374732,4038,0,-0.23285563,1.1895931,-9.208829,-0.0070768585,-0.0032388403,-0.03774249,65.54017,156.9064,0.0047884034,1442826,-522,-102,2620,11025
42474708,4014,0,-0.43841723,0.55780303,-9.75955,0.004664546,-0.0039956206,-0.047526196,65.49861,156.9064,0.0047884034,1442826,-150,-1281,1945,11010
42578694,3994,0,0.41745695,-1.0451237,-9.703979,-0.00035894744,-0.0052584345,-0.038448483,65.50693,156.9064,0.0047884034,1442826,890,466,2884,11013
42678694,3955,0,0.36574087,-1.0787402,-9.325764,0.0049708756,-0.0029556267,-0.022929363,65.53739,156.9064,0.0047884034,1442826,-484,378,1667,11024
42780276,4006,0,-0.22624555,0.8296287,-8.894789,0.0014381816,0.0036233386,-0.025830658,65.53739,156.9064,0.0047884034,1442826,275,-84,1132,11024
42884270,4000,0,0.48095098,0.6268359,-9.171675,0.002894084,0.0014209127,-0.034647718,65.51247,156.9064,0.0047884034,1442826,-238,120,806,11015
42984296,4001,0,0.7399852,-0.5377308,-9.632885,-0.0004161246,0.006231691,-0.03339186,65.562325,156.9064,0.0047884034,1442826,224,655,2020,11033
43088281,4009,0,-0.6189801,-0.5487723,-9.878438,0.0026804917,0.0110885985,-0.035899386,65.56786,156.9064,0.0047884034,1442826,-1202,-463,1258,11035
43188308,4038,0,0.0118051395,0.8001926,-8.953842,0.0035431718,0.018393043,-0.03185172,65.53185,156.9064,0.0047884034,1442826,-589,-350,515,11022
43292284,4014,0,-0.09983641,0.66188633,-8.971001,0.008112443,0.002938754,-0.030408747,65.559555,156.9064,0.0047884034,1442826,603,-378,2873,11032
43392286,4016,0,0.24557552,-0.46830842,-9.616862,-0.008529507,-0.007664648,-0.040945977,65.54571,156.9064,0.0047884034,1442826,522,-317,1783,11027
43492272,4002,0,0.54827094,-1.2637498,-9.982541,-0.0024603158,-0.0027071198,-0.028506815,65.57063,156.9064,0.0047884034,1442826,-100,703,2454,11036
43593914,4000,0,0.036118142,-0.54416955,-9.250562,-0.0038364881,0.004580115,-0.036255836,65.58726,156.9064,0.0047884034,1442826,-1187,152,1619,11042
43697914,3988,0,0.0565571,1.1157593,-8.774869,-0.0073955497,0.0037131654,-0.047517996,65.56786,156.9064,0.0047884034,1442826,628,617,2546,11035
43801914,4000,0,0.57622623,-0.52815527,-10.136501,-0.0030283611,-0.009433455,-0.040676225,65.595566,156.9064,0.0047884034,1442826,-225,-524,18,11045
43901959,4008,0,0.027905129,-1.3183322,-9.920886,-0.002105284,-0.0049351924,-0.030854216,65.595566,156.9064,0.0047884034,1442826,306,570,3148,11045
44005914,3994,0,0.53432953,-0.199096,-9.349216,0.004476186,0.012495167,-0.03822088,65.598335,156.9064,0.0047884034,1442826,-316,718,1850,11046
44105914,4000,0,-0.29793122,0.80727774,-8.685432,0.002651229,0.012163832,-0.032434013,65.598335,156.9064,0.0047884034,1442826,-63,-752,879,11046
44205914,4000,0,0.34765604,1.2223681,-9.312663,0.0034941742,-0.0025541035,-0.05213714,65.59003,156.9064,0.0047884034,1442826,-377,-548,2449,11043
44309914,3999,0,0.35238236,-0.66895866,-9.768681,0.0062657255,-0.0055306572,-0.038558725,65.62881,156.9064,0.0047884034,1442826,369,667,2424,11057
44409914,4000,0,0.45128632,-0.6278926,-10.147982,0.004745438,-0.0044108583,-0.041372612,65.58172,156.9064,0.0047884034,1442826,-901,215,354,11040
44511471,3962,0,-0.14097315,0.96974367,-9.458807,0.0026414916,0.0055895187,-0.030547224,65.5928,156.9064,0.0047884034,1442826,952,34,1099,11044
44611481,4011,0,0.2428398,1.2760667,-9.373789,0.009096277,0.0030559758,-0.031667974,65.61496,156.9064,0.0047884034,1442826,793,8,2461,11052
44715510,4040,0,0.45231438,-0.8054844,-11.060069,-0.0017186078,-0.007825556,-0.0424565,65.61496,156.9064,0.0047884034,1442826,78,-416,2005,11052
44819470,4000,0,0.12794885,-0.8647,-10.227538,-0.0045014475,0.002002694,-0.0411987,65.601105,156.9064,0.0047884034,1442826,296,571,2736,11047
44923470,3995,0,0.052223563,0.90614676,-9.675119,0.0034425673,0.004358473,-0.039085727,65.639885,156.9064,0.0047884034,1442826,-433,-179,473,11061
45023549,4047,0,-0.13768278,1.196831,-9.658366,-0.0062478133,-0.0031655256,-0.03565707,65.65097,156.9064,0.0047884034,1442826,81,-65,2175,11065
45123470,4001,0,0.22319958,0.25996682,-10.366762,0.0075333384,-0.0050402624,-0.044003822,65.62604,156.9064,0.0047884034,1442826,250,-309,1660,11056
45227535,4064,0,0.17250891,-0.6103038,-10.265037,0.0014735146,0.0060194745,-0.040907655,65.595566,156.9064,0.0047884034,1442826,18,166,3449,11045
45329109,4016,0,0.019325357,-0.41761488,-9.710795,-0.008528262,0.00423751,-0.03612359,65.66482,156.9064,0.0047884034,1442826,-845,-125,1627,11070
45429101,4008,0,-0.2503977,0.9671751,-9.953114,0.012917777,0.0018336627,-0.04091499,65.64543,156.9064,0.0047884034,1442826,73,-55,2311,11063
45529093,3999,0,0.3246605,1.1618118,-9.504082,-0.009170672,-0.0066671297,-0.06540043,65.6482,156.9064,0.0047884034,1442826,-388,149,2296,11064
45633093,4000,0,0.2936081,-0.7680963,-10.629827,-0.007115874,-0.014255467,-0.047496337,65.65374,156.9064,0.0047884034,1442826,-56,-392,1571,11066
46762699,3999,0,0.5865272,0.65443826,-9.46847,0.008572884,-0.007352246,-0.033691145,65.70914,156.9064,0.0047884034,1442826,1174,-1,2469,11086
46862720,4026,0,0.29064888,-0.9074918,-10.49566,0.0081196055,-0.014701862,-0.050118923,65.7036,156.9064,0.0047884034,1442826,-143,-583,713,11084
46964334,4041,0,-0.009889354,-0.96070987,-9.491428,0.010771262,-0.0046773665,-0.028208893,65.68698,156.9064,0.0047884034,1442826,-592,-479,684,11078
47068293,3993,0,-0.40370885,0.96540177,-8.076543,0.013990102,0.0035206587,-0.04562426,65.72853,156.9064,0.0047884034,1442826,-306,-1116,917,11093
47168293,4000,0,0.91422594,0.43588838,-8.177963,0.009670131,-0.015068351,-0.009025663,65.67867,156.9064,0.0047884034,1442826,792,773,1732,11075
47272293,4000,0,-0.32348758,-1.4960806,-9.296785,0.0034337672,-0.0011080683,-0.02489069,65.750694,156.9064,0.0047884034,1442826,989,-501,1113,11101
47376293,4000,0,-0.27585465,0.19404957,-9.421273,0.008057602,-0.0012370922,-0.020013938,65.69806,156.9064,0.0047884034,1442826,-262,-172,775,11082
47476351,4058,0,-0.03544636,1.0949104,-8.863438,-0.0031082844,-0.0062884637,-0.028172005,65.72576,156.9064,0.0047884034,1442826,-288,31,2524,11092
47580322,3969,0,0.09942833,0.28856725,-9.597338,0.0006911962,-0.0008272928,-0.041559972,65.70914,156.9064,0.0047884034,1442826,-164,-1050,1181,11086
47680294,4001,0,0.55456334,-0.88550717,-10.08098,0.0031020073,-0.002855156,-0.03247104,65.73961,156.9064,0.0047884034,1442826,478,-348,1934,11097
47781920,3980,0,0.40360227,-1.2384065,-10.282498,-0.0060145836,-0.010845636,-0.053321715,65.72853,156.9064,0.0047884034,1442826,-98,577,3324,11093
47881923,4009,0,0.04955197,-0.47074637,-10.025583,0.00094047573,0.015882798,-0.03749274,65.71468,156.9064,0.0047884034,1442826,272,411,1745,11088
47981914,3997,0,-0.22396804,0.6819718,-9.467881,-0.0023498638,0.0034119466,-0.05825239,65.72853,156.9064,0.0047884034,1442826,-718,-720,2707,11093
48085914,4000,0,-0.1901913,0.6177181,-9.873256,-0.002050022,-0.0033540812,-0.038056735,65.76731,156.9064,0.0047884034,1442826,135,-61,3183,11107
48185923,3943,0,0.7189135,-0.8469875,-10.280533,-0.0017454489,-0.0050269477,-0.049690567,65.73961,156.9064,0.0047884034,1442826,1297,-14,2325,11097
48289959,4000,0,-0.04032229,-0.8881917,-10.4611225,0.0077050645,0.0033728615,-0.017062854,65.76454,156.9064,0.0047884034,1442826,1367,684,3716,11106
48393921,4000,0,-0.19834892,1.0785306,-9.56977,-0.0004076364,0.003357382,-0.05427017,65.75623,156.9064,0.0047884034,1442826,-374,-552,1081,11103
48493914,4000,0,-0.52359277,1.3598458,-9.770784,-0.0037853424,0.0027013414,-0.044318557,65.75623,156.9064,0.0047884034,1442826,-342,-147,2278,11103
48597914,4000,0,0.4290932,-0.058285818,-10.010203,0.013104153,-0.00136347,-0.038442023,65.76731,156.9064,0.0047884034,1442826,1080,-870,1730,11107
48699550,4057,0,1.4399523,-1.5523318,-11.125082,0.0004422685,-0.015249705,-0.051181488,65.80055,156.9064,0.0047884034,1442826,419,-163,393,11119
48799500,4007,0,-0.7552679,-1.6494222,-10.608819,0.00074559846,-0.0010411611,-0.05545889,65.77562,156.9064,0.0047884034,1442826,21,-1261,2222,11110
48903495,3995,0,0.53521395,-0.20415317,-8.921514,0.011556521,0.0033040706,-0.030817691,65.750694,156.9064,0.0047884034,1442826,-313,657,3179,11101
49003497,4004,0,0.8231796,1.2159142,-9.937161,-0.001303465,0.012010392,-0.03567133,65.80055,156.9064,0.0047884034,1442826,-1037,-238,2124,11119
49103532,4038,0,-0.22762826,1.406444,-9.66683,-0.004286912,0.011652219,-0.042970344,65.822716,156.9064,0.0047884034,1442826,-820,1,3675,11127
49203493,4000,0,-0.8818347,1.3307649,-10.188107,-0.015670652,0.0038568466,-0.05874667,65.786705,156.9064,0.0047884034,1442826,299,-1202,2563,11114
49307531,4038,0,0.57403,-0.39237577,-11.249023,-0.00059904053,-0.012537168,-0.047131788,65.76731,156.9064,0.0047884034,1442826,-184,-304,2366,11107
49411542,4049,0,0.37901482,-0.28248373,-11.172903,0.016957905,0.020809732,-0.028163446,65.80609,156.9064,0.0047884034,1442826,1830,-172,2074,11121
49509131,4038,0,-0.18183963,-0.8520627,-11.104162,0.030278346,-0.0014031687,-0.038404368,65.80055,156.9064,0.0047884034,1442826,870,-1169,292,11119
49613104,4003,0,-0.48492408,0.81482226,-9.997107,0.008682424,-0.005637645,-0.047022928,65.786705,156.9064,0.0047884034,1442826,643,-1256,1312,11114
49713100,3968,0,0.59299994,0.3151631,-10.195937,-0.0026529501,-0.022537144,-0.042492405,65.81718,156.9064,0.0047884034,1442826,-449,647,3333,11125
49813093,3999,0,-0.3573638,-0.54568624,-10.215102,-0.040347435,0.010177661,-0.034280136,65.79501,156.9064,0.0047884034,1442826,1485,1520,3117,11117
49917093,4000,0,-0.5274739,-1.3557067,-9.938082,-0.0027091089,0.017797584,-0.050522145,65.789474,156.9064,0.0047884034,1442826,-483,-731,2482,11115
50017093,3970,0,0.502688,-0.09626102,-9.748956,0.0027127427,0.01593459,-0.042776708,65.828255,156.9064,0.0047884034,1442826,703,-1099,2023,11129
50117100,3966,0,1.0188636,0.7632626,-9.668213,0.023329793,-0.0013040043,-0.042260956,65.8421,156.9064,0.0047884034,1442826,768,1172,3044,11134
50221133,4031,0,0.5674257,-0.79290795,-9.589782,0.0063994876,-0.019972984,-0.02919452,65.80055,156.9064,0.0047884034,1442826,346,840,2667,11119
50322718,4005,0,0.25921246,-1.0133655,-9.965733,-0.023028826,-0.009882957,-0.021215355,65.80055,156.9064,0.0047884034,1442826,1436,915,2639,11119
50426740,3975,0,0.18162797,0.4076804,-9.212567,0.0010526773,0.015920836,-0.016497992,65.84764,156.9064,0.0047884034,1442826,940,-29,2120,11136
50530729,4029,0,0.6270661,0.5505783,-8.877255,0.0067402544,0.0060717054,-0.037852526,65.88643,156.9064,0.0047884034,1442826,-439,-31,1896,11150
50634731,4038,0,0.3693007,-0.8613477,-9.675934,-0.0030446695,0.001942521,-0.023214385,65.81163,156.9064,0.0047884034,1442826,-247,-182,2344,11123
50734700,4007,0,-0.2328264,-0.6605145,-9.733132,-0.0039916807,0.0044172695,-0.049372293,65.85596,156.9064,0.0047884034,1442826,-487,-385,1400,11139
50834699,4006,0,-0.3312368,0.36212143,-9.353486,-0.0059410734,0.006790653,-0.024197286,65.87534,156.9064,0.0047884034,1442826,209,212,3265,11146
50938693,3970,0,0.23436792,1.1144052,-9.088508,-0.009255231,0.00548764,-0.042259477,65.864265,156.9064,0.0047884034,1442826,616,2,3162,11142
51046693,3993,0,0.5349805,-1.4514133,-10.55635,0.0053792866,-0.004861707,-0.031309225,65.85319,156.9064,0.0047884034,1442826,5,118,2424,11138
51148293,3999,0,0.2793201,0.4443897,-9.74101,0.008288835,0.009852582,-0.02954067,65.87811,156.9064,0.0047884034,1442826,79,287,2671,11147
51248293,3960,0,-0.04855514,1.3262911,-9.506898,0.010761967,0.013853808,-0.022179145,65.87534,156.9064,0.0047884034,1442826,-512,-475,1190,11146
51352294,3994,0,0.48125455,0.17701401,-9.884851,0.010697812,-0.005124286,-0.04398323,65.85873,156.9064,0.0047884034,1442826,-41,-741,984,11140
51452320,4027,0,0.49078926,-0.9601955,-9.959,0.00089978386,0.0010351592,-0.029664068,65.872574,156.9064,0.0047884034,1442826,227,33,2041,11145
51556294,4000,0,0.24554236,-0.30217272,-9.865533,0.010575408,0.010799723,-0.013253801,65.872574,156.9064,0.0047884034,1442826,-289,-50,1623,11145
51660294,4001,0,0.47893628,1.1965107,-9.091496,0.004938515,0.002561896,-0.04160735,65.85873,156.9064,0.0047884034,1442826,407,285,1424,11140
51760331,4037,0,0.19488531,0.26830778,-9.733419,-0.0013351598,-0.013365184,-0.04386663,65.869804,156.9064,0.0047884034,1442826,-253,-283,572,11144
51864304,4011,0,0.6259751,-0.99528545,-10.1159935,0.0045602573,0.0010699115,-0.03570623,65.91412,156.9064,0.0047884034,1442826,92,881,4396,11160
51961907,4037,0,0.46583244,-0.95697796,-10.193125,0.0024789008,0.0022358322,-0.044691596,65.903046,156.9064,0.0047884034,1442826,-1008,201,2046,11156
52065871,4001,0,-0.4386318,0.5437715,-9.486196,-0.0021165265,0.007936906,-0.037741173,65.872574,156.9064,0.0047884034,1442826,-504,-109,1184,11145
52165898,4028,0,-0.1152059,1.4938173,-9.361917,0.007851785,0.0010623233,-0.042149395,65.861496,156.9064,0.0047884034,1442826,2074,-147,2357,11141
52265870,4000,0,0.31438956,0.60190177,-9.475729,-0.00216879,0.0003026009,-0.045065872,65.900276,156.9064,0.0047884034,1442826,534,-795,2798,11155
52369870,4000,0,-0.06511112,-1.1973945,-10.816439,-0.0077466825,0.009094002,-0.054940153,65.91412,156.9064,0.0047884034,1442826,-200,-1000,1800,11160
52469870,3959,0,-0.27231473,-1.1346817,-9.94998,-0.013988804,0.0017439474,-0.04254398,65.89751,156.9064,0.0047884034,1442826,-1560,-318,2509,11154
52573870,3971,0,-0.22346944,1.3439653,-9.103837,-0.0020842664,0.0110845575,-0.033243284,65.91689,156.9064,0.0047884034,1442826,-192,-754,2406,11161
52673911,4030,0,-0.20292465,0.637124,-9.555405,-0.010519125,-0.002153819,-0.040629163,65.92521,156.9064,0.0047884034,1442826,-201,20,1610,11164
52779522,4007,0,0.5049645,-0.18112658,-10.194267,0.0019793313,0.0047556716,-0.036418255,65.95568,156.9064,0.0047884034,1442826,1301,-766,2541,11175
52879545,4023,0,0.49818614,-1.2289712,-9.709232,0.0014308408,0.006076708,-0.030463886,65.911354,156.9064,0.0047884034,1442826,-537,-107,1778,11159
52983526,4011,0,-0.37897372,0.7156994,-9.315847,0.009014474,0.0066889417,-0.03546537,65.947365,156.9064,0.0047884034,1442826,-90,-270,2368,11172
53083515,4000,0,0.46160078,0.73162746,-9.244077,-0.0094271535,0.0012474378,-0.035245918,65.908585,156.9064,0.0047884034,1442826,300,53,1192,11158
53187515,4000,0,0.3381826,-0.772107,-10.346746,-0.0031752454,0.00902837,-0.039715663,65.905815,156.9064,0.0047884034,1442826,193,51,1214,11157
53291519,4004,0,-0.11291889,-0.28502756,-9.412444,0.008513767,0.006555223,-0.04644818,65.93075,156.9064,0.0047884034,1442826,-666,-37,3357,11166
53391515,4000,0,0.23260301,0.8084768,-9.486111,0.0052358136,0.018891586,-0.036025133,65.93906,156.9064,0.0047884034,1442826,-297,-274,1018,11169
53491534,4015,0,-0.23275201,0.4846398,-9.513828,-0.0022167994,0.0067477417,-0.038501166,65.941826,156.9064,0.0047884034,1442826,197,16,1900,11170
53597070,3997,0,0.4626887,-0.577559,-10.389981,0.017568104,0.004126586,-0.049965665,65.95845,156.9064,0.0047884034,1442826,1484,461,2583,11176
53697070,3973,0,0.02119379,-1.2023873,-10.193345,-0.0022172057,0.0068283305,-0.0398633,65.983376,156.9064,0.0047884034,1442826,-1174,-590,1038,11185
53797070,3973,0,-0.3148212,-0.20341808,-9.214699,0.002464252,0.021317674,-0.030093528,65.95291,156.9064,0.0047884034,1442826,-1688,-931,2391,11174
53901070,3984,0,0.32455856,1.0864329,-8.867586,0.0004619799,-0.004037768,-0.027013758,65.93352,156.9064,0.0047884034,1442826,549,-138,1405,11167
54005070,3992,0,0.30565625,-0.766853,-10.495059,-0.011224798,-0.02117504,-0.046140455,65.947365,156.9064,0.0047884034,1442826,-1099,-203,561,11172
54105070,4000,0,0.04872442,-1.7110127,-10.106547,-0.0018363225,0.0073954742,-0.03390848,65.95845,156.9064,0.0047884034,1442826,-657,-229,2522,11176
54209070,3961,0,0.12690595,0.5550074,-9.325882,0.0018895473,0.016865473,-0.019209154,65.944595,156.9064,0.0047884034,1442826,1276,720,2716,11171
54309075,4005,0,0.61983883,1.4395851,-8.8070345,0.013003928,0.001041322,-0.033868562,65.95291,156.9064,0.0047884034,1442826,1390,648,2971,11174
54410693,3981,0,0.58392155,0.7068019,-10.104317,0.009923798,-0.011732141,-0.0257574,65.95845,156.9064,0.0047884034,1442826,606,667,1803,11176
54510693,3994,0,0.21461754,-0.60561985,-10.127195,0.004854152,-0.018180083,-0.040446687,65.96122,156.9064,0.0047884034,1442826,1889,83,4324,11177
54614694,4001,0,-0.44782066,-0.811294,-9.960801,-0.009468156,0.011443712,-0.024529686,65.93629,156.9064,0.0047884034,1442826,1043,-765,1787,11168
54714694,4001,0,0.061705668,-0.19969887,-8.6922455,-0.004335261,0.010635238,-0.018676318,66.00554,156.9064,0.0047884034,1442826,-609,141,3756,11193
54818693,3987,0,-0.021984039,0.920955,-9.527418,0.0072947815,9.450293e-05,-0.03292729,65.986145,156.9064,0.0047884034,1442826,-904,-14,2064,11186
54918735,4042,0,0.005112186,-0.61171824,-9.876494,-0.0036028826,-0.0009331426,-0.048843633,65.96399,156.9064,0.0047884034,1442826,-335,-193,576,11178
55022722,3990,0,0.43830588,-0.77299446,-9.528405,0.0028512918,-0.011574816,-0.045863368,66.02493,156.9064,0.0047884034,1442826,265,875,2445,11200
55122700,4007,0,0.39155504,0.16327989,-9.911889,0.012446445,0.0010345429,-0.037371885,65.99169,156.9064,0.0047884034,1442826,977,668,3310,11188
55223518,3996,0,0.4025021,1.0675586,-9.244582,0.0041794637,-0.009367377,-0.027706431,65.986145,156.9064,0.0047884034,1442826,1218,797,3083,11186
55328382,4088,0,0.62543404,-0.06402977,-9.239496,-0.007942647,0.015438555,-0.043624632,65.99446,156.9064,0.0047884034,1442826,35,586,3854,11189
55428294,4000,0,-0.13260265,-1.1998055,-10.485199,-0.0072919326,0.016139891,-0.053007253,65.99169,156.9064,0.0047884034,1442826,-691,-131,733,11188
55532294,4000,0,0.147625,0.5391803,-9.166585,0.0011429088,-0.0016411149,-0.023946803,66.00831,156.9064,0.0047884034,1442826,679,197,2226,11194
55636270,3994,0,0.12851511,0.5909731,-8.709471,-0.0040672915,-0.0052620666,-0.040982965,66.01108,156.9064,0.0047884034,1442826,-360,-114,2104,11195
55736270,3944,0,0.29625392,-0.262403,-10.003391,-0.013784751,-0.017354846,-0.04799298,66.04155,156.9064,0.0047884034,1442826,-239,536,2332,11206
55840332,4062,0,0.01967516,-1.5451756,-9.817287,0.003527239,0.0013963085,-0.04120422,66.02493,156.9064,0.0047884034,1442826,-810,-545,2974,11200
55940270,4000,0,-0.787527,-0.39312205,-10.097393,-0.0028637645,0.016579004,-0.026928276,66.03047,156.9064,0.0047884034,1442826,-206,-954,1368,11202
56041917,4023,0,-0.5010115,0.80863386,-9.177928,-0.0013003871,0.009937782,-0.05260787,66.04432,156.9064,0.0047884034,1442826,-1971,-1145,2056,11207
56141894,3975,0,-0.0022787664,0.7766104,-9.581553,0.0006835204,0.0071182377,-0.033974245,66.01662,156.9064,0.0047884034,1442826,663,-337,1075,11197
56245936,4043,0,0.47629654,-0.7466186,-10.198359,-0.0006966451,-0.0020064516,-0.044129074,66.02216,156.9064,0.0047884034,1442826,2227,713,2336,11199
56345894,3993,0,-0.086496904,-0.77247155,-9.809458,-0.0016946543,0.015864596,-0.035351265,66.03324,156.9064,0.0047884034,1442826,-148,-864,1294,11203
56445931,4038,0,-0.47948915,-0.06958346,-9.594477,-0.0054806815,-0.0011634864,-0.044249937,66.02216,156.9064,0.0047884034,1442826,-1733,-408,2166,11199
56549893,3998,0,-0.3663106,1.5164409,-9.719858,0.007973602,0.015546236,-0.034850087,66.02493,156.9064,0.0047884034,1442826,622,-1229,857,11200
56649894,4000,0,-0.20339207,0.11344663,-10.087595,-0.013458535,-0.0028582113,-0.051543668,66.04986,156.9064,0.0047884034,1442826,657,-479,3822,11209
56753893,3962,0,-0.1487558,-1.6527263,-10.830657,-0.0004535755,-0.0026163026,-0.0430914,66.06925,156.9064,0.0047884034,1442826,-1007,-785,-402,11216
56855518,4003,0,-0.29310432,-0.28223336,-9.916327,-0.0033720108,0.012612912,-0.03773342,66.094185,156.9064,0.0047884034,1442826,-873,-728,250,11225
56959519,4004,0,-0.07707936,0.74645776,-9.001837,-0.011122642,-0.005322738,-0.04438445,66.04709,156.9064,0.0047884034,1442826,-601,383,3057,11208
57059515,3994,0,0.29152182,0.2923885,-10.315495,0.0016942683,-0.017873,-0.04393394,66.0831,156.9064,0.0047884034,1442826,88,139,375,11221
57159554,4036,0,0.54276586,-0.9759779,-10.213276,0.0013148196,-0.0068058087,-0.053436708,66.06371,156.9064,0.0047884034,1442826,-231,-100,1972,11214
57263515,3961,0,-0.60027707,-1.0169543,-10.206113,-0.0055039637,0.006799214,-0.041686125,66.07479,156.9064,0.0047884034,1442826,156,-491,1999,11218
57363515,4000,0,0.3354577,0.35687706,-9.701259,0.0053114593,0.0031301337,-0.039339703,66.06648,156.9064,0.0047884034,1442826,678,950,2574,11215
57463520,4005,0,-0.45505598,1.4662342,-9.028677,0.0015412387,0.008639659,-0.05024057,66.06094,156.9064,0.0047884034,1442826,67,-1364,2968,11213
57567515,4000,0,0.3186883,0.2847838,-9.893893,-0.0040022708,-0.00053024245,-0.036668327,66.06094,156.9064,0.0047884034,1442826,1617,-520,2720,11213
57667515,3954,0,0.92540205,-1.2168162,-10.321735,-0.00032757688,-0.008214179,-0.021685202,66.06648,156.9064,0.0047884034,1442826,1348,1494,2413,11215
57773100,4007,0,-0.015991906,-0.64943427,-9.603543,-0.011587849,0.011521676,-0.030698093,66.04432,156.9064,0.0047884034,1442826,-1234,116,1043,11207
57877101,4001,0,0.050079253,0.7868537,-9.006829,-0.011738244,-0.006099578,-0.041474923,66.06925,156.9064,0.0047884034,1442826,766,1115,3322,11216
57977099,3967,0,-0.16074619,0.6972721,-9.465644,0.01046764,0.0073004793,-0.03932946,66.06094,156.9064,0.0047884034,1442826,1847,-428,3204,11213
58077144,4051,0,0.37492627,-1.0879215,-9.943361,-0.0029203605,-0.013028612,-0.03458382,66.08033,156.9064,0.0047884034,1442826,-1189,520,2372,11220
58181106,4013,0,-0.032035865,-0.3268639,-9.599909,-0.010069299,0.0116299195,-0.038529806,66.07202,156.9064,0.0047884034,1442826,-1077,-583,26,11217
58281093,4000,0,-0.040674377,0.6704877,-9.388011,0.0044547534,-0.0083274,-0.050415087,66.099724,156.9064,0.0047884034,1442826,-1967,111,-96,11227
58381115,4005,0,0.60872406,0.8040801,-9.158408,-0.006566722,-0.005424913,-0.041432198,66.04986,156.9064,0.0047884034,1442826,611,961,2133,11209
58485133,4018,0,0.4846897,-1.2218277,-10.606179,0.0014186953,-0.005076945,-0.025428668,66.11634,156.9064,0.0047884034,1442826,1180,1465,3465,11233
58586711,4017,0,-0.09131583,-1.2774569,-10.010562,0.0023194647,0.001625407,-0.041823722,66.12188,156.9064,0.0047884034,1442826,-27,-252,2685,11235
58686749,4055,0,-0.20930263,0.14846496,-9.668921,0.004724335,-0.008643277,-0.038331635,66.10249,156.9064,0.0047884034,1442826,-880,-421,2318,11228
58790693,3999,0,0.1310868,0.8177183,-9.098093,-0.008734818,0.0027315114,-0.0374403,66.096954,156.9064,0.0047884034,1442826,97,402,1719,11226
58890694,3991,0,0.031112341,0.028108781,-9.56462,-0.0045922287,0.0007635013,-0.047312286,66.094185,156.9064,0.0047884034,1442826,-62,-378,1457,11225
58990694,4000,0,0.38729772,-0.8807609,-10.326249,-0.0031934467,-0.010583027,-0.050254144,66.12188,156.9064,0.0047884034,1442826,-334,-392,1273,11235
59094694,3975,0,-0.0373377,-0.84800994,-11.2220545,-0.0038583716,-0.0031442128,-0.049522914,66.11357,156.9064,0.0047884034,1442826,-406,171,1832,11232
59194694,3999,0,-0.27524692,0.20375468,-9.882982,-0.0030503566,0.013137849,-0.027123708,66.127426,156.9064,0.0047884034,1442826,-475,76,3551,11237
59295470,4770,0,-0.20192577,1.4909053,-9.900759,0.01212001,0.0060580787,-0.043479033,66.099724,156.9064,0.0047884034,1442826,1394,-8,2398,11227
59396293,4000,0,0.6180571,0.63316506,-10.349,0.0020251062,-0.0077556195,-0.039733093,66.15235,156.9064,0.0047884034,1442826,456,558,2252,11246
59500299,4006,0,0.5250765,-0.79423124,-10.811928,0.0034257583,-0.0022294524,-0.040042393,66.14404,156.9064,0.0047884034,1442826,860,-368,2888,11243
59600300,4007,0,-0.23849578,-0.5881937,-10.325106,0.0003169279,0.0063190414,-0.042745054,66.138504,156.9064,0.0047884034,1442826,-821,-548,501,11241
59700299,3972,0,-0.3982808,0.4392278,-9.178646,0.0058183596,0.009378576,-0.030708008,66.11634,156.9064,0.0047884034,1442826,-325,33,4132,11233
59804293,4000,0,0.4105711,0.7876466,-9.183863,0.0070688687,-0.0024068085,-0.019474344,66.127426,156.9064,0.0047884034,1442826,1129,263,3866,11237
59904319,4026,0,0.66147614,-0.20931047,-9.781222,0.0027381706,-0.011364411,-0.041358672,66.127426,156.9064,0.0047884034,1442826,-162,272,3438,11237
60004293,4000,0,0.63500303,-0.9349076,-10.4803705,0.0012129473,-0.005092373,-0.033158265,66.18282,156.9064,0.0047884034,1442826,638,799,2707,11257
60109935,4808,0,-0.31970665,0.15457971,-9.573111,0.0004549416,0.008271496,-0.05174651,66.15789,156.9064,0.0047884034,1442826,-53,-226,3114,11248
60209895,4001,0,-0.22643763,0.7970143,-9.634668,0.0030107887,0.0013235328,-0.04189234,66.11634,156.9064,0.0047884034,1442826,-1026,-956,643,11233
60309894,3990,0,-0.40942994,1.1909832,-9.433125,0.0088140825,-0.00166912,-0.030739237,66.14127,156.9064,0.0047884034,1442826,589,-965,3190,11242
60413894,3984,0,0.6660287,-1.2110248,-10.816053,-0.00018674324,-0.015048188,-0.037845306,66.14681,156.9064,0.0047884034,1442826,-364,-29,776,11244
60513893,3973,0,0.09948555,-1.5008686,-10.180309,-0.003390574,0.001806539,-0.01984144,66.130196,156.9064,0.0047884034,1442826,91,794,3048,11238
60613935,4041,0,0.43115875,-0.2837641,-9.23271,0.0020466645,0.0073719714,-0.01812679,66.15235,156.9064,0.0047884034,1442826,-37,1041,4152,11246
60717900,4006,0,-0.14009309,1.378533,-9.185368,0.009009376,0.0035562802,-0.02582846,66.15789,156.9064,0.0047884034,1442826,489,-492,2518,11248
60817894,4000,0,-0.47558552,0.5746133,-9.810458,0.0033030943,-0.006939655,-0.046563253,66.15512,156.9064,0.0047884034,1442826,369,-1063,2037,11247
60917894,3979,0,0.60693556,-0.648962,-9.869462,0.0090612145,-0.0038192582,-0.038151827,66.16621,156.9064,0.0047884034,1442826,1044,518,3400,11251
61019485,3939,0,0.25665024,-1.4524076,-10.7565,0.0033104492,-0.009609465,-0.023896767,66.18836,156.9064,0.0047884034,1442826,335,152,1843,11259
61123470,3964,0,-0.5065945,0.58324105,-9.146963,-0.0045203855,0.0049531283,-0.054803405,66.18282,156.9064,0.0047884034,1442826,-690,-375,2404,11257
61223510,4017,0,-0.56745446,1.6215106,-9.6003,0.0013385778,0.003512893,-0.045624416,66.174515,156.9064,0.0047884034,1442826,-363,-946,1201,11254
61327500,4007,0,0.7157931,-0.34861553,-9.919647,0.007496381,-0.011326529,-0.036294915,66.16067,156.9064,0.0047884034,1442826,377,478,3602,11249
61427470,3994,0,0.3892091,-1.4206873,-10.586595,-0.0020467625,-0.011314021,-0.044044476,66.18282,156.9064,0.0047884034,1442826,-528,-242,593,11257
61527518,4017,0,0.07441226,-1.0082638,-10.157667,0.0039456245,0.005306897,-0.026310913,66.19113,156.9064,0.0047884034,1442826,158,133,2335,11260
61631493,3968,0,-0.120680645,1.3019818,-8.964423,-0.008857792,0.005402244,-0.049906213,66.19668,156.9064,0.0047884034,1442826,-131,459,990,11262
61731493,4000,0,0.30335513,1.0224898,-9.242172,-0.0010855242,-0.0015000126,-0.033352673,66.168976,156.9064,0.0047884034,1442826,408,561,1756,11252
61836292,3993,0,0.38035247,-1.0618342,-10.1236725,-0.0012215766,-0.007583447,-0.052957706,66.22714,156.9064,0.0047884034,1442826,1159,170,4182,11273
61936293,3994,0,-0.097592525,-1.3906937,-10.777166,-0.0013854904,-0.00035321014,-0.04688611,66.218834,156.9064,0.0047884034,1442826,-1008,-764,869,11270
62040293,4000,0,-0.001243195,0.97962606,-9.594642,0.010643646,0.012348523,-0.04154908,66.18559,156.9064,0.0047884034,1442826,-181,-211,697,11258
62140299,4006,0,-0.076179564,1.4486393,-9.55083,0.009178617,0.0054920074,-0.04775905,66.18559,156.9064,0.0047884034,1442826,445,-174,1454,11258
62244293,3996,0,1.115339,-0.39993808,-9.541449,0.0009690248,-0.008867445,-0.034429364,66.210526,156.9064,0.0047884034,1442826,-540,323,3208,11267
62344335,4009,0,0.8741045,-1.1361558,-10.052336,0.0032255333,-0.0012666357,-0.026803408,66.210526,156.9064,0.0047884034,1442826,694,960,3542,11267
62444293,4000,0,-0.19060796,-1.5341793,-10.494067,0.00022841152,-0.0027529225,-0.033189602,66.2216,156.9064,0.0047884034,1442826,-336,19,1890,11271
62548293,4000,0,0.015128034,1.423465,-8.60647,-0.004815637,0.01055763,-0.029298402,66.22714,156.9064,0.0047884034,1442826,149,336,3444,11273
62648293,4000,0,0.45423937,1.5149697,-8.875396,-0.0076063806,0.006159355,-0.04322074,66.19945,156.9064,0.0047884034,1442826,717,276,1365,11263
62748293,3962,0,0.40052953,0.1332806,-9.840872,-0.005972022,-0.0066554863,-0.048704896,66.207756,156.9064,0.0047884034,1442826,294,411,2519,11266
62853894,3991,0,0.13000369,-1.0484836,-10.199539,0.007521894,0.005529953,-0.03797972,66.210526,156.9064,0.0047884034,1442826,30,-10,3206,11267
62957894,4000,0,0.23521617,0.94667786,-9.261996,0.0033814802,0.004936588,-0.019712413,66.22992,156.9064,0.0047884034,1442826,-447,481,1984,11274
63057894,3972,0,0.5500308,1.5598544,-9.04479,0.00779019,0.005440132,-0.0037101102,66.241,156.9064,0.0047884034,1442826,178,539,2641,11278
63161939,4039,0,0.56050324,-0.34908536,-9.936198,0.0011665989,-0.0023604105,-0.04742908,66.19945,156.9064,0.0047884034,1442826,581,77,3057,11263
63261894,4001,0,0.55350786,-0.9748547,-10.013345,-0.0058348654,-0.0010024379,-0.03760691,66.241,156.9064,0.0047884034,1442826,292,206,3677,11278
63361894,4000,0,-0.1594767,-0.8489178,-10.319956,-0.0054528136,0.007682305,-0.033101227,66.22992,156.9064,0.0047884034,1442826,-249,-325,1500,11274
63465894,4000,0,0.20575638,1.2169709,-9.166709,0.007539206,0.006113165,-0.03646054,66.23546,156.9064,0.0047884034,1442826,-351,-37,1271,11276
63565902,4008,0,0.2041589,1.6563613,-9.698156,0.012052002,0.0017472872,-0.055719446,66.241,156.9064,0.0047884034,1442826,813,-544,23,11278
63667493,4000,0,0.5059732,0.0006580361,-10.752533,0.008914648,-0.012769932,-0.03298672,66.24377,156.9064,0.0047884034,1442826,1101,-430,972,11279
63767553,4060,0,0.7227196,-1.3695029,-10.785917,0.0037768965,-0.0058206073,-0.027626762,66.22437,156.9064,0.0047884034,1442826,85,-181,-120,11272
63871493,3987,0,-0.17101644,-0.023384891,-9.592374,-0.003868882,0.010295234,-0.042890146,66.254845,156.9064,0.0047884034,1442826,62,-25,1191,11283
63971494,3994,0,0.21198748,1.3735005,-9.010781,-0.0071900315,0.002860983,-0.043934982,66.293625,156.9064,0.0047884034,1442826,-263,444,693,11297
64071493,3999,0,0.44800377,1.2312768,-9.385713,0.008273822,-0.0024152135,-0.03274751,66.252075,156.9064,0.0047884034,1442826,433,316,2303,11282
65398693,3993,0,0.39030668,0.90476793,-9.277825,-0.005252614,-0.0028397024,-0.03452605,66.30471,156.9064,0.0047884034,1442826,-746,-253,1335,11301
65498699,4006,0,0.42623568,-0.24676377,-10.134645,0.005124322,-0.0026026494,-0.04320274,66.27701,156.9064,0.0047884034,1442826,960,-315,2896,11291
65598715,4021,0,0.37210166,-1.0062537,-10.104167,0.0055592246,-0.0102908155,-0.043289214,66.326866,156.9064,0.0047884034,1442826,385,217,2407,11309
65702693,3989,0,0.060433786,-0.19334178,-9.415928,0.007885965,0.005704179,-0.03870272,66.29917,156.9064,0.0047884034,1442826,-544,71,3125,11299
65806713,4020,0,-0.31492558,1.1614813,-8.846379,-0.0051051057,0.010877203,-0.040622413,66.33518,156.9064,0.0047884034,1442826,163,-247,3111,11312
66006731,4031,0,0.42002207,-0.48031166,-9.531201,-0.0059259143,0.00037040317,-0.038571473,66.33518,156.9064,0.0047884034,1442826,370,228,3013,11312
66108293,3993,0,0.6578767,-0.8830056,-10.292051,-0.0010742137,-0.0020466407,-0.04183767,66.34072,156.9064,0.0047884034,1442826,-204,791,1087,11314
66212300,3969,0,0.28325576,0.5432513,-8.772095,0.0013724131,-0.003001858,-0.030065842,66.32133,156.9064,0.0047884034,1442826,589,214,1534,11307
66312320,4027,0,-0.16613336,1.1809908,-8.392972,-0.013488814,0.008761758,-0.037620567,66.3241,156.9064,0.0047884034,1442826,170,-140,4135,11308
66416294,3959,0,0.5280109,-0.23565277,-9.736888,-0.0050888495,-0.007358021,-0.032403637,66.296394,156.9064,0.0047884034,1442826,141,845,2889,11298
66516294,4001,0,0.1714177,-0.79854876,-10.015112,0.009494964,-0.0030291579,-0.04468171,66.36288,156.9064,0.0047884034,1442826,-199,-978,-283,11322
66616293,4000,0,-0.041121148,-0.18053767,-9.046953,-0.010001817,0.0011670437,-0.035358377,66.329636,156.9064,0.0047884034,1442826,-323,249,3977,11310
66720294,3993,0,0.027654989,0.81591964,-9.155722,0.0018596792,-0.010006397,-0.02796521,66.34349,156.9064,0.0047884034,1442826,-218,464,2932,11315
66820293,3948,0,0.029008973,0.16210648,-9.676433,0.0029631157,0.0030888675,-0.05576556,66.33518,156.9064,0.0047884034,1442826,648,-1208,2616,11312
66921899,4029,0,0.56082684,-1.4268866,-10.510102,-0.006523501,-0.008844552,-0.03241358,66.326866,156.9064,0.0047884034,1442826,332,414,1104,11309
67021870,3987,0,0.086840495,-1.061396,-10.538925,0.008347326,-0.0022736806,-0.035720784,66.3518,156.9064,0.0047884034,1442826,-221,-330,3727,11318
67125920,4027,0,0.020247893,1.1780568,-9.087637,-0.00029379406,0.014140046,-0.025076155,66.36842,156.9064,0.0047884034,1442826,273,-163,1656,11324
67225932,4039,0,0.27808335,1.6597737,-9.473775,0.005631428,-0.00047201058,-0.038531996,66.33795,156.9064,0.0047884034,1442826,1468,349,2952,11313
67329893,4000,0,1.0464236,-0.13553426,-10.692121,0.0099049965,-0.013598631,-0.036385804,66.34072,156.9064,0.0047884034,1442826,380,235,1560,11314
67429893,4000,0,0.4678132,-0.6322934,-11.385595,0.0071284054,-0.010285857,-0.055072147,66.36288,156.9064,0.0047884034,1442826,427,-396,1143,11322
67529893,4000,0,0.10833396,-1.390778,-11.015267,-0.013869173,0.0008370239,-0.04400146,66.37396,156.9064,0.0047884034,1442826,-464,-465,1217,11326
67633893,3984,0,0.37985972,0.6690531,-8.954201,-0.004578293,0.002628911,-0.032681458,66.3518,156.9064,0.0047884034,1442826,-858,387,3947,11318
67735494,3986,0,-0.1960821,1.2994761,-9.138522,0.0022244467,0.0051274034,-0.027559489,66.37673,156.9064,0.0047884034,1442826,923,-647,1720,11327
67835495,3975,0,0.42067948,0.74290717,-10.132211,0.007905495,-0.005182455,-0.04232704,66.38504,156.9064,0.0047884034,1442826,486,-64,242,11330
67939505,4005,0,0.38546157,-0.9158654,-10.46602,0.001310342,0.0036547373,-0.036801845,66.39612,156.9064,0.0047884034,1442826,-108,-119,2592,11334
68039532,4038,0,-0.106917106,-0.08344538,-9.87365,-0.0014800046,0.014684776,-0.04308977,66.38781,156.9064,0.0047884034,1442826,-790,84,2574,11331
68139493,3999,0,0.08971608,1.1332808,-8.905604,0.003818079,0.0022060515,-0.027118072,66.38227,156.9064,0.0047884034,1442826,-254,100,2482,11329
68243494,4000,0,-0.027212719,0.7805341,-9.5645,0.0025892223,0.0019389782,-0.050193563,66.38504,156.9064,0.0047884034,1442826,342,-1017,1542,11330
68343531,4037,0,0.16353357,-0.45469385,-10.064839,0.0034809567,-0.004616563,-0.032069888,66.37396,156.9064,0.0047884034,1442826,876,-75,2529,11326
68443494,3993,0,0.4171426,-1.4363984,-10.916873,0.0027205984,-0.004524789,-0.027651517,66.43213,156.9064,0.0047884034,1442826,504,411,1720,11347
68544302,4009,0,0.28138822,-0.6300046,-9.952488,-0.0073371315,0.008012084,-0.022248335,66.39612,156.9064,0.0047884034,1442826,-403,808,1167,11334
68648310,3992,0,-0.15193683,1.2287794,-9.346451,0.012384067,0.0026280726,-0.039873302,66.38781,156.9064,0.0047884034,1442826,-116,-769,940,11331
68752293,3977,0,0.6601627,-0.19076687,-10.062356,-0.004316084,-0.004058198,-0.05306016,66.3795,156.9064,0.0047884034,1442826,206,32,2089,11328
68852315,4019,0,0.3062306,-0.9064994,-10.455378,-0.0011049802,-0.004873923,-0.054717183,66.4349,156.9064,0.0047884034,1442826,-169,-38,2334,11348
68952295,4002,0,-0.25805748,-1.0127507,-10.217644,-0.0070476234,0.009444827,-0.055425957,66.40997,156.9064,0.0047884034,1442826,-514,246,1928,11339
69056321,4019,0,-0.37713403,0.85491544,-9.56919,0.0022897455,0.005449163,-0.036937308,66.42105,156.9064,0.0047884034,1442826,-678,-341,1418,11343
69156294,4000,0,-0.09152949,1.0647509,-9.472362,0.003058962,-0.002036311,-0.036287885,66.38781,156.9064,0.0047884034,1442826,-260,-425,1616,11331
69256300,3970,0,0.20107266,0.4020297,-10.213564,0.00092135044,-0.008844846,-0.052639715,66.41274,156.9064,0.0047884034,1442826,286,-499,1733,11340
69360294,3950,0,0.25940803,-1.2567414,-10.223078,-0.002106297,-0.0036569615,-0.03821589,66.4072,156.9064,0.0047884034,1442826,-661,255,3398,11338
69460309,4015,0,0.20197067,-0.09136299,-9.652814,0.0043044994,0.0074541024,-0.03059053,66.42936,156.9064,0.0047884034,1442826,-481,553,2892,11346
69561913,4015,0,0.1317415,1.6084623,-9.178488,0.0019676832,0.005124961,-0.041034922,66.401665,156.9064,0.0047884034,1442826,383,653,2772,11336
69661920,4026,0,0.32108456,1.4223311,-9.319462,0.0064980406,-0.0025479859,-0.040433306,66.42382,156.9064,0.0047884034,1442826,411,188,3126,11344
69765893,3999,0,0.5737489,-0.85608727,-9.989124,-0.0028925466,-0.012063679,-0.03914984,66.42382,156.9064,0.0047884034,1442826,-459,-380,1774,11344
69865894,3998,0,0.029931508,-1.4201901,-10.351058,-0.0074595027,-0.002293675,-0.045502692,66.401665,156.9064,0.0047884034,1442826,-194,-82,1857,11336
69965893,3999,0,0.19435252,-0.5519752,-10.359452,-0.006942234,0.0002850392,-0.05122307,66.4349,156.9064,0.0047884034,1442826,-364,109,368,11348
70069893,3979,0,-0.3830781,1.542849,-8.924277,-0.005010518,0.008757809,-0.030425355,66.46814,156.9064,0.0047884034,1442826,-34,-324,2284,11360
70173895,4002,0,0.083108045,0.14494802,-10.4928055,0.0010107468,-0.007719667,-0.046968304,66.45706,156.9064,0.0047884034,1442826,365,-243,1976,11356
70273919,4026,0,0.5111322,-1.1422867,-10.632224,-0.003722922,-0.0005321265,-0.04200747,66.41551,156.9064,0.0047884034,1442826,457,-447,1235,11341
70374757,4042,0,-0.15890563,-1.6032969,-9.925257,-0.01196308,0.006846752,-0.039880924,66.45983,156.9064,0.0047884034,1442826,-1070,257,2779,11357
70479494,3959,0,-0.49721235,1.1089863,-9.963397,0.0074266754,0.013291324,-0.03597854,66.4349,156.9064,0.0047884034,1442826,-469,-733,456,11348
70579499,4006,0,-0.12064103,1.7124767,-9.090145,0.0013558166,0.0036605077,-0.05813932,66.4626,156.9064,0.0047884034,1442826,7,-558,3389,11358
70683501,4002,0,0.19027773,-0.2676595,-10.74321,0.013907004,-0.008685134,-0.039761618,66.44875,156.9064,0.0047884034,1442826,1167,-261,1343,11353
70783494,3997,0,0.13313565,-1.4760015,-10.333662,-0.008512486,-0.003724537,-0.05293573,66.45706,156.9064,0.0047884034,1442826,-363,-143,3790,11356
70883494,4001,0,-0.16964576,-1.2134653,-10.409036,-0.008842661,0.0073562115,-0.037855145,66.4626,156.9064,0.0047884034,1442826,-862,574,1327,11358
70987520,4026,0,0.030357648,1.6739361,-8.991052,-0.011153158,0.013350748,-0.05436178,66.45983,156.9064,0.0047884034,1442826,134,0,1074,11357
71087494,3995,0,0.46575245,1.664323,-8.937877,0.008089007,-0.0024463227,-0.02657498,66.45429,156.9064,0.0047884034,1442826,86,353,2448,11355
71189094,3995,0,0.2311379,0.1805026,-9.827133,0.01382423,-0.004538288,-0.039556444,66.45983,156.9064,0.0047884034,1442826,958,-420,2903,11357
71289094,3965,0,0.4193678,-0.96460605,-9.958625,-0.007957515,-0.0048358534,-0.034671944,66.49584,156.9064,0.0047884034,1442826,381,544,2804,11370
71393099,3970,0,-0.01014193,-0.42344025,-8.6407385,-0.007507914,0.003908963,-0.02837473,66.45983,156.9064,0.0047884034,1442826,-298,355,1191,11357
71497094,3995,0,0.36405465,1.2027594,-8.569412,-9.909342e-05,-0.0041470383,-0.051398408,66.45152,156.9064,0.0047884034,1442826,-605,668,2405,11354
71597094,4001,0,-0.09147669,0.8205342,-9.407275,0.0070420043,-0.009011509,-0.059191633,66.50693,156.9064,0.0047884034,1442826,180,-701,2570,11374
71701143,4046,0,0.10970772,-1.2533696,-10.442424,-0.0017459582,-0.008763508,-0.040797092,66.49861,156.9064,0.0047884034,1442826,182,138,1486,11371
71801100,4001,0,-0.2643703,-1.0407203,-10.049659,-0.005335916,0.010271871,-0.031870864,66.518005,156.9064,0.0047884034,1442826,-184,-253,1277,11378
71901093,3959,0,-0.06709016,0.07088767,-9.17412,-0.0031648069,0.009636691,-0.038467832,66.4903,156.9064,0.0047884034,1442826,-683,640,2823,11368
72002717,4008,0,0.010652672,1.9409783,-8.896306,-0.0038500652,0.0004686946,-0.046710774,66.46814,156.9064,0.0047884034,1442826,-549,312,2906,11360
72106715,3998,0,0.48863026,0.040456142,-9.657725,-0.00069840316,-0.001313369,-0.04227216,66.518005,156.9064,0.0047884034,1442826,117,75,2729,11378
72206723,4008,0,0.53158987,-1.269332,-10.210199,-0.0018240608,-0.01046635,-0.060488064,66.46537,156.9064,0.0047884034,1442826,-95,146,2196,11359
72306783,4068,0,0.23961121,-0.80073476,-10.162166,0.0063452767,0.007009089,-0.025558347,66.515236,156.9064,0.0047884034,1442826,981,-170,1463,11377
72410746,4031,0,-0.02624491,1.6116529,-8.959773,0.0005169052,0.009657154,-0.031203013,66.515236,156.9064,0.0047884034,1442826,199,655,1589,11377
72510715,3993,0,0.46065453,1.4639809,-9.092362,0.0021882183,-0.0037268845,-0.028683826,66.515236,156.9064,0.0047884034,1442826,-772,242,2671,11377
72614718,4003,0,0.29136106,-0.6020526,-10.354889,-0.004226978,-0.0063436246,-0.05102732,66.50416,156.9064,0.0047884034,1442826,349,-370,2433,11373
72718710,3995,0,-0.12874573,-0.5044779,-10.450962,0.0027987962,0.0037397165,-0.033104867,66.520775,156.9064,0.0047884034,1442826,-45,-330,-534,11379
72820293,4000,0,-0.23894505,0.92688024,-9.518837,0.009039475,0.013036387,-0.019160634,66.50416,156.9064,0.0047884034,1442826,-110,-830,-407,11373
72924294,3999,0,0.5314942,0.954685,-9.190515,0.0015537527,-0.009074615,-0.06200195,66.518005,156.9064,0.0047884034,1442826,45,130,2676,11378
73024294,3987,0,0.5933358,-0.1222549,-10.090573,0.009349006,-0.012859825,-0.037886765,66.49861,156.9064,0.0047884034,1442826,871,191,2256,11371
73124314,4015,0,0.3135133,-1.7085253,-10.654636,-0.0008724655,-0.01415964,-0.039929442,66.518005,156.9064,0.0047884034,1442826,452,34,1921,11378
73224295,3989,0,0.013539841,-1.4608314,-10.458947,0.0022108732,-0.0073050153,-0.020579826,66.53185,156.9064,0.0047884034,1442826,-352,144,1496,11383
73328303,4004,0,-0.35487846,1.2014341,-8.902955,-0.005307506,0.0114034545,-0.042958416,66.53739,156.9064,0.0047884034,1442826,-211,303,2613,11385
73428302,3966,0,-0.13454589,1.6765363,-8.878575,-0.008917391,0.001756327,-0.053244166,66.52908,156.9064,0.0047884034,1442826,146,573,1680,11382
73532335,4019,0,0.37004036,-0.7843444,-10.320798,-0.0031401,-0.011055961,-0.041760057,66.53739,156.9064,0.0047884034,1442826,719,-52,3467,11385
73629900,3982,0,0.41716495,-1.4759991,-10.243709,-0.00562224,-0.002824756,-0.052629698,66.54571,156.9064,0.0047884034,1442826,-484,670,2343,11388
73733894,4001,0,-0.21234648,-0.5743751,-9.771238,-0.012017859,0.0065588774,-0.04126374,66.52631,156.9064,0.0047884034,1442826,-466,387,895,11381
73833893,4000,0,0.23174988,1.0791717,-8.996317,-0.0024535637,0.006141197,-0.03585391,66.52908,156.9064,0.0047884034,1442826,-196,615,2663,11382
73937894,3994,0,-0.007492121,0.91990757,-9.294955,-0.0077566816,-0.0023336466,-0.042646218,66.53462,156.9064,0.0047884034,1442826,121,182,1543,11384
74037894,3995,0,0.6648463,-0.58198416,-10.429787,-0.0011407511,-0.013244249,-0.047023665,66.53185,156.9064,0.0047884034,1442826,-659,133,638,11383
74137931,4038,0,0.29898223,-1.3858963,-10.423871,-0.00081988797,-0.0092077,-0.03516132,66.57063,156.9064,0.0047884034,1442826,-386,654,1607,11397
74241910,3978,0,0.060004946,0.5006129,-8.703505,-0.00538686,0.0060703806,-0.030548833,66.53185,156.9064,0.0047884034,1442826,-465,539,2865,11383
74341894,4001,0,0.10187875,2.085979,-8.816425,-0.0053618737,0.0028658146,-0.037571818,66.554016,156.9064,0.0047884034,1442826,-229,483,1025,11391
74443476,4006,0,0.563453,1.1508132,-9.569145,0.0012813188,-0.0033040242,-0.04107537,66.54848,156.9064,0.0047884034,1442826,812,541,1675,11389
74547517,4047,0,0.56514364,-1.17766,-10.217224,-0.007320338,-0.0054963413,-0.032835584,66.556786,156.9064,0.0047884034,1442826,-40,372,2329,11392
74647470,4000,0,0.19805007,-1.0676098,-9.626513,-0.0004165792,-0.0019218033,-0.03528506,66.559555,156.9064,0.0047884034,1442826,-632,699,3374,11393
74747470,3992,0,-0.104956515,0.81220996,-9.303516,0.011603491,0.013529478,-0.026010832,66.52908,156.9064,0.0047884034,1442826,-281,-119,1344,11382
74851516,4046,0,0.58964145,2.1727762,-8.994675,0.009486027,0.0042433804,-0.015586483,66.57618,156.9064,0.0047884034,1442826,1112,945,3690,11399
74951486,3995,0,0.570124,0.8975103,-10.116971,0.01654455,-0.0068715718,-0.0456473,66.57341,156.9064,0.0047884034,1442826,966,-487,868,11398
75051478,4008,0,0.34823123,-0.90095556,-11.115751,0.0036700794,-0.014473317,-0.054518264,66.595566,156.9064,0.0047884034,1442826,33,-932,413,11406
75153132,4817,0,-0.17734575,-1.3216141,-10.106642,-0.0032531086,-0.0035834555,-0.052627314,66.58726,156.9064,0.0047884034,1442826,-154,-530,2763,11403
75257094,4001,0,-0.5476015,0.99319726,-9.47347,-0.00093483017,0.007762751,-0.04099895,66.562325,156.9064,0.0047884034,1442826,-235,-692,1334,11394
75357094,4001,0,0.20572989,1.582605,-8.988684,-0.00489579,0.0016481073,-0.044868737,66.53739,156.9064,0.0047884034,1442826,-823,199,1764,11385
75461094,4000,0,0.5313302,-0.09632059,-9.814987,0.0005705416,-0.009069999,-0.060103264,66.565094,156.9064,0.0047884034,1442826,219,-40,2143,11395
75561100,3985,0,0.53189373,-1.5457299,-10.145183,0.0058735237,-0.011705088,-0.02731356,66.57895,156.9064,0.0047884034,1442826,-66,843,3330,11400
75661100,4006,0,-0.04427796,-1.1412518,-10.521905,0.00011070026,0.002297041,-0.03260566,66.58449,156.9064,0.0047884034,1442826,480,-445,-42,11402
75765094,3994,0,-0.26415408,1.5577167,-9.376927,0.009217436,0.012277766,-0.027303495,66.56786,156.9064,0.0047884034,1442826,-233,-457,1477,11396
75865094,4000,0,-0.19811939,1.8318343,-9.270015,-0.00011780718,0.0070604566,-0.03734594,66.58172,156.9064,0.0047884034,1442826,-221,-882,2315,11401
75965093,3951,0,0.3440086,1.4145966,-9.520142,-0.0048017483,-0.005028726,-0.044637527,66.62604,156.9064,0.0047884034,1442826,417,361,3361,11417
76066670,3969,0,0.6082584,-0.43577763,-10.177313,0.002942405,-0.007682018,-0.036765814,66.601105,156.9064,0.0047884034,1442826,18,151,709,11408
76170708,4038,0,0.097053885,-1.1489091,-10.049114,-0.004792856,0.004676046,-0.035711583,66.61496,156.9064,0.0047884034,1442826,-363,669,1582,11413
76270725,4019,0,-0.32872033,0.6153674,-9.367607,0.010936795,0.010260264,-0.011634949,66.565094,156.9064,0.0047884034,1442826,-57,-536,1542,11395
76370670,4000,0,-0.311876,1.5810267,-9.789994,0.00747749,0.013244409,-0.051464528,66.62327,156.9064,0.0047884034,1442826,-462,-1031,-54,11416
76474670,4000,0,0.501932,1.3021275,-9.913974,0.018567292,0.001333816,-0.035489637,66.5928,156.9064,0.0047884034,1442826,1456,-621,884,11405
76574670,4000,0,-0.000628328,-0.28645557,-10.828895,0.007098834,-0.011557836,-0.047221027,66.60942,156.9064,0.0047884034,1442826,692,-259,2084,11411
76674730,4060,0,0.16847168,-1.3133184,-10.060315,-0.016743096,-0.0028297594,-0.054530628,66.58726,156.9064,0.0047884034,1442826,-334,-140,2741,11403
76776315,4000,0,-0.16710712,-0.9451152,-9.667262,-0.0025299343,0.0017358031,-0.040344268,66.60942,156.9064,0.0047884034,1442826,-590,312,1292,11411
76880315,3928,0,0.3228435,1.4737707,-8.398442,-0.0012550418,-0.0024675943,-0.034450103,66.598335,156.9064,0.0047884034,1442826,-1303,477,3161,11407
76980321,4006,0,-0.051803894,1.6284975,-9.504332,0.0101844575,0.0036287024,-0.05057358,66.62881,156.9064,0.0047884034,1442826,177,-595,683,11418
77084364,4049,0,-0.044548493,-0.7961529,-10.739083,0.013054854,-0.010252895,-0.042986378,66.603874,156.9064,0.0047884034,1442826,464,-412,-226,11409
77184315,3994,0,-0.12569141,-1.6058689,-9.942136,-0.017149614,0.0048952485,-0.051301274,66.62327,156.9064,0.0047884034,1442826,-117,-18,2313,11416
77284315,3996,0,-0.11618641,-1.2952213,-9.578263,0.0010723788,0.00210211,-0.0040968885,66.603874,156.9064,0.0047884034,1442826,-85,518,3214,11409
77388316,4001,0,0.08495361,1.8078315,-8.827835,-0.0036850125,0.013322562,-0.030876946,66.66482,156.9064,0.0047884034,1442826,11,201,1041,11431
77488347,4026,0,0.18760358,1.689757,-9.517969,0.007064146,0.0026996112,-0.035155058,66.6205,156.9064,0.0047884034,1442826,690,-234,2880,11415
77588364,4049,0,-0.043032102,0.5936776,-9.395121,-0.011992479,-0.0023742435,-0.051279306,66.595566,156.9064,0.0047884034,1442826,114,-157,2833,11406
77689895,3992,0,0.5950052,-1.0324417,-10.321311,-0.00032404484,-0.0036887336,-0.035857297,66.634346,156.9064,0.0047884034,1442826,118,1090,2354,11420
77793895,4001,0,-0.19169061,-0.23966204,-9.5833645,-0.0050732116,0.008732542,-0.041158125,66.58449,156.9064,0.0047884034,1442826,-71,327,1986,11402
77897894,4000,0,0.13671657,1.8012568,-8.572887,-0.0028089646,0.010471618,-0.020263454,66.62327,156.9064,0.0047884034,1442826,779,124,4401,11416
78001907,4037,0,-0.10525018,-0.39851186,-10.776708,0.0038598885,-0.008810512,-0.04101995,66.634346,156.9064,0.0047884034,1442826,815,-58,2981,11420
78101883,4013,0,0.2632026,-1.6771954,-10.501779,-0.0071293674,-0.00045861374,-0.048140097,66.58449,156.9064,0.0047884034,1442826,-421,-49,2929,11402
78205870,3993,0,-0.45908454,0.18542573,-10.179767,0.0044018067,0.015871283,-0.028995194,66.61773,156.9064,0.0047884034,1442826,70,-474,1794,11414
78305872,4002,0,-0.24832085,0.89509356,-9.463958,0.00032641483,0.013352788,-0.052598145,66.63158,156.9064,0.0047884034,1442826,74,-571,1302,11419
78407494,3974,0,-0.25727636,1.4089557,-9.636809,0.004519125,-0.003663978,-0.053257976,66.64543,156.9064,0.0047884034,1442826,-142,-502,1367,11424
78507494,4001,0,0.17713164,0.33445922,-9.639604,-0.0016241283,-0.0075972355,-0.041083746,66.637115,156.9064,0.0047884034,1442826,301,-223,1934,11421
78607493,3999,0,0.4995147,-0.7554892,-10.001029,-0.0026102024,0.0038001428,-0.046072245,66.65928,156.9064,0.0047884034,1442826,989,462,3401,11429
78711493,3958,0,-0.27756825,-0.25426582,-9.926073,0.0018304236,0.011447399,-0.036560476,66.62604,156.9064,0.0047884034,1442826,181,-699,1804,11417
78811506,4002,0,-0.36761364,0.81816655,-9.258288,-0.001176506,0.012136973,-0.051581927,66.65651,156.9064,0.0047884034,1442826,-96,-491,2058,11428
78911494,3995,0,-0.5871626,1.5776874,-9.376033,-0.007730695,-0.00157551,-0.04960491,66.66482,156.9064,0.0047884034,1442826,228,-98,2734,11431
79015506,4012,0,0.14870672,-0.5148393,-10.444082,0.0068186857,-0.008067632,-0.046289764,66.67036,156.9064,0.0047884034,1442826,521,-60,2309,11433
79115493,4000,0,0.18270369,-1.0718831,-11.031258,-0.0037857192,-0.0004752149,-0.058619544,66.63158,156.9064,0.0047884034,1442826,224,-341,1720,11419
79217094,3999,0,-0.47615775,-0.2681286,-10.212562,0.0031759646,0.014156784,-0.043006394,66.65374,156.9064,0.0047884034,1442826,-438,-756,965,11427
79321094,4000,0,0.18988703,1.8137461,-9.55526,0.008183969,0.0040247925,-0.03137673,66.66759,156.9064,0.0047884034,1442826,533,-155,665,11432
79425094,3999,0,0.68874025,-0.18150008,-10.026757,0.0009406477,-0.009791944,-0.049023442,66.66205,156.9064,0.0047884034,1442826,-116,247,2185,11430
79525094,3945,0,0.36108452,-1.1050618,-10.610856,0.0019951137,-0.011556604,-0.038460784,66.6482,156.9064,0.0047884034,1442826,549,657,3219,11425
