timestamp,integral_dt,error_count,x,y,z,x_integral,y_integral,z_integral,temperature,range_m_s2,scaling,device_id,x_raw,y_raw,z_raw,temperature_raw
49602288,4000,0,-0.43510213,0.17591706,-9.640763,-0.0024349752,0.0032619708,-0.040188037,50.952908,156.9064,0.0047884034,1442850,111,-242,-2300,5759
49702282,3973,0,0.35104144,-0.6258253,-9.491185,0.0012604011,0.0010574963,-0.039513934,50.94737,156.9064,0.0047884034,1442850,47,-59,-1939,5757
49806291,3992,0,-0.44653895,0.6948974,-9.940861,0.0015028244,0.0066758413,-0.036696933,50.916897,156.9064,0.0047884034,1442850,-77,-659,-2140,5746
49906288,4006,0,-0.33682856,-0.26301482,-9.644257,0.0010755152,-0.0116754435,-0.03910806,50.939056,156.9064,0.0047884034,1442850,-123,514,-2465,5754
50007075,4000,0,-0.26797283,3.0267997,-9.714557,0.0009650813,0.015082794,-0.050134107,50.9446,156.9064,0.0047884034,1442850,-215,-3,-2246,5756
50111051,4000,0,-0.21366659,1.7250954,-9.732471,0.0028607545,0.027117174,-0.04994284,50.936287,156.9064,0.0047884034,1442850,-26,-1159,-2176,5753
50211050,3999,0,-0.9048652,-1.4494475,-9.248085,0.00720439,0.014621932,-0.04399044,50.952908,156.9064,0.0047884034,1442850,-405,-1049,-2347,5759
50311050,3952,0,-0.92968786,-1.8370622,-9.3750725,0.0040158117,0.0076935496,-0.036398508,50.96399,156.9064,0.0047884034,1442850,-316,-638,-1764,5763
50415052,3995,0,0.030076802,0.42837512,-10.058435,0.0023364674,0.015325619,-0.040599395,50.950138,156.9064,0.0047884034,1442850,91,-791,-2002,5758
50515887,4013,0,0.3886323,1.6305225,-10.263508,-0.0037956135,0.0110653555,-0.045554824,50.975067,156.9064,0.0047884034,1442850,227,-261,-2065,5767
50615882,3993,0,0.15543075,1.6407369,-9.968207,0.0052034734,-0.0014711245,-0.032260474,50.975067,156.9064,0.0047884034,1442850,-125,424,-1826,5767
50719918,4027,0,-0.7634105,-0.6921896,-9.73561,-0.014006556,-0.0049658683,-0.04347859,50.936287,156.9064,0.0047884034,1442850,570,-171,-1985,5753
50819882,4000,0,0.7072772,1.2273636,-9.71745,0.004302133,0.0017699965,-0.03339094,50.96676,156.9064,0.0047884034,1442850,119,-101,-1561,5764
50919927,4039,0,-1.7953981,-0.71663374,-9.711398,0.0060789776,0.008085075,-0.030566327,50.991688,156.9064,0.0047884034,1442850,-630,-950,-1999,5773
51023931,4010,0,-1.9665401,-0.702268,-9.625977,0.009068392,0.016946346,-0.041759387,51.0277,156.9064,0.0047884034,1442850,-1000,-1096,-2686,5786
51124681,4799,0,-0.2442653,0.35820407,-9.448917,0.020245507,0.027920408,-0.049064383,50.98892,156.9064,0.0047884034,1442850,-694,-1282,-2324,5772
51224681,4006,0,1.638384,-0.8528219,-10.546002,0.022792216,0.004827744,-0.053077552,50.99446,156.9064,0.0047884034,1442850,493,-419,-1932,5774
51328674,3949,0,2.4325817,1.1666312,-9.746867,-0.045800626,0.0039772764,-0.032429606,51.0,156.9064,0.0047884034,1442850,3772,588,-2033,5776
51428707,4033,0,-1.3670238,0.15892942,-9.190724,-0.042321973,-0.01646103,-0.021694653,51.00831,156.9064,0.0047884034,1442850,131,1259,-1455,5779
51528688,3988,0,-2.2766817,-0.82585084,-7.870126,0.052740388,0.0009553763,-0.08046852,50.99723,156.9064,0.0047884034,1442850,-3672,-1372,-4276,5775
51632718,4038,0,0.31967956,0.7368849,-8.568761,0.042988352,0.008648784,-0.037852533,50.99723,156.9064,0.0047884034,1442850,-820,252,-3103,5775
51733495,4044,0,1.0232047,-0.23493712,-9.118894,0.0051457128,-0.0085152,-0.04873515,51.0,156.9064,0.0047884034,1442850,1586,104,-3976,5776
51833474,4023,0,0.09967833,0.5472349,-9.241137,-0.03424173,0.00987431,-0.06413144,50.972298,156.9064,0.0047884034,1442850,2173,-276,-3410,5766
51937474,3994,0,1.0582107,0.53340596,-9.570082,-0.007840458,0.0007568863,-0.042042956,51.03601,156.9064,0.0047884034,1442850,2154,67,-3104,5789
52037474,3959,0,-1.3921529,0.34249085,-10.472685,0.033178497,-0.0012241938,-0.025210612,51.03324,156.9064,0.0047884034,1442850,-2954,483,-472,5788
52141474,3987,0,-0.28646758,0.6310209,-10.732015,0.018628351,-0.004381384,-0.045612,51.02493,156.9064,0.0047884034,1442850,-480,532,-1303,5785
52245474,4000,0,1.2640957,-0.17687629,-11.721917,-0.0023135957,-0.0068768873,-0.047597386,51.049862,156.9064,0.0047884034,1442850,1783,-205,-1170,5794
52350274,3974,0,-1.2744658,-0.37178606,-11.052168,0.01777447,0.0020320725,-0.042654783,51.01385,156.9064,0.0047884034,1442850,-1995,-128,-2369,5781
52450325,4051,0,0.38661256,-0.11916765,-10.25405,-0.006552348,-0.0071664075,-0.041450277,51.02216,156.9064,0.0047884034,1442850,848,-581,-328,5784
52554318,4037,0,-0.92500055,1.8506588,-10.133389,0.014022246,0.008718144,-0.06901946,51.03047,156.9064,0.0047884034,1442850,-1843,360,-2941,5787
52654274,4000,0,-0.3697946,0.5598416,-10.093206,0.025234342,-0.007181124,-0.06491778,51.04432,156.9064,0.0047884034,1442850,-1861,776,-2294,5792
52754274,3999,0,-0.7998326,-0.3598722,-10.233219,0.012101795,-0.000105007086,-0.04991541,51.01385,156.9064,0.0047884034,1442850,-1318,1019,-2482,5781
52855074,3979,0,-0.20791776,-0.49722353,-10.359433,0.012827379,-0.0065961163,-0.03618168,51.04432,156.9064,0.0047884034,1442850,-297,-580,-1387,5792
52959090,4039,0,-0.7431015,1.3662592,-8.9090395,-0.021261107,0.0189257,-0.064604536,51.03601,156.9064,0.0047884034,1442850,214,-1141,-3186,5789
53059070,3978,0,-0.15941611,0.74154174,-8.454171,-0.034366637,0.005695355,-0.02067735,51.0277,156.9064,0.0047884034,1442850,1292,-332,-1383,5786
53163050,3961,0,-0.3162799,-0.7261942,-9.633323,-0.024124311,0.002455887,-0.0633085,51.02493,156.9064,0.0047884034,1442850,133,-126,-1675,5785
53263056,4005,0,-0.66881496,-0.8402443,-10.468152,-0.02567947,0.002836079,-0.03191985,51.049862,156.9064,0.0047884034,1442850,641,-507,-1473,5794
53363065,4014,0,-0.8835738,-0.11362319,-9.580081,-0.030127782,0.019813119,-0.053089183,51.049862,156.9064,0.0047884034,1442850,991,-1395,-2700,5794
53467894,4019,0,-0.43622887,1.75854,-9.66753,0.0013302859,0.011180874,-0.0760044,51.05817,156.9064,0.0047884034,1442850,-1143,223,-2000,5797
53567874,3990,0,-0.6079363,1.1510955,-10.354472,0.019902065,-0.004403841,-0.046563774,51.01108,156.9064,0.0047884034,1442850,-1734,1131,-913,5780
53667874,3980,0,0.22590317,-0.51283175,-10.3722315,0.023286859,-0.0078804325,-0.052317567,51.06094,156.9064,0.0047884034,1442850,-392,888,-1474,5798
53771874,3993,0,0.2197099,0.13246547,-10.376644,0.00026459713,0.00670805,-0.034301646,51.05263,156.9064,0.0047884034,1442850,1701,-726,-851,5795
53871874,3960,0,0.7697412,1.6887145,-10.550204,-0.008904595,0.004136963,-0.028171849,51.06094,156.9064,0.0047884034,1442850,1607,-205,-1332,5798
53972675,3953,0,-0.70872164,1.5493151,-9.352275,-0.0058434433,0.0045516505,-0.020765126,51.03878,156.9064,0.0047884034,1442850,-1106,365,-3216,5790
54076695,4021,0,0.38198966,-0.66085833,-10.953464,-0.023796532,-0.003051228,-0.02193797,51.049862,156.9064,0.0047884034,1442850,1269,-647,-972,5794
54176674,3999,0,-0.5996604,-0.09744445,-10.4524145,0.011524369,0.0029357206,-0.031420656,51.069252,156.9064,0.0047884034,1442850,-1249,397,-2846,5801
54276674,3993,0,-0.48457614,0.7087377,-9.941082,0.005535978,-0.0058770473,-0.026664643,51.080334,156.9064,0.0047884034,1442850,417,492,-3142,5805
54380674,4000,0,-0.6929795,1.7154776,-10.594992,0.014978921,0.0039140577,-0.036286365,51.116344,156.9064,0.0047884034,1442850,-1749,653,-2112,5818
54481455,3995,0,0.6022158,-0.040055696,-10.071244,0.016387729,-0.008516166,-0.021857254,51.069252,156.9064,0.0047884034,1442850,466,218,-1226,5801
54581451,4000,0,0.3959806,-0.7470515,-9.818094,-0.014245261,0.0006274239,-0.041150905,51.069252,156.9064,0.0047884034,1442850,1382,-46,-4455,5801
54685450,3974,0,-0.16017376,0.3408671,-10.588455,0.006843736,-0.0023754623,-0.014838725,51.11357,156.9064,0.0047884034,1442850,665,115,-1573,5817
54785516,4016,0,-0.5719453,1.3407426,-9.234574,-0.018676367,0.012485017,-0.014418666,51.09418,156.9064,0.0047884034,1442850,-182,-364,-2458,5810
54885474,4000,0,-0.9826426,1.6028588,-8.663112,0.01497533,-0.0032929543,-0.044154976,51.096954,156.9064,0.0047884034,1442850,-1962,388,-4792,5811
54989474,3994,0,0.9918658,-0.28586483,-10.412441,-0.0022728788,0.0017755432,-0.052452687,51.083103,156.9064,0.0047884034,1442850,1846,-116,-658,5806
55089474,3993,0,0.3222328,-0.64706296,-9.580182,-0.015318535,0.008561584,-0.04907356,51.105263,156.9064,0.0047884034,1442850,1254,-765,-4238,5814
55190274,4000,0,-1.1832818,0.2956999,-9.359955,-0.026197346,0.01947971,-0.047844853,51.083103,156.9064,0.0047884034,1442850,409,-1752,-1220,5806
55294274,4000,0,-0.9954475,1.8129133,-9.537222,0.008858679,0.005585108,-0.045517273,51.1108,156.9064,0.0047884034,1442850,-2507,808,-1206,5816
55394297,3999,0,-0.15688713,0.4026237,-9.872496,-0.019876476,-0.00093131245,-0.052013617,51.09141,156.9064,0.0047884034,1442850,165,414,-2520,5809
55494295,4014,0,0.42208666,-0.84463364,-10.692262,-0.022912424,0.0054450026,-0.03887349,51.09418,156.9064,0.0047884034,1442850,677,176,879,5810
55598276,4002,0,-1.4767755,0.319125,-9.159203,-0.014488117,0.008546885,-0.028584832,51.11357,156.9064,0.0047884034,1442850,-549,-689,-2036,5817
55699057,4006,0,0.74414515,1.0941721,-8.8132925,-0.030819505,0.013269391,-0.041923627,51.102493,156.9064,0.0047884034,1442850,2079,-811,-1770,5813
55799053,4002,0,0.20773135,1.8780156,-8.849841,0.027904287,-0.0014097996,-0.05315559,51.09418,156.9064,0.0047884034,1442850,-1032,940,-2977,5810
55903051,3953,0,0.3975369,-0.5495843,-9.934897,0.026804667,-0.013338909,-0.028959246,51.108032,156.9064,0.0047884034,1442850,-114,542,-699,5815
56003050,4000,0,-1.0756166,-1.2474577,-9.797852,-0.03578524,0.010576335,-0.032467272,51.13019,156.9064,0.0047884034,1442850,59,-978,-670,5823
56103050,3962,0,0.4849902,-0.12174396,-9.538021,0.0072848466,0.01425443,-0.061899878,51.135735,156.9064,0.0047884034,1442850,1081,-1345,-2158,5825
56207079,4000,0,0.96249515,1.5599517,-8.830782,0.019254684,-0.008378627,-0.04518751,51.168976,156.9064,0.0047884034,1442850,1291,-543,-2618,5837
56307875,3965,0,0.15171263,0.31794146,-9.138496,0.032030016,-0.0054187304,-0.07768725,51.144043,156.9064,0.0047884034,1442850,-861,-98,-3612,5828
56407895,3988,0,-0.41185042,-0.6170667,-10.625536,-0.02170538,-0.008712969,-0.04060578,51.124653,156.9064,0.0047884034,1442850,-264,780,-1421,5821
56511880,4006,0,-0.6922204,-0.08243238,-9.285476,-0.02690673,0.016181828,-0.0323113,51.152355,156.9064,0.0047884034,1442850,133,-531,-3217,5831
56611913,4039,0,0.7921388,1.3082913,-9.356469,0.01785915,0.0081100445,-0.057812862,51.155125,156.9064,0.0047884034,1442850,998,-556,-2798,5832
56715887,4013,0,0.4023903,1.4965603,-8.7451315,0.029181466,-0.019184984,-0.017944615,51.171745,156.9064,0.0047884034,1442850,-479,1706,-2357,5838
56816686,4004,0,-0.19718783,-0.40822527,-9.080347,0.042502083,-0.00605608,-0.050628588,51.155125,156.9064,0.0047884034,1442850,-1882,42,-4630,5832
56916688,4006,0,0.7746654,-0.49436146,-8.060494,-0.0509044,0.005229151,-0.019408202,51.177284,156.9064,0.0047884034,1442850,2794,244,-1285,5840
57016688,4006,0,-0.93680453,0.8662125,-7.8044186,-0.04682782,0.015529558,-0.0456232,51.171745,156.9064,0.0047884034,1442850,1047,-842,-1776,5838
57120743,4035,0,-2.5506291,0.9385189,-7.7829194,0.016789697,-0.011865659,-0.007870202,51.171745,156.9064,0.0047884034,1442850,-2731,947,-1213,5838
57220681,3999,0,-1.386665,-0.337496,-8.89849,0.014236321,0.009756132,-0.043135222,51.163433,156.9064,0.0047884034,1442850,-2257,-833,-1597,5835
57321475,4000,0,0.34809324,-0.52548367,-10.072583,-0.043649465,0.006329474,-0.04611125,51.157894,156.9064,0.0047884034,1442850,2551,481,223,5833
57425474,3987,0,0.12997672,1.168233,-9.489957,-0.020736728,0.01585434,-0.02037502,51.177284,156.9064,0.0047884034,1442850,879,393,-1420,5840
57525474,3994,0,0.3154846,2.0842261,-9.971404,-0.013378422,0.003562483,-0.04855349,51.185596,156.9064,0.0047884034,1442850,1981,2,-1976,5843
57625474,3982,0,0.6547237,1.3682002,-10.643127,-0.0021517528,-0.008347903,-0.05942096,51.171745,156.9064,0.0047884034,1442850,1073,137,547,5838
57729529,4013,0,-0.13305771,-1.1454914,-10.220707,-0.021872696,0.0023647966,-0.015995814,51.168976,156.9064,0.0047884034,1442850,-206,74,-767,5837
57829499,4025,0,-0.47434077,-1.3226485,-9.711849,-0.023553303,0.004885199,-0.042932954,51.199444,156.9064,0.0047884034,1442850,295,-838,-4486,5848
57930299,4011,0,-1.4133431,0.46566978,-9.637693,-0.0008938068,0.026560847,-0.0385847,51.202217,156.9064,0.0047884034,1442850,-997,-1126,-4740,5849
58034281,3993,0,-0.18306555,2.3876255,-9.516375,0.0328692,-0.0106646605,-0.03197268,51.218838,156.9064,0.0047884034,1442850,-785,194,-3702,5855
58134288,4006,0,-0.73166853,1.0426024,-9.074566,0.021362558,-0.0047584334,-0.031941514,51.177284,156.9064,0.0047884034,1442850,-2207,411,-2116,5840
58238282,3975,0,0.4351919,-0.86682975,-11.582039,0.012168489,-0.010044958,-0.028942972,51.202217,156.9064,0.0047884034,1442850,235,920,1020,5849
58338282,4000,0,-1.5151582,-0.6342864,-10.607383,0.020083725,-0.0028189179,-0.019931294,51.193905,156.9064,0.0047884034,1442850,-1868,133,-2075,5846
58438282,3996,0,-1.5352451,0.82584834,-9.27385,-0.0076438524,0.0118859755,-0.0347761,51.207756,156.9064,0.0047884034,1442850,-1551,-689,-3475,5851
58539051,3957,0,-0.88170576,1.8009,-9.876577,-0.018708387,0.018311735,-0.043072116,51.210526,156.9064,0.0047884034,1442850,-792,227,-1036,5852
58643067,4005,0,-1.1227372,0.4646674,-9.499514,0.021458007,0.0042799306,-0.052745476,51.185596,156.9064,0.0047884034,1442850,-2612,-11,-2590,5843
58743050,3979,0,-1.3417627,-0.6969893,-11.117428,-6.279908e-06,-0.0019882005,-0.043961223,51.240997,156.9064,0.0047884034,1442850,-1871,811,-1236,5863
58847051,4000,0,-0.6360314,-0.23698442,-9.655257,0.0306902,0.001990812,-0.060267854,51.229916,156.9064,0.0047884034,1442850,-409,113,-4155,5859
58951074,3955,0,0.63637894,1.3394715,-9.496341,-0.013860127,0.008389606,-0.033048566,51.224377,156.9064,0.0047884034,1442850,1749,-1299,-475,5857
59051074,3993,0,0.25699362,1.08634,-10.285582,-0.024913104,-0.0036362025,-0.05154776,51.216064,156.9064,0.0047884034,1442850,1076,488,-1273,5854
59155080,4006,0,-0.14002752,-0.9778466,-9.903587,0.01938723,0.01331527,-0.054956272,51.218838,156.9064,0.0047884034,1442850,-1312,18,-4637,5855
59255881,3999,0,-1.8399945,0.2554129,-10.65262,0.025786543,0.00080494676,-0.022015128,51.265926,156.9064,0.0047884034,1442850,-2238,899,-1285,5872
59355882,4000,0,-1.0301734,1.4746668,-9.497146,0.017942786,0.013291176,-0.023645893,51.246536,156.9064,0.0047884034,1442850,-1899,-121,-2332,5865
59459896,3974,0,1.1542174,1.0547599,-10.31279,0.012820259,-0.014789039,-0.03831403,51.193905,156.9064,0.0047884034,1442850,980,941,-625,5846
59559894,4012,0,0.66839534,-0.68709475,-10.017266,0.024193607,-0.0126867555,-0.023268491,51.23546,156.9064,0.0047884034,1442850,269,382,-1940,5861
59660686,4003,0,-0.13261583,-1.3795291,-10.027882,0.0089687565,0.0104208365,-0.0488624,51.249306,156.9064,0.0047884034,1442850,716,-449,-3376,5866
59760684,4010,0,0.7570298,-0.29646042,-10.774748,0.01195848,-0.00040789717,-0.04011622,51.249306,156.9064,0.0047884034,1442850,1271,-793,-160,5866
59864674,3993,0,0.5861332,1.1725345,-9.096737,-0.041418124,0.01800009,-0.055849794,51.229916,156.9064,0.0047884034,1442850,2616,-946,-3027,5859
59964650,3999,0,0.7633436,1.4043077,-9.817481,-0.0129744,-0.00050972146,-0.06705794,51.249306,156.9064,0.0047884034,1442850,2339,-434,-2877,5866
60068653,3962,0,-0.053516634,-1.5193087,-9.730362,-0.031175192,-0.002548865,-0.03547159,51.260387,156.9064,0.0047884034,1442850,867,-283,-2038,5870
60168651,3956,0,0.055276256,-1.1107091,-9.62216,-0.027218757,0.019258067,-0.037534878,51.27147,156.9064,0.0047884034,1442850,2146,-792,-2862,5874
60269474,3963,0,0.2171295,0.38195688,-10.506398,0.0019493769,0.015677493,-0.044775076,51.25208,156.9064,0.0047884034,1442850,2023,-186,-237,5867
60373480,4006,0,0.42055407,1.6647139,-9.399486,-0.027148176,0.0034665642,-0.039696433,51.25208,156.9064,0.0047884034,1442850,1403,-188,-2409,5867
60473474,3993,0,1.1439991,0.6438022,-10.617598,0.005972322,-0.012545205,-0.038150303,51.25208,156.9064,0.0047884034,1442850,637,1324,-901,5867
60573482,3973,0,-1.575322,-1.0820308,-10.297008,0.016935136,-0.01607517,-0.018892497,51.260387,156.9064,0.0047884034,1442850,-2700,-182,-1540,5870
60677482,4000,0,-1.3807366,-0.55991477,-10.699144,0.020168716,0.005062635,-0.037234046,51.257618,156.9064,0.0047884034,1442850,-2277,372,613,5869
60777524,4042,0,-0.8522347,0.8692738,-10.111534,-0.013566778,0.012622323,-0.02212671,51.238228,156.9064,0.0047884034,1442850,-1226,-567,-387,5862
61387051,3956,0,-0.2600517,1.4870448,-8.5534315,-0.023558736,0.01344059,-0.039606355,51.279778,156.9064,0.0047884034,1442850,338,-333,-4802,5877
61487050,3994,0,-0.36475888,0.92858,-9.799976,0.029802918,-0.010731122,-0.022654762,51.282547,156.9064,0.0047884034,1442850,-1410,1152,-2032,5878
61591087,4013,0,0.49839467,-0.81072325,-10.874226,-0.019139549,0.005943696,-0.020658216,51.268696,156.9064,0.0047884034,1442850,1175,-600,685,5873
61695074,3994,0,-0.3473051,1.0969064,-10.430315,0.014371107,0.009743119,-0.05878401,51.27424,156.9064,0.0047884034,1442850,-546,141,-633,5875
61795080,3976,0,0.46746314,1.6355828,-8.980332,-0.018987738,0.0036162892,-0.008863627,51.2964,156.9064,0.0047884034,1442850,1308,-217,-2303,5883
61899080,3992,0,0.22860514,0.093453944,-9.681935,-0.009274939,-0.02399218,-0.016864128,51.3241,156.9064,0.0047884034,1442850,1207,833,-1687,5893
62003076,4002,0,0.30291882,-0.87891877,-10.577075,0.017994555,-0.014167137,-0.016322482,51.30748,156.9064,0.0047884034,1442850,158,254,-260,5887
62103892,4018,0,-0.8857203,0.12868695,-9.596452,-0.012510725,0.024951715,-0.08296825,51.29086,156.9064,0.0047884034,1442850,-117,-649,-4436,5881
62203888,4007,0,-0.1759988,1.6587931,-9.802734,-0.019282632,-0.005413574,-0.0051070233,51.29363,156.9064,0.0047884034,1442850,971,722,-1672,5882
62307874,3994,0,0.37197745,0.64368474,-10.176605,-0.016132727,0.00573653,-0.04532449,51.2964,156.9064,0.0047884034,1442850,1174,433,-1554,5883
62407874,3994,0,-0.06992038,-0.054680504,-10.855663,0.018832624,-0.008853284,-0.028340265,51.285316,156.9064,0.0047884034,1442850,-520,1373,68,5879
62511907,4033,0,-0.07717531,0.23587687,-10.239398,0.014465935,0.021969192,-0.06078268,51.33518,156.9064,0.0047884034,1442850,-155,-555,-2322,5897
62612651,3993,0,-0.24032488,1.6617631,-10.0904,-0.0036547938,0.007767814,-0.037663423,51.31302,156.9064,0.0047884034,1442850,-526,-10,-1428,5889
62712650,3974,0,0.7095597,1.137272,-9.223506,-0.010016599,-0.019172573,-0.018122643,51.31302,156.9064,0.0047884034,1442850,991,-207,-1750,5889
62816682,4031,0,0.49348852,-0.30807677,-10.955397,0.008906765,-0.019798076,-0.03859459,51.31579,156.9064,0.0047884034,1442850,126,502,-437,5890
62916687,4037,0,-0.259206,0.16564792,-9.986123,3.5347883e-05,0.008597054,-0.021877438,51.32687,156.9064,0.0047884034,1442850,-439,-267,-1369,5894
63016650,4000,0,0.7259422,1.0314891,-9.65916,0.0037771137,0.00145994,-0.022659034,51.34349,156.9064,0.0047884034,1442850,1368,-210,-2156,5900
63120674,3987,0,-0.7728368,1.6650046,-10.463425,0.019034173,0.009558188,-0.05465049,51.35734,156.9064,0.0047884034,1442850,-1991,1328,-931,5905
63221475,4001,0,0.32430226,-1.0550386,-9.354988,-0.0065781903,-0.0011780639,-0.02977973,51.32964,156.9064,0.0047884034,1442850,-423,-1336,-2043,5895
63321491,4017,0,0.3231769,-1.4447563,-9.68597,0.012903461,-0.003941562,-0.057407156,51.34626,156.9064,0.0047884034,1442850,765,150,-4210,5901
63421474,4000,0,-0.27516553,-0.6427964,-10.618135,-0.015776617,0.02073476,-0.037634175,51.318558,156.9064,0.0047884034,1442850,283,-642,-276,5891
63525488,3978,0,-0.1707229,1.0132878,-9.09947,-0.013959227,0.010368453,-0.0407893,51.33518,156.9064,0.0047884034,1442850,949,-1365,-3507,5897
63625511,4025,0,-0.9280879,1.6667023,-9.464805,0.007639205,0.005572436,-0.06636576,51.32964,156.9064,0.0047884034,1442850,-1336,-167,-2556,5895
63726319,4044,0,0.7447307,0.4309081,-10.549664,0.008867627,-0.015101768,-0.027641369,51.36842,156.9064,0.0047884034,1442850,514,1581,-97,5909
63830287,4008,0,0.36122105,-0.4872696,-9.591078,0.0048996257,-0.017055236,-0.02933292,51.34072,156.9064,0.0047884034,1442850,484,1055,-1844,5899
63930274,4000,0,-0.1551274,0.36298463,-8.717483,-0.0019062469,0.02905535,-0.061954968,51.38227,156.9064,0.0047884034,1442850,127,-1491,-3755,5914
64034274,4000,0,-0.22768745,1.180059,-10.090946,-0.0040824926,0.009736433,-0.03271123,51.37119,156.9064,0.0047884034,1442850,-15,726,-1243,5910
64138250,4000,0,-0.6521833,-0.34695935,-9.173046,0.0013117897,0.0036954267,-0.053152088,51.390583,156.9064,0.0047884034,1442850,-1368,-61,-3609,5917
64238250,4000,0,-0.041275278,-1.2354631,-8.992857,-0.025550317,0.014874048,-0.041701846,51.396122,156.9064,0.0047884034,1442850,294,-1190,-2626,5919
64339081,4000,0,-0.31676278,-0.16762622,-8.796075,-0.020342307,0.00707739,-0.035053223,51.396122,156.9064,0.0047884034,1442850,116,-1092,-2671,5919
64443087,4006,0,-0.35133854,0.79998964,-9.596736,0.007694339,0.02739603,-0.06826144,51.37673,156.9064,0.0047884034,1442850,-512,-172,-4149,5912
64543080,3980,0,-0.2762002,-0.28506806,-9.029568,0.0091418475,0.013700277,-0.07389592,51.3795,156.9064,0.0047884034,1442850,-555,8,-3327,5913
64643074,4000,0,0.08300239,-0.7880681,-9.695328,-0.0038273511,-0.006685868,-0.058319077,51.36011,156.9064,0.0047884034,1442850,404,291,-3690,5906
64747074,3999,0,0.37311536,-0.44089195,-8.806928,-0.014757539,-0.005687409,-0.0069879005,51.396122,156.9064,0.0047884034,1442850,521,-1741,-2071,5919
64847075,4001,0,-0.29723603,1.5550365,-9.613096,0.005606833,0.013774724,-0.02203168,51.38227,156.9064,0.0047884034,1442850,-380,119,-1556,5914
64947888,4007,0,0.08666532,0.9651141,-9.7379265,0.013214077,0.008998636,-0.07149456,51.3795,156.9064,0.0047884034,1442850,-977,1087,-3834,5913
65051881,4001,0,0.3500317,-0.71284896,-11.117204,0.00029207004,-0.018086057,-0.000560672,51.42105,156.9064,0.0047884034,1442850,259,1485,1221,5928
65151885,4004,0,-0.2607829,-0.25220746,-10.37713,-0.0035295004,0.0035489565,-0.03311135,51.42105,156.9064,0.0047884034,1442850,-93,-19,-1968,5928
65255896,3998,0,0.65371674,1.6085829,-10.025569,0.011176999,0.010302014,-0.028961914,51.42105,156.9064,0.0047884034,1442850,365,477,-759,5928
65359874,3956,0,1.0519508,-0.78987294,-9.260842,-0.016130485,-0.0068947407,-0.023434965,51.4072,156.9064,0.0047884034,1442850,1461,-483,-1216,5923
65459875,4001,0,0.38815123,-0.8354266,-9.95786,0.0049131596,-0.019104492,-0.026896708,51.409973,156.9064,0.0047884034,1442850,101,531,-1731,5924
65560684,4033,0,-0.56257236,0.4335343,-9.709331,0.007114982,0.009216649,-0.036631383,51.42105,156.9064,0.0047884034,1442850,-1070,1418,-1984,5928
65664674,4000,0,0.0760872,2.1433632,-10.640825,0.014320713,-0.0029902393,-0.04374954,51.41828,156.9064,0.0047884034,1442850,-608,1248,-1416,5927
66377510,4036,0,-0.66141915,-0.24992464,-10.831713,-0.0044658766,0.0017895858,-0.07385938,51.454292,156.9064,0.0047884034,1442850,-391,-550,-1542,5940
66477483,4003,0,-0.43671954,0.8781834,-10.376888,0.0122093,0.007191169,-0.07330864,51.462605,156.9064,0.0047884034,1442850,-885,56,-1354,5943
66581474,4000,0,0.3521002,0.47014058,-10.107927,0.008970809,-0.015941659,-0.015628565,51.43767,156.9064,0.0047884034,1442850,322,-581,-707,5934
66681481,4007,0,-0.028724609,0.03840302,-9.977096,0.0035466515,-0.01167369,-0.049772095,51.451523,156.9064,0.0047884034,1442850,-563,354,-981,5939
66782250,4000,0,-0.24856465,-1.233825,-10.559097,0.008469487,-0.0024780836,-0.05651054,51.448753,156.9064,0.0047884034,1442850,-333,458,-833,5938
66886250,3983,0,-0.0039375327,0.4381414,-10.900089,0.008516235,0.004644406,-0.015447646,51.501385,156.9064,0.0047884034,1442850,-482,-545,1075,5957
66986250,3957,0,0.53351146,1.2616454,-10.728834,0.0023165478,-0.0041427272,-0.013396477,51.465374,156.9064,0.0047884034,1442850,863,-42,632,5944
67086291,4017,0,-0.06119244,1.6515105,-9.71034,0.015297655,-0.016644904,-0.036122166,51.490303,156.9064,0.0047884034,1442850,-437,-32,-1514,5953
67190303,4029,0,1.2206043,-0.7108708,-11.136173,0.012144235,-0.025841404,-0.023197422,51.454292,156.9064,0.0047884034,1442850,951,1441,3,5940
67291075,4000,0,-0.5818229,-0.57555974,-9.688168,0.0005741243,0.0064545884,-0.069699496,51.479225,156.9064,0.0047884034,1442850,-1339,-137,-2215,5949
67391075,4001,0,0.2500063,0.8331632,-10.929436,0.008816824,-0.00411953,-0.02744646,51.501385,156.9064,0.0047884034,1442850,566,278,479,5957
67495081,4007,0,0.027544837,1.7455499,-9.383919,0.020422937,0.012052637,-0.05004832,51.484764,156.9064,0.0047884034,1442850,-982,838,-3746,5951
67595091,4017,0,0.7734111,0.4523126,-9.043652,0.032762103,-0.006212767,-0.045645013,51.501385,156.9064,0.0047884034,1442850,-690,955,-4484,5957
67695074,3970,0,0.41502857,-0.59913313,-9.56361,0.014045685,-0.010616666,-0.044319257,51.479225,156.9064,0.0047884034,1442850,-1178,565,-1904,5949
67799074,4000,0,0.07744512,-0.50648135,-10.420403,0.028130136,0.004964813,-0.07222044,51.498615,156.9064,0.0047884034,1442850,-312,-1098,-2170,5956
67899888,4006,0,-0.42425615,1.675713,-10.790524,0.026392724,0.006113205,-0.043996226,51.501385,156.9064,0.0047884034,1442850,-1563,373,891,5957
67999902,4020,0,-1.1843841,1.7356637,-10.04626,0.0058378493,0.003103588,-0.024250044,51.515236,156.9064,0.0047884034,1442850,-2351,-637,-488,5962
68103850,3999,0,-0.0922338,-0.04334674,-10.174761,0.036415372,0.004336093,-0.06806712,51.498615,156.9064,0.0047884034,1442850,-1882,239,-1916,5956
68203850,3961,0,-0.27004662,-1.415559,-11.169192,-0.028478518,-0.004079,-0.037783768,51.495846,156.9064,0.0047884034,1442850,59,53,-725,5955
68307902,4037,0,-1.2970943,0.7843661,-9.457441,-0.0043165125,0.020934781,-0.038164422,51.509693,156.9064,0.0047884034,1442850,-1449,-728,-3239,5960
68407850,4000,0,0.8853296,1.6387156,-9.579732,-0.027059887,0.017998368,-0.053266507,51.520775,156.9064,0.0047884034,1442850,2128,-1116,-1360,5964
68508674,3993,0,1.097201,1.6294037,-9.6817045,0.017847987,-0.009212031,-0.069339894,51.515236,156.9064,0.0047884034,1442850,596,662,-1466,5962
68608675,3976,0,-0.927636,0.6139877,-9.858972,-0.008214565,0.002018644,-0.058836106,51.518005,156.9064,0.0047884034,1442850,-1554,-137,-1134,5963
68712732,4058,0,-1.131567,-1.0474185,-10.735431,-0.0020651668,0.0023494172,-0.039062943,51.556786,156.9064,0.0047884034,1442850,-1785,-224,-1563,5977
68812725,4051,0,-0.20661294,-0.3635693,-10.9345,-0.035188653,0.019374553,-0.040757526,51.534626,156.9064,0.0047884034,1442850,1402,-482,81,5969
68916674,4000,0,0.3551351,1.576071,-9.733691,-0.026408758,0.0060691317,-0.021790788,51.531857,156.9064,0.0047884034,1442850,1044,-557,-566,5968
69017482,4000,0,-0.59341127,1.0995897,-10.17381,-0.027999409,0.0069829784,-0.06335975,51.542934,156.9064,0.0047884034,1442850,-91,-438,-4234,5972
69117482,4000,0,-0.42496628,0.103807025,-10.940214,0.0013059699,-0.0025461256,-0.029848855,51.540165,156.9064,0.0047884034,1442850,-1051,446,-1022,5971
69217488,3999,0,-0.60082436,-0.40212944,-10.03066,0.00036897324,-0.00078560365,-0.04037617,51.548477,156.9064,0.0047884034,1442850,-1582,534,-3231,5974
69321503,3917,0,-0.51764107,1.003124,-10.615286,0.030937556,0.0005946674,-0.031134028,51.534626,156.9064,0.0047884034,1442850,-1420,439,-506,5969
69421519,4037,0,-0.87527156,1.8803383,-10.2316265,0.030713,0.007616316,-0.031846315,51.556786,156.9064,0.0047884034,1442850,-3014,-303,-1236,5977
69525457,4007,0,-0.73962015,-0.010318162,-9.132664,0.026985498,-0.002767309,-0.014440361,51.548477,156.9064,0.0047884034,1442850,-2547,235,-892,5974
69626274,4000,0,0.5919425,-0.588741,-10.08793,-0.0486784,-0.003823463,-0.03822232,51.520775,156.9064,0.0047884034,1442850,1986,586,-1161,5964
69726280,4000,0,0.64896566,-0.77067924,-8.536892,0.02626501,-0.0043384116,-0.042785358,51.548477,156.9064,0.0047884034,1442850,-202,-161,-4219,5974
69830274,4000,0,0.4962402,1.4466362,-8.289813,0.022994895,-0.003350719,-0.06433116,51.567867,156.9064,0.0047884034,1442850,328,-395,-3725,5981
69930290,4016,0,-0.73813355,1.2456658,-9.652644,-0.0062430147,0.00034130993,-0.030907433,51.551247,156.9064,0.0047884034,1442850,-1267,-754,-110,5975
70030313,4022,0,-0.042701125,0.29479343,-10.666843,-0.016832521,0.007911487,-0.036596354,51.526314,156.9064,0.0047884034,1442850,349,147,979,5966
70134274,4000,0,0.25211158,-1.4054705,-11.273295,0.0051802276,-0.009374891,-0.031632707,51.578945,156.9064,0.0047884034,1442850,-256,-270,-2145,5985
70235082,4000,0,-0.118709564,-0.39051867,-10.472529,0.004729471,-0.012125992,-0.022144128,51.578945,156.9064,0.0047884034,1442850,921,45,-2419,5985
70335082,4000,0,0.16319896,0.3752324,-9.220718,-0.016163854,0.017809998,-0.02619438,51.590027,156.9064,0.0047884034,1442850,595,-1593,-2090,5989
70439082,3994,0,0.42793742,0.549481,-9.104923,0.022931771,-0.021551654,-0.04679445,51.551247,156.9064,0.0047884034,1442850,-226,1207,-3393,5975
70543082,4000,0,0.85950565,-1.3091022,-8.995499,-0.022482479,0.009367282,-0.039786004,51.576176,156.9064,0.0047884034,1442850,1576,-964,-1459,5984
70643098,4010,0,0.73913693,-0.57127327,-9.118247,-0.007611609,0.016004648,-0.0634002,51.587257,156.9064,0.0047884034,1442850,2107,-1331,-3036,5988
70747082,3994,0,0.9126197,1.1246988,-8.545516,-0.028146828,-0.005181773,-0.012649412,51.590027,156.9064,0.0047884034,1442850,1855,76,-3203,5989
70847851,4000,0,-0.027733138,0.64314234,-9.052072,-0.020819394,0.009281403,-0.06420643,51.584488,156.9064,0.0047884034,1442850,554,-1171,-2504,5987
70947851,4001,0,-0.004216169,-0.40915677,-10.140148,-0.013033622,-0.0022916396,-0.009139651,51.59834,156.9064,0.0047884034,1442850,-182,802,-1242,5992
71047910,4029,0,-0.501599,-0.49445644,-10.11914,-0.017997926,0.0045713047,-0.050149508,51.609417,156.9064,0.0047884034,1442850,-309,654,-2722,5996
71151906,3993,0,-0.058649816,1.0764176,-10.486687,0.020067839,0.008454009,-0.041333586,51.609417,156.9064,0.0047884034,1442850,-189,718,-1187,5996
71251874,3978,0,0.7668945,1.7951003,-11.033673,-0.003840194,-0.0032549864,-0.03814257,51.603878,156.9064,0.0047884034,1442850,1776,100,-1368,5994
71355874,4000,0,0.4804936,0.555701,-10.478178,0.014261929,-0.018415924,-0.059964918,51.587257,156.9064,0.0047884034,1442850,-114,203,-4180,5988
71456682,4000,0,0.5176762,-0.51909554,-11.481011,-0.015678715,-0.0010864338,-0.03384739,51.584488,156.9064,0.0047884034,1442850,457,953,-501,5987
71556682,4000,0,0.19356827,-0.599805,-10.837127,-0.03258901,-0.0029762627,-0.030953871,51.60111,156.9064,0.0047884034,1442850,1708,638,-1284,5993
71660692,4010,0,-0.037072476,0.7937253,-10.27656,-0.028561674,0.0074328044,-0.027849933,51.609417,156.9064,0.0047884034,1442850,1081,-838,-208,5996
71760711,4004,0,0.42427042,1.4613457,-8.993165,0.023130761,0.0019773617,-0.061263844,51.645428,156.9064,0.0047884034,1442850,-113,198,-3113,6009
71860736,4046,0,-0.9140465,0.7465185,-8.7291355,-0.011010826,-0.0031417129,-0.057984896,51.63989,156.9064,0.0047884034,1442850,-946,-530,-4797,6007
71961451,4000,0,0.7261723,-1.086944,-9.472789,-0.03906122,-0.0011781335,-0.041528147,51.567867,156.9064,0.0047884034,1442850,2261,-209,-3346,5981
72065459,4009,0,-0.07664006,-0.2748508,-10.776585,-0.038894653,0.015344777,-0.032716952,51.612186,156.9064,0.0047884034,1442850,1198,-52,-706,5997
72165451,4001,0,0.4532994,1.0391119,-10.146001,0.034351353,0.0017163935,-0.04824088,51.61496,156.9064,0.0047884034,1442850,-84,-40,-512,5998
72269451,4000,0,-0.1031817,2.0515747,-9.003628,0.030171327,0.00016964576,-0.027266625,51.603878,156.9064,0.0047884034,1442850,-1579,875,-1618,5994
72369450,3974,0,-0.35133737,-0.038491074,-9.599178,-0.0343439,0.0036706654,-0.043189917,51.62327,156.9064,0.0047884034,1442850,618,-111,-3672,6001
72469480,4000,0,1.7391658,-0.9892054,-9.82014,0.014090835,-0.0006171778,-0.063353285,51.626038,156.9064,0.0047884034,1442850,1481,-328,-3001,6002
72573474,4000,0,0.3928959,-0.49330968,-10.422691,0.020732848,0.010065864,-0.033817165,51.63712,156.9064,0.0047884034,1442850,1039,-193,157,6006
72674282,4000,0,-0.33286875,1.9229344,-9.486355,0.035134364,0.0011447098,-0.009709897,51.645428,156.9064,0.0047884034,1442850,-1529,-18,-2127,6009
73891888,4006,0,0.78291184,-1.4878759,-9.319121,-0.023026897,0.006345336,-0.03553856,51.66759,156.9064,0.0047884034,1442850,1376,-688,-3149,6017
73991901,3962,0,-0.49392635,-1.1234058,-9.958845,-0.03019805,0.0061299885,-0.01883313,51.65928,156.9064,0.0047884034,1442850,219,-261,-1568,6014
74095882,3969,0,-0.15827525,0.77052426,-8.855356,0.025568115,0.003224695,-0.040453054,51.68144,156.9064,0.0047884034,1442850,-1278,-350,-3553,6022
74195908,4026,0,0.5556652,1.7576616,-9.383512,0.012761145,0.002094098,-0.033051316,51.68698,156.9064,0.0047884034,1442850,618,-180,-1655,6024
74299896,4014,0,1.0968329,0.040122956,-9.211878,-0.027773848,-0.007248721,-0.04326009,51.7036,156.9064,0.0047884034,1442850,2304,198,-3352,6030
74400675,3988,0,0.5446973,-1.6618111,-9.71444,-0.033770014,0.0016912526,-0.043923277,51.68421,156.9064,0.0047884034,1442850,847,-551,-2717,6023
74500680,3999,0,0.14046171,-1.440862,-9.510315,-0.027149772,0.014324637,-0.042258754,51.739613,156.9064,0.0047884034,1442850,1397,-1502,-2040,6043
74600696,4022,0,0.37495762,-0.46933085,-9.102868,-0.021582618,0.022140674,-0.048653938,51.720222,156.9064,0.0047884034,1442850,1621,-1640,-3837,6036
74704681,3984,0,-0.8602417,2.173501,-9.8531475,0.0026536146,0.0024806722,-0.037388798,51.68698,156.9064,0.0047884034,1442850,-2110,916,-1354,6024
74804651,3982,0,-0.45631248,0.7990265,-10.338242,-0.015082094,-0.0010775034,-0.031668764,51.72576,156.9064,0.0047884034,1442850,-722,879,-1251,6038
74908651,4001,0,-0.63615185,-1.4228503,-9.69845,0.0029992969,-0.0053568883,-0.019365182,51.722992,156.9064,0.0047884034,1442850,-1536,-81,-1562,6037
75013474,4000,0,-0.9918337,1.6111107,-10.051391,0.019129133,0.01592199,-0.059870087,51.7036,156.9064,0.0047884034,1442850,-2130,-765,-653,6030
75113510,4030,0,0.43386027,1.5965241,-10.206665,-0.025285542,0.012081336,-0.037618835,51.71468,156.9064,0.0047884034,1442850,681,-419,-165,6034
75213488,4000,0,1.2414023,1.345019,-9.767769,0.010492085,-0.026430694,-0.03686618,51.720222,156.9064,0.0047884034,1442850,1477,198,-1784,6036
75317500,3976,0,1.7664288,-0.5114912,-10.794776,0.020081608,-0.0012438854,-0.07095001,51.73407,156.9064,0.0047884034,1442850,1019,-394,-1657,6041
75417489,4007,0,-1.8685883,-1.1093638,-10.590441,0.009936977,-0.002684733,-0.02770117,51.753464,156.9064,0.0047884034,1442850,-2465,512,-389,6048
75517482,4000,0,1.083908,-0.16310555,-10.041732,-0.024752779,0.0036442406,-0.01551185,51.70914,156.9064,0.0047884034,1442850,2863,-148,-1866,6032
75622275,4001,0,1.8482103,1.4106178,-8.815077,0.0005633291,0.0012954851,-0.05994342,51.72853,156.9064,0.0047884034,1442850,2361,-1019,-4979,6039
75726274,4000,0,1.017735,0.4759329,-9.815723,0.038085166,-0.01650362,-0.036388926,51.75069,156.9064,0.0047884034,1442850,-336,370,-2638,6047
75826274,3976,0,0.5830827,-0.9803986,-9.930363,-0.0399821,-0.0044989074,-0.030892916,51.73407,156.9064,0.0047884034,1442850,1394,144,-2417,6041
75930274,3983,0,-0.13676767,0.303273,-10.565487,-0.034061063,0.005985872,-0.047680713,51.736843,156.9064,0.0047884034,1442850,2064,-155,-1373,6042
76030274,3962,0,-1.5367433,1.739181,-9.842744,0.021908501,0.005908251,-0.011596176,51.75069,156.9064,0.0047884034,1442850,-2715,386,-203,6047
76130257,4007,0,1.9241444,1.3807266,-9.389802,-0.011323307,-0.0006583093,-0.02254435,51.75069,156.9064,0.0047884034,1442850,2451,-746,-1112,6047
76235088,4014,0,2.2435205,-0.4473849,-10.8016405,0.00081002386,-0.011638136,-0.041137923,51.74792,156.9064,0.0047884034,1442850,2367,771,-1781,6046
76335080,4006,0,-1.7569087,-1.019986,-10.457451,-0.0076559912,-0.0039626267,-0.024143737,51.75069,156.9064,0.0047884034,1442850,-1532,-784,-837,6047
76435074,4000,0,0.86704123,-0.42198083,-8.676403,0.037548188,-0.0059308913,-0.041090913,51.781162,156.9064,0.0047884034,1442850,483,-437,-2879,6058
76539074,4000,0,-1.7180293,1.5729792,-9.220555,-0.0047226306,0.0015480653,0.006919739,51.7313,156.9064,0.0047884034,1442850,-1829,129,498,6040
76639122,4034,0,-0.8058857,1.4547368,-9.487959,0.036988217,-0.0031625503,-0.03104921,51.759003,156.9064,0.0047884034,1442850,-2538,1559,-1459,6050
76739082,3994,0,0.66232467,-0.46276736,-10.043783,-0.03922423,0.0036976307,-0.044542193,51.789474,156.9064,0.0047884034,1442850,1635,314,-2021,6061
76843911,4036,0,-0.1737208,-0.14990774,-10.1169615,-0.018905593,-0.0014249566,-0.012308924,51.795013,156.9064,0.0047884034,1442850,163,-578,-1670,6063
76943881,4007,0,0.83123064,0.9260809,-9.7294035,0.01153747,-0.008355884,-0.024189562,51.753464,156.9064,0.0047884034,1442850,1331,-63,-1461,6048
77043888,4014,0,0.18792278,2.564413,-9.85518,0.03426168,0.0018828255,-0.024845531,51.770084,156.9064,0.0047884034,1442850,-1765,800,-1538,6054
77147874,3957,0,1.195286,0.56402814,-9.597228,0.015299603,-0.018856874,-0.04287728,51.789474,156.9064,0.0047884034,1442850,312,978,-1783,6061
77247874,4000,0,0.44372132,-0.903716,-9.635618,0.01617631,-0.011929672,-0.030025855,51.792244,156.9064,0.0047884034,1442850,-384,792,-1980,6062
77351913,3991,0,0.24043609,-0.45900324,-9.590792,0.011952507,0.0016764461,-0.039896943,51.789474,156.9064,0.0047884034,1442850,436,-17,-2028,6061
77452651,3977,0,0.9820903,0.8167391,-8.828264,0.008601811,-0.012307276,-0.012368564,51.797783,156.9064,0.0047884034,1442850,1397,403,-3230,6064
77552715,4065,0,0.57930726,1.7617681,-10.237242,0.0059350273,-0.014604769,-0.025473163,51.828255,156.9064,0.0047884034,1442850,1016,178,-931,6075
77652680,3974,0,1.1853931,0.49102286,-9.24195,-0.021787032,0.008361141,-0.05365596,51.772854,156.9064,0.0047884034,1442850,2305,-530,-3329,6055
77756676,4002,0,-0.056732018,-1.3333573,-9.282997,0.021491356,0.0032311166,-0.05033609,51.808865,156.9064,0.0047884034,1442850,-1190,-732,-2989,6068
77856712,4023,0,-0.17381287,0.50367993,-10.972184,0.013166903,-0.00550363,-0.0420753,51.770084,156.9064,0.0047884034,1442850,-659,1779,169,6054
77960682,3969,0,0.32686728,1.2126263,-8.401391,-0.024162699,0.01598299,-0.049769722,51.792244,156.9064,0.0047884034,1442850,1007,-766,-5227,6062
78061481,4006,0,-1.335215,1.224921,-10.540663,0.008278497,0.005100747,-0.031870216,51.828255,156.9064,0.0047884034,1442850,-2791,526,-327,6075
78161474,3963,0,0.21096094,0.11434399,-9.144693,0.02612409,-0.010779949,-0.03867062,51.842106,156.9064,0.0047884034,1442850,-1132,1118,-2484,6080
78265475,3985,0,0.088604994,-0.809468,-10.510573,-0.016931122,0.003566836,-0.008179686,51.822716,156.9064,0.0047884034,1442850,815,-710,-466,6073
78369481,4007,0,-0.46951476,1.2540715,-10.177005,-0.0004629339,0.023476388,-0.05924666,51.828255,156.9064,0.0047884034,1442850,-1204,-999,-688,6075
78469513,4039,0,-0.6293632,1.6855994,-9.083309,0.015326986,0.0017511665,-0.030807618,51.817173,156.9064,0.0047884034,1442850,-2167,596,-936,6071
78569474,4000,0,-0.013382165,1.1464123,-10.164304,0.023754552,-0.008671383,-0.05567912,51.839336,156.9064,0.0047884034,1442850,-1745,1360,-1978,6079
78674251,4000,0,1.081139,-0.8604519,-10.754313,-0.006274279,0.0012415024,-0.054833148,51.833794,156.9064,0.0047884034,1442850,2049,-444,-884,6077
78774257,4006,0,0.5464185,-0.37175632,-9.627277,0.0012960108,0.010062568,-0.05659324,51.844875,156.9064,0.0047884034,1442850,1967,-1206,-3715,6081
78874257,4006,0,0.99928707,1.024024,-8.849222,0.015669508,-0.00086670916,-0.04930541,51.850414,156.9064,0.0047884034,1442850,850,-580,-2239,6083
78978274,3995,0,1.4560541,0.9661016,-9.852805,0.00028363336,-0.0008608948,-0.055357173,51.828255,156.9064,0.0047884034,1442850,1983,-255,-2723,6075
79078297,4023,0,-1.0885996,0.16971746,-10.270791,0.040945135,-0.0010385609,-0.05929984,51.875347,156.9064,0.0047884034,1442850,-2900,644,-2717,6092
79182325,4044,0,-0.6827293,-1.272834,-10.021146,0.025989585,-0.0069373297,-0.010802351,51.861496,156.9064,0.0047884034,1442850,-1557,411,-820,6087
79282274,4000,0,-1.3812804,0.71230304,-9.384451,-0.005499813,0.013034491,-0.022018315,51.861496,156.9064,0.0047884034,1442850,-1626,-676,-680,6087
79383074,3993,0,0.86927366,1.0101128,-8.7138,-0.03399369,0.009927131,-0.04852406,51.889194,156.9064,0.0047884034,1442850,2120,-649,-2891,6097
79487081,4006,0,-0.08521459,0.31042725,-10.440166,-0.024439776,0.0009696458,-0.046485666,51.878117,156.9064,0.0047884034,1442850,580,-73,-516,6093
79587081,4007,0,1.80853,-0.8299715,-10.771113,0.019502643,-0.011809934,-0.06815426,51.900276,156.9064,0.0047884034,1442850,832,59,-1278,6101
79687100,3986,0,-1.1240642,-1.0901133,-10.690144,0.013175232,-0.0029306896,-0.057051495,51.886425,156.9064,0.0047884034,1442850,-1789,357,-1108,6096
79791075,3957,0,-1.09622,0.718365,-9.83806,0.037850298,0.0036453786,-0.013120542,51.883656,156.9064,0.0047884034,1442850,-2298,-27,-2095,6095
79891851,3975,0,-0.70400727,1.7541418,-9.224771,0.014869675,0.008295396,-0.014072053,51.891968,156.9064,0.0047884034,1442850,-1568,-132,-2686,6098
79991850,4000,0,0.33899304,1.2471328,-9.375589,-0.025314234,-9.431178e-05,-0.0140127,51.880886,156.9064,0.0047884034,1442850,1066,607,-2374,6094
80091858,4005,0,1.8492086,0.08275643,-10.606645,-0.006672848,-0.008444711,-0.014934476,51.916897,156.9064,0.0047884034,1442850,2430,803,-461,6107
80195850,3954,0,0.81839603,-1.2815232,-9.758595,-0.02973624,0.00732168,-0.024071468,51.903046,156.9064,0.0047884034,1442850,2449,-652,-905,6102
80295874,4003,0,0.27108338,-0.33437455,-9.367363,0.017835744,0.00031494861,-0.02448985,51.905815,156.9064,0.0047884034,1442850,78,-524,-1882,6103
80399880,4006,0,0.9419439,1.3753761,-8.92851,-0.0074751694,0.0017938097,-0.05930475,51.872574,156.9064,0.0047884034,1442850,2017,-897,-3576,6091
80499874,3994,0,0.5217812,1.3386297,-8.943951,0.029717788,-0.013259744,-0.060983036,51.92798,156.9064,0.0047884034,1442850,-399,681,-3709,6111
80599888,3999,0,-0.7845765,-0.59706396,-9.139666,0.021059606,-0.0076113557,-0.051071446,51.92798,156.9064,0.0047884034,1442850,-2219,16,-3476,6111
80704674,3999,0,-1.595542,-1.03832,-10.67684,0.027748197,0.0027746656,-0.020016413,51.90859,156.9064,0.0047884034,1442850,-1848,332,-464,6104
80804722,4042,0,-1.2271657,0.34283507,-10.462098,0.005808254,0.01510252,-0.025575992,51.891968,156.9064,0.0047884034,1442850,-1943,-1276,217,6098
80904681,4007,0,-0.2958825,1.0562149,-9.629491,-0.033687107,0.013822629,-0.027314398,51.92521,156.9064,0.0047884034,1442850,203,-1450,-1313,6110
81008674,4000,0,-0.9231169,1.0275867,-9.055053,-0.0015619984,0.013027572,-0.047457054,51.939056,156.9064,0.0047884034,1442850,-981,-22,-4953,6115
81108674,3999,0,0.73698574,-0.81819093,-9.732737,-0.03308262,0.0036884951,-0.050957702,51.92521,156.9064,0.0047884034,1442850,1881,-413,-3316,6110
81209451,4001,0,0.67024404,-1.4414496,-10.339466,-0.03364901,0.012356693,-0.057887692,51.919666,156.9064,0.0047884034,1442850,1707,-404,-2176,6108
81313450,3974,0,-0.20183791,0.6244738,-10.06155,-0.015090218,0.0116088595,-0.017261552,51.9446,156.9064,0.0047884034,1442850,-59,-748,-2105,6117
81413486,4030,0,1.2698674,1.1425601,-10.003755,-0.021552797,0.011671102,-0.008035623,51.916897,156.9064,0.0047884034,1442850,2893,-654,-374,6107
81513461,4011,0,0.41466537,1.7492942,-9.776621,0.033587225,-0.009177397,-0.035537735,51.94737,156.9064,0.0047884034,1442850,-635,166,-565,6118
81617486,4012,0,1.5882406,-0.5527165,-9.790617,0.014447691,0.0030178097,-0.053122897,51.958447,156.9064,0.0047884034,1442850,1062,-201,-2994,6122
81717474,3993,0,-1.3537862,-1.4501109,-10.207753,-0.0006231349,0.0038327973,-0.071764134,51.955677,156.9064,0.0047884034,1442850,-1739,-1067,-1740,6121
81818274,3971,0,-0.56366515,0.20465168,-10.180425,-0.033739563,0.010951082,-0.03612269,51.90859,156.9064,0.0047884034,1442850,719,72,-906,6104
81922281,4007,0,1.5395552,1.1107267,-8.878298,-0.022405174,0.0028790976,-0.012602085,51.96122,156.9064,0.0047884034,1442850,2928,-432,-796,6123
82022297,3987,0,-1.0913827,0.98460525,-9.429836,0.038391232,-0.0024317657,-0.017174015,51.958447,156.9064,0.0047884034,1442850,-2996,252,-1699,6122
82122285,4011,0,0.8945519,-0.77940714,-9.611754,-0.03848865,-0.0041025,-0.024202112,51.972298,156.9064,0.0047884034,1442850,1968,489,-1165,6127
82226276,3995,0,0.4142808,-0.42293835,-10.774949,-0.019093918,0.012578548,-0.050628416,51.97784,156.9064,0.0047884034,1442850,1817,-287,-686,6129
82327074,4800,0,0.3727967,0.4951262,-9.301509,0.025716608,0.0047048004,-0.02988178,51.955677,156.9064,0.0047884034,1442850,659,-320,-2133,6121
82427051,3976,0,-0.90881133,2.0235047,-8.3089905,0.018924363,0.0123344725,-0.04919889,52.00831,156.9064,0.0047884034,1442850,-1613,-15,-5144,6140
82531052,3976,0,-0.46378717,0.23229268,-9.207412,0.039730124,-0.007863638,-0.029846039,51.99446,156.9064,0.0047884034,1442850,-2559,-132,-2832,6135
82631051,3990,0,0.5040072,-0.53751993,-11.105674,-0.039163783,-0.0017124964,-0.047500554,52.0,156.9064,0.0047884034,1442850,1860,672,-245,6137
82731051,3957,0,0.5056248,-1.5263493,-9.880665,0.027670324,-0.0014116503,-0.024830837,51.96122,156.9064,0.0047884034,1442850,-58,158,-2504,6123
82835057,3980,0,-1.3620178,0.8965549,-9.878835,0.029367065,0.0018519491,-0.020742193,52.01662,156.9064,0.0047884034,1442850,-2603,-215,-731,6143
82935080,4006,0,1.3280442,1.5799601,-9.167276,-0.02229707,0.013162562,-0.06374769,51.94737,156.9064,0.0047884034,1442850,2719,-1567,-3191,6118
83035081,4008,0,-1.6050206,1.624061,-10.132218,-0.022853954,-0.004387867,-0.029881312,51.96953,156.9064,0.0047884034,1442850,-1436,579,-354,6126
83139894,4020,0,1.8392228,-0.6081879,-10.680032,-0.022469973,-0.001691601,-0.064865,51.99446,156.9064,0.0047884034,1442850,3067,356,-3049,6135
83239874,4000,0,-0.21233304,-0.73779064,-10.64175,-0.038412273,-0.004282213,-0.008400409,52.02493,156.9064,0.0047884034,1442850,890,402,-836,6146
83343888,4007,0,0.79517806,1.163472,-9.751153,0.030504897,0.013717732,-0.060556166,52.01662,156.9064,0.0047884034,1442850,862,-682,-2332,6143
83447874,3999,0,-0.8235408,1.2585884,-8.781841,0.033457506,0.0042587677,-0.052537505,52.0277,156.9064,0.0047884034,1442850,-2876,-323,-4853,6147
83547881,4007,0,2.098058,0.0377913,-10.361901,-0.0031651538,-0.018823717,-0.04893464,51.98892,156.9064,0.0047884034,1442850,2197,727,-1923,6133
83648675,3982,0,-1.2947023,-1.5670803,-10.298388,-0.040540323,0.00064633973,-0.02065415,52.01108,156.9064,0.0047884034,1442850,-461,-585,107,6141
83752653,3943,0,0.6235736,0.5400105,-10.780092,-0.025538316,0.01595295,-0.039993122,52.01108,156.9064,0.0047884034,1442850,2208,-142,178,6141
83852737,4079,0,-1.6088407,1.5953555,-9.818503,0.001901635,0.006175792,-0.0147348605,52.03047,156.9064,0.0047884034,1442850,-1490,-364,-1526,6148
83952651,4000,0,1.8196964,1.4917992,-9.379986,0.00010955613,-0.004180609,-0.03509114,52.01385,156.9064,0.0047884034,1442850,2334,-1031,-334,6142
84056663,4012,0,1.556779,0.19143271,-10.459428,0.035313845,-0.01429552,-0.04777418,52.0277,156.9064,0.0047884034,1442850,-18,1410,-2870,6147
84156650,3993,0,-0.9118769,-1.2261969,-11.046365,-0.0173775,-0.011723021,-0.014925709,52.00831,156.9064,0.0047884034,1442850,-1112,741,-3,6140
84257477,3996,0,0.82365483,-0.94065857,-9.701665,0.026714496,0.008662578,-0.03797849,52.03601,156.9064,0.0047884034,1442850,955,-800,-1059,6150
84361475,3987,0,-1.0411934,2.0068266,-9.627001,0.03264936,0.0036425923,-0.036947865,52.04432,156.9064,0.0047884034,1442850,-2754,751,-1369,6153
84461474,3975,0,0.8875584,1.5128813,-10.244674,-0.033792745,-0.003017418,-0.037969146,52.03601,156.9064,0.0047884034,1442850,2925,-39,-949,6150
84561474,4000,0,-1.6837451,0.47227204,-10.303528,-0.015302462,-0.010533479,-0.017413279,52.047092,156.9064,0.0047884034,1442850,-2239,183,1064,6154
84665486,4012,0,1.5086521,-0.92399985,-10.980821,-0.023227327,0.0038702476,-0.07534333,52.04432,156.9064,0.0047884034,1442850,3061,-744,-375,6153
84765481,4006,0,-2.8871827,-0.77719295,-10.56476,0.006466951,-0.0052874363,-0.017488176,52.05263,156.9064,0.0047884034,1442850,-2590,-105,203,6156
84866275,3995,0,1.3632727,0.32849827,-9.156487,0.016646001,0.013838358,-0.045426704,52.02493,156.9064,0.0047884034,1442850,1846,-1095,-624,6146
84970296,4022,0,0.637754,1.5899413,-9.510716,0.0418359,-0.015813293,-0.035604365,52.03878,156.9064,0.0047884034,1442850,-285,963,-3237,6151
85070250,4000,0,0.6084333,-0.2815806,-9.696771,-0.029259793,-0.007596949,-0.045319542,52.06094,156.9064,0.0047884034,1442850,1729,-714,-2891,6159
85174251,4000,0,1.1833242,-1.2129426,-10.734613,0.014637545,-0.006120938,-0.0450212,52.03601,156.9064,0.0047884034,1442850,890,850,-2220,6150
85274250,3992,0,0.3481071,0.23350926,-10.028225,-0.04255066,0.01059064,-0.0057217362,52.063713,156.9064,0.0047884034,1442850,1999,-179,-747,6160
85374252,4001,0,-1.858011,1.4413193,-9.050102,0.015509458,0.021329071,-0.043366678,52.0554,156.9064,0.0047884034,1442850,-2645,-744,-1854,6157
85479111,4028,0,-0.5443308,1.1779147,-9.2012005,-0.027095215,-0.0068853935,-0.006362249,52.02493,156.9064,0.0047884034,1442850,-433,694,-3164,6146
85579081,4006,0,-0.92325896,-0.5744412,-8.856053,0.030072434,0.0031201518,-0.04524887,52.09418,156.9064,0.0047884034,1442850,-2918,-164,-4089,6171
85679081,4007,0,1.640401,-0.60970277,-10.659133,0.010253802,-0.004184763,-0.0803014,52.0554,156.9064,0.0047884034,1442850,1972,336,-1348,6157
85783074,3999,0,-2.4407263,0.33431983,-9.081997,0.019177312,0.017068746,-0.03231242,52.063713,156.9064,0.0047884034,1442850,-3125,-505,-2288,6160
85883074,4000,0,1.0682435,1.2776703,-10.043601,0.025269127,-0.001504362,-0.050566718,52.085873,156.9064,0.0047884034,1442850,904,-53,-2014,6168
85983110,3993,0,0.9450634,1.0159526,-9.471277,-0.025343899,-0.0001976639,-0.046044387,52.088642,156.9064,0.0047884034,1442850,2253,-877,-1735,6169
86087074,3993,0,-1.2718983,-1.3761454,-9.367648,0.015579224,-0.0050173094,-0.023811683,52.080334,156.9064,0.0047884034,1442850,-1629,-1274,-1684,6166
86187900,4019,0,0.36329865,-0.80643934,-10.460305,0.023230016,0.0040204786,-0.033435524,52.102493,156.9064,0.0047884034,1442850,-143,754,-147,6174
86287874,3987,0,-0.042666517,0.09044171,-9.11905,0.01632093,0.011895096,-0.07909101,52.102493,156.9064,0.0047884034,1442850,1195,-1009,-5894,6174
86391857,4007,0,-0.9564108,1.5231649,-9.664245,-0.042253017,0.0051068137,-0.043352105,52.083103,156.9064,0.0047884034,1442850,628,149,-2574,6167
86491850,4000,0,-0.26150426,0.6741061,-8.269225,0.049805444,-0.009324347,-0.023412079,52.102493,156.9064,0.0047884034,1442850,-1829,-422,-3837,6174
86591892,4001,0,0.7482995,-0.058342677,-10.140852,0.025491407,-0.012797547,-0.055261366,52.080334,156.9064,0.0047884034,1442850,-115,1460,-1403,6166
86695850,3975,0,-1.928264,-0.55932236,-10.422496,-0.008393,0.015004292,-0.06188117,52.138504,156.9064,0.0047884034,1442850,-1705,-545,-1416,6187
86796681,3969,0,1.1916167,1.1121924,-8.987516,-0.012147583,0.010656985,-0.023740089,52.127422,156.9064,0.0047884034,1442850,2208,276,-474,6183
86896680,4005,0,-0.95280427,1.764647,-9.307027,0.0064040213,0.01713717,-0.05538686,52.108032,156.9064,0.0047884034,1442850,-2488,61,-827,6176
87000675,4001,0,-0.9046015,-0.104768194,-9.556108,-0.019402014,0.0018056666,-0.03116399,52.09418,156.9064,0.0047884034,1442850,-676,539,-1929,6171
87100674,3964,0,0.6241479,-0.465546,-10.905106,0.0119974725,-0.006515214,-0.054758146,52.121883,156.9064,0.0047884034,1442850,1365,258,68,6181
87200674,3985,0,-1.7288673,-1.5346488,-10.681336,-0.006818167,-0.0004458744,-0.027673,52.138504,156.9064,0.0047884034,1442850,-1757,-1410,1040,6187
87305497,4022,0,-0.55847573,2.3819625,-9.791324,0.03795636,0.003037508,-0.035077725,52.146812,156.9064,0.0047884034,1442850,-1481,1178,-1860,6190
87405474,3993,0,-1.0320071,2.2414782,-10.055687,0.029638503,0.00916423,-0.02615681,52.105263,156.9064,0.0047884034,1442850,-2503,1292,-1234,6175
87505475,3985,0,-1.2295203,0.9164118,-9.683417,0.008973213,0.0021887198,-0.06720564,52.141273,156.9064,0.0047884034,1442850,-2059,72,-3085,6188
87609481,4007,0,0.42341307,-1.453949,-10.60626,-0.0043762,0.001362049,-0.061326787,52.149586,156.9064,0.0047884034,1442850,1376,234,-1532,6191
87709457,4007,0,-0.56209505,-1.126728,-9.628325,-0.023223843,0.01597927,-0.037244756,52.163433,156.9064,0.0047884034,1442850,610,-2324,-575,6196
87813451,3975,0,0.6476089,1.253032,-8.870793,0.006093442,-0.00801728,-0.039689045,52.168976,156.9064,0.0047884034,1442850,1062,-814,-2137,6198
87917472,4022,0,-0.67050165,0.65358377,-9.58822,0.013920862,0.0014174836,-0.04823239,52.124653,156.9064,0.0047884034,1442850,-1528,-21,-2418,6182
88018303,4029,0,0.30679134,0.058922853,-10.724182,-0.012850329,-0.007608751,-0.007028061,52.146812,156.9064,0.0047884034,1442850,1618,279,229,6190
88118274,3991,0,-1.4595792,-0.36595365,-9.444699,-0.0049816933,0.018745791,-0.036602862,52.144043,156.9064,0.0047884034,1442850,-1428,-933,-2671,6189
88222274,3993,0,-0.37738284,1.1112218,-10.12529,-0.0036323701,0.012206988,-0.04013742,52.168976,156.9064,0.0047884034,1442850,-482,-1414,723,6198
88322291,3981,0,0.049348492,1.0803624,-9.176866,0.020490741,-0.012055509,-0.027761772,52.160664,156.9064,0.0047884034,1442850,-758,264,-1940,6195
88422327,4053,0,0.36105838,-0.78299916,-9.037503,-0.011473799,-0.0055985805,-0.053618878,52.188366,156.9064,0.0047884034,1442850,749,-1311,-3219,6205
88527075,3972,0,0.1817743,-0.9059297,-9.476865,-0.014121161,-0.011523247,-0.036314435,52.174515,156.9064,0.0047884034,1442850,1571,-1141,-1256,6200
88631095,4020,0,0.54836285,2.27271,-9.374322,0.021270989,-4.244945e-05,-0.012084741,52.163433,156.9064,0.0047884034,1442850,433,389,-840,6196
88731074,4000,0,0.7272103,1.3813548,-9.822803,-0.024553983,0.0051386,-0.06664519,52.155125,156.9064,0.0047884034,1442850,2313,-298,-2486,6193
88835074,3999,0,0.22728859,-0.14057024,-10.510434,0.019874305,-0.007020914,-0.06654397,52.149586,156.9064,0.0047884034,1442850,-474,562,-1350,6191
88935051,4001,0,0.7504145,-1.3659362,-9.305015,-0.013734464,-0.00018573727,-0.03336318,52.174515,156.9064,0.0047884034,1442850,2085,-396,-3485,6200
89035062,4011,0,0.086798854,-0.81251353,-9.909021,-0.021082342,0.013472222,-0.012387448,52.152355,156.9064,0.0047884034,1442850,2021,-1341,-2279,6192
89139050,3954,0,-0.2387266,1.5817815,-8.616714,0.013486268,0.0077746217,-0.051993266,52.171745,156.9064,0.0047884034,1442850,-1872,-724,-4424,6199
89239051,3994,0,-0.50062543,1.2781682,-8.515622,0.019934906,0.0006620036,-0.053891417,52.157894,156.9064,0.0047884034,1442850,-1752,267,-4589,6194
89339881,3993,0,0.31019083,-0.44460553,-10.270188,0.02988762,-0.005191866,-0.06191773,52.185596,156.9064,0.0047884034,1442850,-915,563,-1937,6204
89443915,4041,0,-0.24822958,-0.9801427,-9.867095,-0.026377039,0.010019338,-0.023356348,52.185596,156.9064,0.0047884034,1442850,1198,-1106,-1420,6204
89543874,3999,0,-0.6974144,0.5334311,-9.6435995,-0.03232589,0.020684063,-0.044630002,52.210526,156.9064,0.0047884034,1442850,1407,-1108,-2665,6213
89643894,3987,0,0.15401615,1.70473,-10.634276,-0.027882319,0.00943833,-0.03470821,52.213295,156.9064,0.0047884034,1442850,1611,-575,1182,6214
89747923,4049,0,-1.0144601,0.88660634,-9.508053,0.01980308,0.0035997704,-0.05672191,52.193905,156.9064,0.0047884034,1442850,-2196,664,-4249,6207
89847881,4007,0,-0.69651663,-0.8751045,-10.962273,-0.011379527,-0.011033653,-0.032465808,52.191135,156.9064,0.0047884034,1442850,-1210,361,241,6206
89948682,4008,0,-1.0191834,-0.5711972,-9.605609,-0.013349705,0.0095299315,-0.05333518,52.229916,156.9064,0.0047884034,1442850,-922,-272,-3458,6220
90052674,3964,0,-0.2901596,1.8919243,-9.804094,0.03025266,-0.0017901063,-0.020432804,52.188366,156.9064,0.0047884034,1442850,-1136,1591,-1781,6205
90152712,4026,0,-1.3081783,1.7098875,-9.533476,0.017130267,0.008845407,-0.028728914,52.210526,156.9064,0.0047884034,1442850,-2111,38,-252,6213
90252651,4000,0,-0.40282175,0.47547564,-8.719457,0.017908175,-0.010549825,-0.047256522,52.196674,156.9064,0.0047884034,1442850,-809,985,-4211,6208
90356650,3993,0,0.4000339,-1.0514688,-10.371799,-0.016223088,0.0046444964,-0.056816034,52.193905,156.9064,0.0047884034,1442850,972,-680,-1335,6207
90456650,3981,0,-1.2671595,-0.5281215,-9.641838,-0.023302888,0.008683922,-0.05615198,52.213295,156.9064,0.0047884034,1442850,336,-402,-2356,6214
90557474,4000,0,-0.9409935,1.3975444,-9.321661,0.020691486,0.008877343,-0.055365175,52.227146,156.9064,0.0047884034,1442850,-1839,667,-3391,6219
90661475,4000,0,0.008070629,0.44722575,-10.233824,-0.03176364,-0.012069105,-0.030345645,52.207756,156.9064,0.0047884034,1442850,1674,-633,-1557,6212
90761474,3975,0,-0.9767657,-0.13491921,-10.373144,-0.0043772026,-0.0022431472,-0.06143378,52.227146,156.9064,0.0047884034,1442850,-1158,733,-2174,6219
90861474,4000,0,0.2555666,-1.3554938,-9.5444,0.009457774,-0.001013251,-0.05542792,52.246536,156.9064,0.0047884034,1442850,-48,-663,-3077,6226
90965547,4066,0,-1.2358297,0.53883696,-9.359643,0.0069716778,0.023169827,-0.05256824,52.240997,156.9064,0.0047884034,1442850,-1408,-900,-2268,6224
91066281,4005,0,-0.076721445,1.5446544,-8.958049,0.004646319,-0.0076393215,-0.026310893,52.216064,156.9064,0.0047884034,1442850,346,630,-1903,6215
91166275,4001,0,0.5997257,0.87623245,-8.854992,-0.0106956735,-0.0030569783,-0.0022544968,52.221607,156.9064,0.0047884034,1442850,1050,-613,-2599,6217
91270274,4000,0,0.5415539,-0.9060052,-9.913446,-0.01686693,-0.00505087,-0.027401265,52.23546,156.9064,0.0047884034,1442850,1557,-1104,-22,6222
91370274,4000,0,0.0022463612,-1.1046536,-10.328907,-0.014598763,0.0074294587,-0.032396425,52.265926,156.9064,0.0047884034,1442850,874,-505,-2039,6233
91474250,3961,0,0.12720981,1.0363513,-9.9532585,-0.002363861,-0.009432214,-0.01732917,52.263157,156.9064,0.0047884034,1442850,1067,265,-520,6232
91578261,4011,0,-0.8223975,0.5551442,-8.903285,0.014006216,-0.005558285,-0.025931608,52.224377,156.9064,0.0047884034,1442850,-2035,-853,-950,6218
91678286,4036,0,-1.0646751,-0.5318287,-9.823747,0.017459976,-0.009392008,-0.035978206,52.268696,156.9064,0.0047884034,1442850,-2081,512,-2501,6234
91779130,4056,0,-0.49799204,-1.6836694,-9.652284,0.020084936,0.0022726431,-0.047858763,52.249306,156.9064,0.0047884034,1442850,-907,-1231,-3587,6227
91883113,4032,0,-0.32536766,0.1391093,-10.142818,-0.010037114,0.005368024,-0.025101298,52.268696,156.9064,0.0047884034,1442850,1261,-1527,509,6234
91983075,4000,0,-0.091199756,1.076058,-9.157411,-0.024694614,-0.009724479,-0.035364024,52.27147,156.9064,0.0047884034,1442850,1676,-685,-2210,6235
92083121,4047,0,1.469177,0.85470897,-8.8024845,-0.005932157,-0.0064838235,-0.034384824,52.27147,156.9064,0.0047884034,1442850,1736,-223,-2756,6235
92187081,4007,0,-0.32124808,-0.93492514,-10.510506,-0.01310655,-0.014597813,-0.03668913,52.2964,156.9064,0.0047884034,1442850,51,979,-980,6244
92287074,3964,0,-0.5313065,-0.61260056,-10.263877,-0.015095754,-0.007328679,-0.036920555,52.282547,156.9064,0.0047884034,1442850,-127,487,-2289,6239
92391074,3975,0,0.3093821,1.4123268,-8.688142,0.016315615,-0.0004517464,-0.029625721,52.282547,156.9064,0.0047884034,1442850,781,641,-4571,6239
92491874,3963,0,0.17215894,1.2154706,-8.923483,-0.002576351,-0.005716418,-0.025634404,52.30748,156.9064,0.0047884034,1442850,1032,599,-3307,6248
92591881,3999,0,0.57330745,0.013267731,-9.332303,-0.013620343,-0.0112291,-0.017145766,52.31302,156.9064,0.0047884034,1442850,1110,-473,-1647,6250
92695907,4027,0,-0.9268294,-1.2897875,-10.553621,0.0063768476,-0.00048470916,-0.023062112,52.318558,156.9064,0.0047884034,1442850,-688,-557,268,6252
92795876,4025,0,-0.028626472,-0.14277305,-10.523091,0.007307116,0.004810719,-0.03702854,52.30471,156.9064,0.0047884034,1442850,74,416,-116,6247
92895850,3986,0,-0.34322384,0.9850407,-8.944088,0.016000237,-0.010498038,-0.054190114,52.31302,156.9064,0.0047884034,1442850,-212,432,-3338,6250
92999851,4001,0,0.58857006,1.707326,-9.963207,0.0048628943,-0.010758335,-0.032479238,52.33518,156.9064,0.0047884034,1442850,1075,2286,-2547,6258
93099851,4001,0,0.23687662,0.022181477,-9.633464,0.0013814184,0.007567643,-0.02587758,52.32964,156.9064,0.0047884034,1442850,-804,-615,-1746,6256
93200683,4008,0,-0.4206747,-1.4131546,-8.982518,-0.006137047,0.0022516567,-0.035782814,52.3241,156.9064,0.0047884034,1442850,346,-1243,-3024,6254
93304681,3964,0,-0.14735003,0.469686,-9.83247,0.011755599,0.014055663,-0.06722606,52.301937,156.9064,0.0047884034,1442850,-827,-882,-1651,6246
93404686,4005,0,-1.8369415,1.1069704,-10.322133,0.017579434,0.018364567,-0.067542225,52.31302,156.9064,0.0047884034,1442850,-2415,-951,-2203,6250
