timestamp,integral_dt,error_count,x,y,z,x_integral,y_integral,z_integral,temperature,range_m_s2,scaling,device_id,x_raw,y_raw,z_raw,temperature_raw
32060500,4105,0,0.48430267,0.75637287,-9.675863,0.004503939,0.0019270966,-0.03990111,55.25,78.0,0.0023928226,1114658,243,713,-3678,11852
32162349,4186,0,0.22108625,0.48536912,-9.853044,0.0016944564,0.009464931,-0.04476942,55.375,78.0,0.0023928226,1114658,-246,678,-3215,12780
32263158,4208,0,0.17602284,0.39977828,-9.874808,-0.0058274916,0.0008386293,-0.0352427,55.25,78.0,0.0023928226,1114658,857,234,-3411,-15
32363949,5187,0,-0.14957592,0.49690798,-9.2741785,0.00073379354,0.016791161,-0.047673836,55.25,78.0,0.0023928226,1114658,-1189,1239,-3453,-15
32465952,5398,0,0.40945366,-2.2340412,-9.378389,-0.009434041,-0.01163594,-0.044432785,55.25,78.0,0.0023928226,1114658,680,-1263,-4086,11850
32566737,4337,0,0.9976613,-0.2559445,-9.398758,0.00066237425,-0.014586015,-0.03540169,55.25,78.0,0.0023928226,1114658,1498,-2038,-3072,11856
32668452,4093,0,0.123544894,-0.38346493,-9.729258,-0.009947106,-0.009541229,-0.04374897,55.25,78.0,0.0023928226,1114658,1005,-670,-3050,2048
32770299,4199,0,-0.2835489,-1.3175855,-10.135236,-0.008768827,-0.0025401372,-0.043843076,55.25,78.0,0.0023928226,1114658,117,1042,-2852,-15
32872153,4204,0,0.37225825,-0.097238146,-9.841528,-0.0046800068,0.012986695,-0.033337105,55.25,78.0,0.0023928226,1114658,-404,1804,-2540,-15
32974000,4055,0,1.3282092,1.783516,-9.802205,0.0054262313,0.0054406836,-0.046199746,55.25,78.0,0.0023928226,1114658,853,-840,-2830,11856
33077965,4188,0,-0.056528013,-0.38948002,-10.071259,0.0018991056,-0.00948012,-0.040483296,55.25,78.0,0.0023928226,1114658,1142,375,-3308,11858
33175610,4066,0,-0.36271474,-0.79742914,-9.976208,0.0003857984,-0.004847821,-0.039587557,55.375,78.0,0.0023928226,1114658,34,1117,-2033,11864
33277461,4174,0,1.0267493,0.62414837,-9.566871,0.009880195,0.0057687326,-0.03979719,55.25,78.0,0.0023928226,1114658,-523,662,-4037,8193
33381399,4199,0,-0.017662665,-0.09187757,-9.8149,-0.016578343,-0.0066991653,-0.04383959,55.25,78.0,0.0023928226,1114658,950,98,-3088,-15
33483261,4211,0,-0.48290417,-0.3353459,-9.670525,0.010625445,0.0081120515,-0.034115467,55.25,78.0,0.0023928226,1114658,-698,1723,-3785,2049
33585181,4282,0,1.4514859,1.2495921,-9.836453,0.0011854713,0.004189646,-0.041678432,55.25,78.0,0.0023928226,1114658,1300,55,-3040,11868
33683800,4191,0,0.3329939,0.7812976,-9.694871,-0.013825324,-0.011723587,-0.051647034,55.375,78.0,0.0023928226,1114658,1882,-133,-3772,8193
33785649,4199,0,-0.34071296,-1.4509254,-9.978501,0.0048151906,0.005837957,-0.033695992,55.375,78.0,0.0023928226,1114658,-1326,1589,-2548,-15
33887518,5268,0,1.4505168,1.4607645,-9.59742,0.009556829,0.011859401,-0.054244537,55.25,78.0,0.0023928226,1114658,275,78,-3057,11873
33989350,4197,0,-0.20313522,-0.21282856,-9.99551,0.008220397,-0.006552266,-0.03586838,55.25,78.0,0.0023928226,1114658,986,1267,-3222,8193
34089178,4279,0,-0.7470401,-0.14221238,-9.53703,0.009474016,0.009047409,-0.03978496,55.375,78.0,0.0023928226,1114658,-26,2766,-3824,11851
34195159,4208,0,0.92500794,0.22692774,-9.875074,-0.007044112,-0.007004024,-0.04246043,55.375,78.0,0.0023928226,1114658,1523,-161,-3359,11862
34292842,4242,0,-0.78443396,-1.0432602,-9.697716,-0.0011032401,-0.0045973114,-0.04211283,55.375,78.0,0.0023928226,1114658,523,-756,-3332,8192
34394737,4281,0,1.234608,0.8191872,-9.636978,0.019786607,0.015971627,-0.04086571,55.375,78.0,0.0023928226,1114658,-789,2008,-3690,11861
34499650,4129,0,-0.4962819,0.039458822,-9.899821,-0.005353958,-0.012223211,-0.03980786,55.25,78.0,0.0023928226,1114658,1416,475,-3776,-15
34597300,4161,0,-0.22622378,-1.3698139,-9.85103,0.009238901,-0.0009769769,-0.03927409,55.375,78.0,0.0023928226,1114658,-596,799,-4007,8192
34699159,4209,0,1.4283671,1.2035381,-9.789087,-0.0026216458,0.0068308692,-0.037414167,55.375,78.0,0.0023928226,1114658,185,-767,-2082,-15
34801145,4309,0,0.5106218,-0.42527497,-9.727016,-0.0016067133,-0.00561767,-0.04154203,55.25,78.0,0.0023928226,1114658,969,-788,-4387,11865
34901966,4366,0,-0.46576065,-0.12181412,-9.735565,0.0077854553,0.01304968,-0.0473415,55.25,78.0,0.0023928226,1114658,-296,861,-2427,11874
35003650,4160,0,1.8855816,1.4725621,-9.702504,0.0049297013,-0.0009511982,-0.041492548,55.375,78.0,0.0023928226,1114658,839,485,-4220,-15
35105506,4206,0,-0.4061516,-0.9196479,-9.916826,-0.004029341,-0.008088069,-0.043652993,55.25,78.0,0.0023928226,1114658,889,-544,-2736,2048
35207349,4190,0,0.6738139,0.18313614,-9.505678,0.024755245,0.016743774,-0.040688053,55.25,78.0,0.0023928226,1114658,-1195,2799,-3995,-15
35309200,4063,0,0.6125796,1.3812042,-9.702469,-0.010694295,-0.008836041,-0.046361282,55.375,78.0,0.0023928226,1114658,1650,-578,-3304,11870
35411101,4236,0,-0.3442073,-1.1270988,-9.742136,0.0072127013,0.0040160385,-0.039346796,55.25,78.0,0.0023928226,1114658,-601,1566,-3616,-15
35510800,4087,0,0.58078843,0.87859637,-9.74803,0.014194554,0.009558145,-0.042553984,55.375,78.0,0.0023928226,1114658,213,2094,-3634,12823
35611609,4065,0,0.94169736,0.46459198,-9.948239,0.0016839362,-0.011396489,-0.04091453,55.25,78.0,0.0023928226,1114658,703,610,-2703,11870
35713457,4200,0,-0.8702441,-0.6362905,-9.688793,-0.010409259,0.008910321,-0.03763392,55.375,78.0,0.0023928226,1114658,-325,1051,-3674,11876
35818450,5250,0,1.7147868,1.3343613,-9.816731,-0.017351864,-0.0010941697,-0.057085447,55.375,78.0,0.0023928226,1114658,1155,-1468,-4376,8193
35917191,4242,0,-0.6116884,-0.75913393,-9.960694,0.0027271998,-0.0067966543,-0.048165705,55.25,78.0,0.0023928226,1114658,1103,1211,-3118,11876
36018999,4199,0,1.6805702,1.7283834,-9.716882,-0.0021809943,-0.013645057,-0.044616587,55.375,78.0,0.0023928226,1114658,2771,-3,-2461,-15
36119800,4200,0,1.9698343,2.0270507,-9.532195,0.0069782427,0.008642997,-0.03842423,55.375,78.0,0.0023928226,1114658,1781,-5,-3914,11871
36224800,4200,0,0.5218164,0.9001988,-9.698505,-0.022778803,-0.016561767,-0.043934833,55.5,78.0,0.0023928226,1114658,2609,-1418,-4454,-15
36322449,5228,0,1.6749086,2.1448886,-9.641981,-0.01738228,-0.0177763,-0.054472342,55.375,78.0,0.0023928226,1114658,2730,-1206,-3440,-15
36426402,4203,0,-1.5495952,-2.0728335,-9.72609,0.0073161833,-0.009319069,-0.03374884,55.375,78.0,0.0023928226,1114658,-1060,2157,-3692,12840
36527237,6338,0,-0.68960077,-1.8950646,-9.561036,0.03430208,0.037703637,-0.05358036,55.25,78.0,0.0023928226,1114658,-3379,3095,-3258,0
36628038,5250,0,2.0643568,2.3687866,-9.4342165,-0.0020470845,0.009162753,-0.056122016,55.25,78.0,0.0023928226,1114658,2198,-716,-4424,11861
36731950,4191,0,-1.0007458,-1.9958863,-9.71801,-0.013304474,-0.009710407,-0.03490931,55.25,78.0,0.0023928226,1114658,-768,508,-3826,8193
36832750,4200,0,0.004301017,0.3474244,-9.719074,0.016743533,0.027696189,-0.037685115,55.375,78.0,0.0023928226,1114658,-2345,1957,-3792,11870
36934744,4344,0,1.6861688,0.9217524,-9.532935,0.0024938518,-0.013293285,-0.05026467,55.375,78.0,0.0023928226,1114658,2798,-54,-3384,11876
37035559,5401,0,-0.6911162,-0.3138279,-9.693645,0.011242402,0.016298939,-0.051619925,55.375,78.0,0.0023928226,1114658,-966,2772,-3347,11892
37138311,4211,0,-1.1984917,0.05489872,-9.815505,0.0008572764,-0.00048155876,-0.043182787,55.375,78.0,0.0023928226,1114658,582,2593,-2020,2049
37242273,4223,0,-1.2283182,0.22257641,-9.660607,0.006852898,-0.021274364,-0.027197702,55.5,78.0,0.0023928226,1114658,1916,3172,-3570,-16
37344100,4200,0,-1.7554828,0.5927128,-9.635185,0.0046664807,-0.035347324,-0.04196162,55.375,78.0,0.0023928226,1114658,2743,3481,-3324,8193
37441768,4210,0,-1.0412499,1.5267575,-9.629137,-0.022956368,-0.010406285,-0.038131278,55.375,78.0,0.0023928226,1114658,3265,1145,-2680,2049
37543618,4057,0,-0.94842833,-0.3059352,-10.403356,-0.006521606,-0.015562993,-0.046561956,55.375,78.0,0.0023928226,1114658,1744,2463,-3038,11892
37647597,5298,0,-0.9892866,-0.35048425,-10.075615,0.018826861,-0.01696682,-0.045440365,55.375,78.0,0.0023928226,1114658,527,4126,-2460,-15
37749401,5233,0,0.7198653,-0.9741096,-9.45638,0.051160097,-0.0061114994,-0.053525608,55.375,78.0,0.0023928226,1114658,234,2859,-5323,2049
37853353,4184,0,1.1533638,0.916434,-10.285875,-0.037547376,0.014865439,-0.040516168,55.375,78.0,0.0023928226,1114658,141,-2729,-920,11882
37955199,4200,0,-2.1522624,0.42494255,-9.041784,0.013417595,-0.023495952,-0.04144033,55.375,78.0,0.0023928226,1114658,2721,5042,-3629,8192
38057146,4296,0,2.7650948,0.3117418,-10.454171,-0.0036770266,0.022734264,-0.044677697,55.375,78.0,0.0023928226,1114658,-748,-3268,-1279,11872
38158899,4150,0,-2.3183157,0.0020252354,-9.28517,0.01901697,-0.008328234,-0.04740258,55.375,78.0,0.0023928226,1114658,-48,6190,-6589,8192
38260799,4249,0,-0.13980196,0.6521414,-9.505763,-0.0382649,-0.0016044974,-0.04075648,55.25,78.0,0.0023928226,1114658,2196,-744,-3576,2049
38360500,5251,0,0.7608531,-0.051050615,-10.129575,0.051331587,0.004116163,-0.052114706,55.375,78.0,0.0023928226,1114658,-89,3569,-2965,12872
38462349,5161,0,-1.2608228,0.20419307,-9.714921,0.039770998,0.005950707,-0.041884623,55.375,78.0,0.0023928226,1114658,-298,5879,-1666,-15
38564334,5384,0,-2.537981,0.6745168,-9.686547,0.030008167,-0.0037793005,-0.04922258,55.5,78.0,0.0023928226,1114658,1291,7672,-2098,12865
38665214,4415,0,0.8608226,-0.4372394,-9.783647,0.06476387,0.0024264376,-0.037782308,55.375,78.0,0.0023928226,1114658,607,6021,-1924,11880
38765913,4313,0,1.5739615,1.1094652,-9.373795,-0.0602446,-0.007297732,-0.020695936,55.375,78.0,0.0023928226,1114658,2102,-5227,-2934,11878
38867650,4137,0,2.6009557,-0.24538383,-9.352753,0.03831305,0.008671965,-0.05763507,55.375,78.0,0.0023928226,1114658,-354,-4018,-5427,12876
38971630,5280,0,0.96809065,0.29391643,-9.259044,0.0894524,-0.0030466295,-0.036912248,55.375,78.0,0.0023928226,1114658,1595,7748,-2555,8193
39071349,4191,0,-2.7002873,0.19472365,-8.127546,-0.061491292,-0.011832974,-0.025089474,55.375,78.0,0.0023928226,1114658,2326,1103,-3210,2049
39173207,4042,0,2.7139003,0.72365505,-10.729325,0.026869472,0.024460351,-0.07077356,55.5,78.0,0.0023928226,1114658,-820,-4368,-3890,11891
39274006,4063,0,-2.444014,0.22533146,-9.085411,-0.015911236,-0.01204278,-0.0029733023,55.375,78.0,0.0023928226,1114658,1055,6349,-4258,11895
39376899,4199,0,-1.4684967,0.42065552,-10.46568,-0.05405461,-0.00014269628,-0.024278067,55.25,78.0,0.0023928226,1114658,406,2359,185,0
39478804,4248,0,-0.47051758,-0.0717696,-9.350173,-0.059581656,0.0053848014,-0.055277437,55.375,78.0,0.0023928226,1114658,-1391,-2087,-4114,11901
39580600,4200,0,-0.58063656,-0.4548543,-8.752076,-0.055415746,-0.008899735,-0.022643719,55.5,78.0,0.0023928226,1114658,829,-592,-4749,8193
39678250,5091,0,2.0712159,1.2586856,-10.602126,-0.013530829,-0.008617808,-0.026426334,55.25,78.0,0.0023928226,1114658,2532,-5939,-1357,11890
39781200,4251,0,0.5319773,-0.028870827,-9.050739,-0.06638393,0.00070127036,-0.0062939823,55.375,78.0,0.0023928226,1114658,171,-3960,-3746,-15
39886159,4155,0,-0.36790103,0.3890738,-10.043986,0.045793045,0.0074780746,-0.06451947,55.375,78.0,0.0023928226,1114658,408,5890,-2328,11891
39984849,4182,0,-0.9929626,-0.29337555,-10.080984,0.034904268,0.014427655,-0.060766317,55.375,78.0,0.0023928226,1114658,-606,6906,-3314,8192
40084600,4200,0,2.1275287,0.41141802,-8.975828,0.04151966,-0.0022219166,-0.029408637,55.375,78.0,0.0023928226,1114658,1946,-693,-4882,16989
40188593,4243,0,-0.9348885,0.5816403,-9.401105,-0.03782595,-0.0058544967,-0.022778003,55.375,78.0,0.0023928226,1114658,882,1494,-2723,2049
40290400,4200,0,0.78394276,0.07276438,-10.102627,0.053581096,-0.0002477315,-0.040305,55.375,78.0,0.0023928226,1114658,1596,3652,-848,11895
40390165,4165,0,2.11196,0.7570191,-10.301449,0.019392509,0.0067694546,-0.062882096,55.375,78.0,0.0023928226,1114658,1460,-4253,-3678,11888
40491999,4200,0,-1.3058224,0.17986147,-9.830846,-0.025058726,0.00392941,-0.05928012,55.25,78.0,0.0023928226,1114658,-694,4480,-2458,11883
40593914,4264,0,1.2788965,0.42290297,-10.4130335,0.035425078,0.004997321,-0.07629686,55.25,78.0,0.0023928226,1114658,286,342,-2932,12909
40695725,4181,0,0.23164323,-0.102153495,-9.919762,-0.04428093,0.0029514497,-0.05071923,55.375,78.0,0.0023928226,1114658,-213,-1762,-4006,2049
40796500,4122,0,0.3174142,1.0104012,-11.499183,0.03594666,0.008062683,-0.04878465,55.375,78.0,0.0023928226,1114658,766,1356,542,11904
40899554,4355,0,-0.9391057,-0.09719742,-9.579532,0.00014165656,0.003373604,-0.038874734,55.375,78.0,0.0023928226,1114658,-531,5058,-5788,11894
41001250,4084,0,0.72157365,-0.2515687,-10.18528,-0.030083437,-0.004226531,-0.039880656,55.5,78.0,0.0023928226,1114658,648,-3074,-6174,11902
41102050,4143,0,-0.6224501,-2.0826812,-10.175026,0.03574399,0.0027718956,-0.051964745,55.375,78.0,0.0023928226,1114658,-1503,3207,-5852,8192
41203900,4192,0,-1.4822131,-0.13870531,-9.63257,-0.008205427,0.014754804,-0.072071426,55.5,78.0,0.0023928226,1114658,-1505,5080,-5961,11895
41305749,4199,0,0.12670001,1.2460349,-10.008416,-0.017513627,0.0047026295,-0.03580695,55.375,78.0,0.0023928226,1114658,-284,1060,-555,8192
41407600,4061,0,-0.692421,0.08526853,-8.477023,-0.008863463,-0.007146348,-0.026906407,55.25,78.0,0.0023928226,1114658,963,2038,-10551,11894
41505250,4137,0,-0.01466912,0.48929265,-9.565988,-0.01855768,-0.0062688235,-0.05460997,55.375,78.0,0.0023928226,1114658,179,1094,-2530,12925
41609225,5263,0,-0.28375977,-0.40610257,-8.887825,-0.0060244543,-0.002107016,-0.08231298,55.375,78.0,0.0023928226,1114658,379,1991,-8270,2049
41711050,5114,0,-0.19989686,-0.53147984,-10.720103,0.030541167,0.006137222,-0.06488399,55.375,78.0,0.0023928226,1114658,-140,3125,-570,-16
41810818,4036,0,0.053896885,1.227769,-8.580593,0.014393694,0.008149547,-0.02962476,55.375,78.0,0.0023928226,1114658,908,2364,-2774,11901
41915801,4201,0,1.4532999,1.3186746,-10.262942,0.00041699244,0.01221148,-0.049898203,55.375,78.0,0.0023928226,1114658,-220,-3136,-908,11912
42013458,4209,0,1.290011,1.4447786,-10.763541,0.0030409093,-0.0057786745,-0.021323586,55.625,78.0,0.0023928226,1114658,1742,-1758,1731,-16
42113200,4073,0,1.3889046,-0.1553289,-9.387761,-0.0055042477,-0.0125318635,-0.021690909,55.5,78.0,0.0023928226,1114658,2085,-2960,-3237,8192
42215049,4196,0,1.602897,-1.3785979,-10.733245,0.008160607,-0.00662612,-0.01951824,55.375,78.0,0.0023928226,1114658,683,-2199,439,0
42321142,4241,0,0.38270307,1.0479076,-10.183338,0.012802437,0.012699225,-0.05824677,55.375,78.0,0.0023928226,1114658,285,3451,-768,8193
42419800,4200,0,0.3754435,0.28655675,-8.436779,-0.039366625,0.011712625,-0.043790992,55.375,78.0,0.0023928226,1114658,-1257,-150,-6034,11898
42526906,4147,0,-0.041840468,0.5072372,-9.663075,0.027178742,0.0036592286,-0.07451062,55.375,78.0,0.0023928226,1114658,601,4664,-6160,0
42626759,4290,0,0.5236178,-0.5094431,-8.859433,0.018840156,-0.0075996444,-0.056118086,55.375,78.0,0.0023928226,1114658,451,2416,-6575,11898
42726399,4200,0,0.41191795,-0.7055036,-10.77609,0.0047668414,-0.0028333543,-0.090345025,55.5,78.0,0.0023928226,1114658,333,565,-4252,11901
42830349,4190,0,-0.49927253,0.35567865,-8.942049,0.0023385934,0.008884582,-0.053243846,55.375,78.0,0.0023928226,1114658,-230,1711,-9630,11891
42932313,4313,0,-0.4424489,1.6309645,-9.686748,-0.008692819,0.0015574088,-0.018514762,55.375,78.0,0.0023928226,1114658,-96,1723,-2608,12943
43034050,4106,0,0.5419899,1.0382272,-12.371315,0.007023723,-0.000974588,-0.08617696,55.375,78.0,0.0023928226,1114658,466,621,133,11905
43134850,4115,0,0.61274105,-0.19653733,-9.801039,-0.02211519,-0.0077807247,-0.012637601,55.5,78.0,0.0023928226,1114658,35,-1244,-4009,11910
43236709,4209,0,0.087147005,-1.6802332,-11.075988,0.0056783454,-0.0064505287,-0.05555862,55.5,78.0,0.0023928226,1114658,481,2304,-1000,2049
43338549,4200,0,0.08219419,-1.582132,-10.690441,0.005252014,0.008944795,-0.056781203,55.5,78.0,0.0023928226,1114658,-1560,-166,-3861,2049
43440449,4077,0,0.6214146,-0.2632591,-9.510185,-0.0017730084,0.0074093486,0.008045792,55.5,78.0,0.0023928226,1114658,-408,-646,-3027,2049
43542250,4200,0,-0.22260801,1.2554305,-9.303235,-0.0042478726,0.009229991,-0.05774203,55.5,78.0,0.0023928226,1114658,-538,2008,-3929,8192
43648314,5264,0,1.4108037,0.36422405,-8.41199,0.02916856,-0.00952634,-0.071184546,55.5,78.0,0.0023928226,1114658,633,-1026,-5045,11907
43745960,4211,0,1.6514776,-0.32717416,-8.159514,0.052054934,0.01082036,-0.07318552,55.5,78.0,0.0023928226,1114658,-269,-441,-4012,11905
43847800,4190,0,2.2032547,0.31402853,-9.331369,-0.0060917805,0.004601419,-0.012919645,55.375,78.0,0.0023928226,1114658,2055,-6075,-944,12951
43948600,4200,0,-0.5151582,0.3358263,-7.732767,-0.034582682,-0.0061792186,-0.024042256,55.625,78.0,0.0023928226,1114658,922,1127,-4906,2049
44051513,4214,0,0.99790287,1.4898443,-9.193359,-0.0113984775,0.0016107721,0.00785715,55.625,78.0,0.0023928226,1114658,1196,-3139,-1622,11902
44152359,4260,0,0.62090975,1.5775914,-9.996829,0.023572074,-0.010556941,-0.031929374,55.375,78.0,0.0023928226,1114658,1182,-330,-1609,11897
44256359,4270,0,1.1005569,-0.57744384,-9.82619,-0.014266698,0.00028477906,-0.04745231,55.625,78.0,0.0023928226,1114658,1246,-1234,-7026,11910
44360359,4360,0,0.7026095,-2.0288355,-11.138577,0.013139233,-0.010143436,-0.051078178,55.375,78.0,0.0023928226,1114658,574,-638,-6830,11900
44461145,4308,0,-0.00971216,-0.9699163,-11.782625,-0.006356399,0.005884914,-0.033955693,55.375,78.0,0.0023928226,1114658,-826,-158,1438,11902
44564950,5251,0,0.5869774,0.7412611,-11.933244,0.0014820034,0.01235329,-0.094681166,55.375,78.0,0.0023928226,1114658,635,-678,-4189,16989
44663650,4113,0,0.18743649,1.4181271,-10.919881,0.0033131656,0.002585082,-0.0052954718,55.5,78.0,0.0023928226,1114658,-815,-1947,-234,11892
44765500,4200,0,0.062901445,2.276537,-10.097589,0.008831628,0.010834543,-0.08642781,55.5,78.0,0.0023928226,1114658,1529,2346,-5672,8192
44867349,4191,0,0.32904842,1.1255946,-10.715657,-0.013244565,-0.0075658783,-0.0064745764,55.25,78.0,0.0023928226,1114658,687,-236,-901,-16
44969237,4093,0,1.1622448,-0.22810607,-12.424844,0.020219875,-0.014122259,-0.075271055,55.375,78.0,0.0023928226,1114658,1434,608,205,-16
45071049,4197,0,-0.04295898,-1.0732534,-10.71271,-0.0046013347,0.0016751396,-0.070531234,55.5,78.0,0.0023928226,1114658,1033,2378,-7926,2048
45171849,4199,0,0.5084352,-1.4549807,-11.442602,-0.007173198,-0.0013996555,-0.01522064,55.5,78.0,0.0023928226,1114658,-108,-949,1860,11901
45274764,4211,0,0.05725086,0.63569194,-8.660484,-0.0147853065,0.019104254,-0.03987277,55.5,78.0,0.0023928226,1114658,-1691,1651,-5179,11890
45374499,5249,0,-0.16915393,1.3141819,-7.220997,0.010814521,0.012923407,-0.01983895,55.5,78.0,0.0023928226,1114658,-248,3653,-4293,16990
45476366,5252,0,-0.41259903,1.6984301,-8.833614,0.0025297427,-0.003906176,-0.044410616,55.375,78.0,0.0023928226,1114658,1275,3292,-3070,11901
45579249,4200,0,-0.06864984,0.6535285,-10.09282,0.047256015,-0.014414916,-0.03736942,55.5,78.0,0.0023928226,1114658,2472,4066,-916,8193
45681150,4250,0,1.3925239,-0.7363907,-10.95391,0.020679593,-0.004027173,-0.08086937,55.625,78.0,0.0023928226,1114658,1152,559,89,8193
45782953,4168,0,0.58367693,-1.1259773,-9.412039,0.0015225578,0.009111597,-0.025576983,55.375,78.0,0.0023928226,1114658,-1286,-509,-3137,2049
45884808,4208,0,0.64198774,0.36610878,-9.147611,-0.014666029,0.0005170525,0.00019747252,55.375,78.0,0.0023928226,1114658,1652,-3125,-2039,16989
45988761,4190,0,-0.09238796,1.5148896,-8.409109,0.0061302036,0.001967613,-0.025154173,55.5,78.0,0.0023928226,1114658,-201,3691,-4363,2048
46087579,5379,0,0.41024768,1.936629,-9.536864,-0.005583716,0.008284045,-0.049562573,55.5,78.0,0.0023928226,1114658,995,1123,-4085,-15
46188403,4354,0,-0.32722068,0.76148885,-10.00678,0.00040294873,-0.00517669,-0.06895597,55.625,78.0,0.0023928226,1114658,1633,4049,-3954,-15
46291159,5208,0,1.1731476,-1.1280626,-9.922549,0.021607533,-0.0012067684,-0.077832855,55.5,78.0,0.0023928226,1114658,-790,-1144,-4063,11873
46394080,6282,0,0.55221695,-0.9997557,-9.157506,-0.016023347,0.013892832,-0.05102583,55.375,78.0,0.0023928226,1114658,-1646,327,-7102,11886
46495899,4199,0,0.14906,0.943348,-8.249287,0.0048203035,0.0121500585,-0.07110135,55.5,78.0,0.0023928226,1114658,-51,1144,-7489,-16
46597758,4208,0,0.19878085,1.7530185,-9.121297,0.01165476,0.0028826592,-0.065420754,55.5,78.0,0.0023928226,1114658,663,718,-6106,8192
46701699,4200,0,-0.11197414,0.18644372,-10.385812,-0.025729738,0.000504611,-0.04924591,55.375,78.0,0.0023928226,1114658,473,727,-615,-16
46801457,4196,0,0.16214685,-0.6151229,-9.748067,-0.011430098,-0.0046122023,-0.05794645,55.5,78.0,0.0023928226,1114658,585,1594,-4519,11905
46907545,4232,0,0.66531813,-1.1420557,-9.749103,0.02287723,0.004774409,-0.013369062,55.5,78.0,0.0023928226,1114658,-749,202,-326,11898
47009349,4158,0,0.5843217,0.14722641,-9.211821,0.0011681627,0.0074247355,-0.03408548,55.375,78.0,0.0023928226,1114658,-645,-1976,-4432,8192
47111200,4178,0,1.7336648,2.1163988,-9.882218,0.0024319924,0.0083009135,-0.04615172,55.5,78.0,0.0023928226,1114658,1811,-3230,-2103,8192
47213151,4302,0,0.9495641,1.9892901,-9.970485,0.023224207,-0.0047399513,-0.02188809,55.375,78.0,0.0023928226,1114658,2520,-1396,1093,11875
47314900,4163,0,0.79802734,0.27934185,-9.257312,0.026456917,-0.009494377,-0.035359908,55.5,78.0,0.0023928226,1114658,2046,2863,-3927,11887
47413600,6279,0,0.88804615,0.08573481,-10.931661,-0.027238753,-0.009346777,-0.047295026,55.5,78.0,0.0023928226,1114658,2456,-1016,-511,8193
47518713,4313,0,-0.6918256,-1.342788,-8.72161,-0.020564476,-0.0052956836,-0.04575003,55.375,78.0,0.0023928226,1114658,-83,2958,-7696,11902
47616349,5307,0,0.76116866,-1.4479649,-9.78101,-0.009073675,0.006248186,-0.022912422,55.5,78.0,0.0023928226,1114658,-1403,-2705,-1630,11887
48643168,4218,0,1.534181,0.4460415,-11.272694,-0.0038393561,-0.007890765,-0.049218442,55.625,78.0,0.0023928226,1114658,2287,-3355,1196,-16
48745137,4290,0,-0.29539987,-1.332579,-9.85276,0.034575757,-0.0013214782,-0.046754096,55.5,78.0,0.0023928226,1114658,-52,3460,-4690,11895
48846862,4149,0,-0.059603713,-0.78590053,-9.550398,-0.04312477,-0.0038772046,-0.055963248,55.5,78.0,0.0023928226,1114658,314,-1060,-5464,0
48948737,4238,0,0.9852092,0.16518304,-9.151385,0.040157765,0.0070556942,-0.005736688,55.5,78.0,0.0023928226,1114658,-1300,-611,-1573,8192
49051617,4072,0,-1.3979577,2.2422209,-10.678186,0.021081302,0.013016747,-0.050358217,55.5,78.0,0.0023928226,1114658,282,5296,-2491,11911
49152401,4064,0,1.5052234,1.6729387,-9.007797,0.007118539,-0.00124838,-0.022447385,55.5,78.0,0.0023928226,1114658,-704,-3925,-4843,11879
49254249,4199,0,0.11709242,1.479143,-9.983773,0.0353555,-0.0051166764,-0.053122558,55.5,78.0,0.0023928226,1114658,2430,4903,-5141,-16
49355049,4200,0,2.0138571,0.30362207,-9.02838,-0.021367615,-0.011116176,-0.0199831,55.5,78.0,0.0023928226,1114658,2008,-4459,-6307,-16
49453767,4212,0,-0.30300266,-0.8878176,-10.399166,0.019010797,-0.009555163,-0.06983216,55.5,78.0,0.0023928226,1114658,452,4649,-4437,2049
49555600,4065,0,1.1360465,-1.3685603,-9.448116,-0.031501047,-0.007811116,-0.035354186,55.5,78.0,0.0023928226,1114658,1448,-4242,-6909,11897
49660600,4200,0,1.1723243,-0.35877898,-9.407387,-0.003724567,0.0077647185,-0.050027482,55.5,78.0,0.0023928226,1114658,-1164,-3444,-6108,8193
49761419,4219,0,-0.9118636,1.0040947,-9.186419,0.023532689,0.015325847,-0.025184274,55.625,78.0,0.0023928226,1114658,-1359,4909,-2947,8192
49863249,4193,0,0.31767213,2.0983205,-9.608472,-0.026478624,0.00719888,-0.027523013,55.5,78.0,0.0023928226,1114658,1069,-1504,-777,8192
49965146,5252,0,0.33229825,2.6176538,-8.730529,0.023556026,-0.0072424244,-0.055665713,55.5,78.0,0.0023928226,1114658,2615,-32,-6841,11897
50062794,4203,0,0.42004985,1.6397136,-9.386632,-0.028401311,0.0060432404,-0.045743536,55.625,78.0,0.0023928226,1114658,68,-2361,-4453,11913
50168800,4195,0,0.32213545,-0.4088703,-9.278477,-0.036123246,-0.016027035,-0.06110607,55.625,78.0,0.0023928226,1114658,1922,-1848,-8459,11897
50265448,4240,0,-0.6542113,-0.8096786,-9.902559,0.03331838,-0.00039240278,-0.07519412,55.375,78.0,0.0023928226,1114658,-369,4138,-5542,2049
50370399,4179,0,1.5393893,-0.8162372,-9.680474,0.019883875,0.00078560633,-0.009934813,55.625,78.0,0.0023928226,1114658,707,-1067,-993,8192
50472313,4263,0,0.058159344,-0.14524032,-10.118188,0.017552692,0.0051596444,-0.059956063,55.5,78.0,0.0023928226,1114658,-169,855,-3867,11899
50574108,4149,0,0.51233673,1.7523534,-11.480127,0.027942931,0.0062822904,-0.03982294,55.5,78.0,0.0023928226,1114658,501,1010,1502,8193
50674922,4144,0,0.11612173,2.0218751,-9.02321,0.0148990275,0.0069479216,-0.03453472,55.5,78.0,0.0023928226,1114658,-82,1935,-5788,11906
50777937,4331,0,0.698111,1.1509957,-9.680523,0.018181412,-0.0004858936,-0.073161036,55.625,78.0,0.0023928226,1114658,586,1146,-7490,11916
50879650,4091,0,1.2588254,-0.0114045115,-11.377833,0.029317765,0.0014654878,-0.06089524,55.625,78.0,0.0023928226,1114658,1681,2362,1060,2048
50984650,4199,0,0.8363478,-1.36455,-9.670297,-0.033700854,-0.0045925057,-0.019305723,55.625,78.0,0.0023928226,1114658,-286,-2388,-1584,16990
51086499,4199,0,0.66170883,-0.45322135,-8.780018,-0.018188842,0.010975223,-0.015570047,55.5,78.0,0.0023928226,1114658,-1298,-2112,-5095,8193
51188352,4193,0,0.3279705,0.89273924,-8.531466,-0.03242107,0.011640968,-0.037248395,55.625,78.0,0.0023928226,1114658,-971,-1978,-5833,-16
51290219,6319,0,0.60351676,1.4542738,-8.33553,-0.01376695,0.0100197345,-0.060359105,55.625,78.0,0.0023928226,1114658,-830,-349,-8284,8192
51396314,4243,0,1.1312413,-0.714157,-9.653576,0.039067,-0.010740301,-0.029249849,55.625,78.0,0.0023928226,1114658,1251,1238,-3923,13099
51496000,4200,0,0.28297225,-1.0081893,-9.459037,0.017601142,-0.012324169,-0.04248641,55.5,78.0,0.0023928226,1114658,1148,2486,-4254,11914
51597939,4281,0,0.010994347,-1.136187,-9.625691,0.02860398,0.011032961,-0.07031671,55.5,78.0,0.0023928226,1114658,-720,2617,-4894,11904
51699705,4170,0,-0.32726845,0.2172637,-10.268702,0.010425784,0.008948912,-0.0417415,55.5,78.0,0.0023928226,1114658,717,737,2008,-16
51801550,4200,0,0.6060056,1.7885523,-8.495988,0.01106178,0.0025463381,-0.006456496,55.625,78.0,0.0023928226,1114658,1443,-2435,-5050,11909
51903544,4345,0,0.39733595,2.2298126,-9.647984,-0.02397982,-0.0026001136,-0.05405672,55.5,78.0,0.0023928226,1114658,1605,-1030,-3867,11905
52005256,4097,0,-0.38059446,1.0848209,-10.102721,-0.026084974,-0.012727559,-0.032961845,55.625,78.0,0.0023928226,1114658,1062,2048,-2007,11898
52105159,5409,0,-0.119948916,0.12963887,-9.551,-0.0010937973,-0.011149566,-0.03274231,55.375,78.0,0.0023928226,1114658,635,1991,-4196,11908
52204749,4199,0,0.2797073,-1.1594064,-10.170109,-0.0016817079,-0.008547965,-0.045553148,55.625,78.0,0.0023928226,1114658,535,1478,-3556,16990
52306737,4337,0,0.36674702,-0.9537817,-9.106109,0.0069712675,0.0033452583,0.0019243167,55.5,78.0,0.0023928226,1114658,-509,410,-3003,11915
52408468,4125,0,0.28909025,0.2672519,-9.986686,-0.003115547,0.004184865,-0.05635986,55.5,78.0,0.0023928226,1114658,-1003,1487,-6329,8192
52513450,4194,0,0.19752392,1.7377896,-8.24025,-0.018422412,0.003527001,-0.055284884,55.5,78.0,0.0023928226,1114658,331,-661,-9314,11909
52611108,4208,0,0.32978627,2.4341075,-9.533603,0.0005591528,0.0042721545,-0.030476378,55.5,78.0,0.0023928226,1114658,913,1909,-3095,-16
52712949,4200,0,0.1510636,1.4446294,-10.914465,-0.004573364,-0.011734903,-0.020788299,55.5,78.0,0.0023928226,1114658,2924,291,380,8193
52812733,4233,0,-0.6194542,0.26617333,-9.417893,0.022347517,0.0071259867,-0.07542002,55.5,78.0,0.0023928226,1114658,-202,4269,-8729,-16
52916649,4199,0,0.5811285,-1.0627601,-9.423292,-0.010339794,-0.0053088926,-0.08493373,55.625,78.0,0.0023928226,1114658,27,1234,-8407,-16
53017450,4200,0,0.9200705,-0.5479744,-10.097388,-0.011574665,-0.0052626384,0.0024344777,55.625,78.0,0.0023928226,1114658,35,-2996,-13,-16
53122449,4199,0,0.28907847,0.7594374,-10.888267,0.01584084,0.006264123,-0.011886063,55.625,78.0,0.0023928226,1114658,-944,261,1905,-16
53220104,5254,0,-0.036005646,1.2279866,-9.260621,-0.004195814,0.008673616,-0.03916672,55.5,78.0,0.0023928226,1114658,-671,486,-1773,8193
53323000,4200,0,0.6354529,1.4396127,-8.276369,0.019771941,-0.014746115,-0.040572137,55.625,78.0,0.0023928226,1114658,2614,2357,-9445,13142
53424849,4199,0,0.64967066,0.28522244,-11.278089,0.008306272,-0.016455228,-0.022226542,55.625,78.0,0.0023928226,1114658,761,-272,2907,16990
53525650,5250,0,1.1955649,-0.98816437,-11.544242,0.0012436205,-0.0044846665,-0.02624748,55.5,78.0,0.0023928226,1114658,501,-1530,3019,11927
53627537,5249,0,0.21805479,-0.83428943,-10.356336,-0.017578559,0.00487133,-0.014362478,55.625,78.0,0.0023928226,1114658,996,913,-1387,11921
53728313,4210,0,-0.091366805,0.11003527,-9.138055,-0.0075544296,0.008738896,-0.02410631,55.75,78.0,0.0023928226,1114658,-481,2460,-4442,11928
53830198,4207,0,0.23287141,1.9210112,-8.745729,-0.0041370434,0.011824686,-0.059053525,55.625,78.0,0.0023928226,1114658,211,1575,-9509,-16
53931999,4199,0,-0.18062806,2.3876874,-10.199186,0.013141803,0.0095025245,-0.061365042,55.75,78.0,0.0023928226,1114658,1637,3984,-3008,11923
54033914,4247,0,-0.072972395,0.7078991,-9.417789,0.023735315,-0.011131131,-0.03540663,55.625,78.0,0.0023928226,1114658,1813,4968,-5636,13132
54135699,4163,0,-0.18003248,-0.8713191,-9.154782,0.0042101378,-0.011157632,-0.05915102,55.625,78.0,0.0023928226,1114658,983,3539,-9014,-16
54236499,4156,0,-0.06681921,-1.341618,-9.656909,-0.027539562,-0.006600241,-0.06599423,55.5,78.0,0.0023928226,1114658,658,1794,-3954,11909
54336337,6356,0,0.87465847,-1.713844,-10.771083,0.0034348508,0.012042127,-0.061995767,55.5,78.0,0.0023928226,1114658,-379,-2002,647,11910
54441250,4084,0,0.19322343,0.8662581,-8.723323,-0.014472325,0.005309326,-0.02926335,55.5,78.0,0.0023928226,1114658,-438,188,-8071,11919
54542050,4114,0,0.0452388,1.4118481,-9.373933,-0.020860227,0.0005173147,-0.046993487,55.5,78.0,0.0023928226,1114658,28,-1207,-6651,11906
54640750,5213,0,0.8425362,2.5248234,-9.433334,-0.0011523115,0.018187534,-0.05638604,55.625,78.0,0.0023928226,1114658,-158,-1887,-3266,-15
54745750,4201,0,-0.35692576,0.2613664,-9.088117,-0.01041991,-0.013134196,-0.016766487,55.5,78.0,0.0023928226,1114658,594,2398,-5340,8193
54847644,4106,0,-0.6170143,-1.279568,-9.124591,-0.011521062,-0.002262478,-0.04623248,55.625,78.0,0.0023928226,1114658,-192,2931,-8807,-15
54945250,4137,0,0.41910398,-1.5557075,-9.336984,-0.017022986,-0.0041108537,-0.0040306426,55.625,78.0,0.0023928226,1114658,-60,-386,-4333,8192
55050249,4199,0,-0.5107283,-0.25451002,-9.605672,0.017587064,0.016612051,-0.07485608,55.625,78.0,0.0023928226,1114658,-907,3696,-5178,-15
55151050,5085,0,0.6874709,0.6452442,-10.419659,0.0243262,0.016623542,-0.094785966,55.5,78.0,0.0023928226,1114658,-218,3144,-7676,-15
55249749,4200,0,-0.034447335,0.8532677,-8.440849,0.0064953533,0.015546531,-0.08260265,55.625,78.0,0.0023928226,1114658,-1435,1904,-7654,2048
55355800,4200,0,0.29118112,1.2828224,-9.20429,-0.026894568,-0.002800218,-0.007439917,55.5,78.0,0.0023928226,1114658,1125,-1046,-3716,11918
55453457,4207,0,0.30029896,0.41190815,-10.52023,-0.016211428,-0.005429686,-0.015800819,55.5,78.0,0.0023928226,1114658,877,156,1914,-16
55554249,4199,0,0.35412076,-0.7930411,-10.38067,-0.015176692,0.00031189923,-0.01435424,55.5,78.0,0.0023928226,1114658,1271,-32,-2493,8192
55656100,6163,0,0.008980985,-1.1339332,-10.694712,-0.008658721,-0.009393291,-0.07100114,55.625,78.0,0.0023928226,1114658,1616,1876,-1504,8193
55757964,5264,0,0.4959507,-0.87342334,-9.6503725,0.0011100026,0.0023337563,-0.0040714755,55.75,78.0,0.0023928226,1114658,-458,-395,-1429,11928
55859800,4200,0,0.044769846,0.68982524,-8.978722,-0.005438982,0.007820345,-0.047459785,55.625,78.0,0.0023928226,1114658,-1399,908,-5083,11910
55961649,5249,0,0.85078776,1.6657178,-9.182416,0.017324384,0.013606941,-0.068341404,55.75,78.0,0.0023928226,1114658,-573,1352,-4952,8192
56063513,5264,0,-0.1158749,1.3284084,-9.827606,-0.011962575,-0.003582247,-0.061872,55.625,78.0,0.0023928226,1114658,866,-3153,-3925,11918
56165372,5272,0,0.2395637,-0.10662545,-9.114461,-0.02244066,-0.009576978,-0.057424076,55.5,78.0,0.0023928226,1114658,1381,-473,-7788,-16
56266197,4227,0,-0.12861623,-1.4378171,-8.690821,-0.0054299925,-0.012703433,-0.045458164,55.75,78.0,0.0023928226,1114658,-266,1681,-8508,-16
56370100,4154,0,-0.095153145,-0.67054665,-10.017309,0.016395386,0.011059245,-0.0592851,55.75,78.0,0.0023928226,1114658,-714,2489,-3618,8193
56471950,5178,0,0.96085274,0.4282631,-9.116692,0.0050921952,0.0031844527,-0.061905142,55.5,78.0,0.0023928226,1114658,-1312,-1842,-4804,11920
56568550,4187,0,-0.12377163,1.7250571,-9.778185,0.030619096,0.012042481,-0.05189038,55.625,78.0,0.0023928226,1114658,728,3100,-3389,11937
56674775,4376,0,-0.07502121,1.6345552,-8.342253,0.0011470183,-0.0068322583,-0.009424146,55.625,78.0,0.0023928226,1114658,1910,2564,-6450,11941
56776450,4113,0,0.78361297,-0.06574433,-9.66077,0.014599852,-0.019495644,-0.048077337,55.75,78.0,0.0023928226,1114658,2213,-745,-5857,11928
56874100,5250,0,1.2031,0.22508468,-11.54095,0.023931915,-0.0074211126,-0.06480174,55.625,78.0,0.0023928226,1114658,1971,-387,1071,8193
56980170,4220,0,1.4032916,-1.4952143,-9.802876,-0.008415995,0.0070218816,-0.03105869,55.625,78.0,0.0023928226,1114658,-1356,-981,-5299,-16
57076784,4234,0,0.1403606,-1.2314734,-9.37767,-0.017087465,0.00881051,-0.027675295,55.625,78.0,0.0023928226,1114658,-801,200,-7867,0
57180701,4191,0,-0.03735694,-0.17310035,-9.553626,-0.0038684062,0.0133028515,-0.041676175,55.625,78.0,0.0023928226,1114658,-1103,-121,-5921,11942
57282562,4213,0,-0.015844727,1.0208962,-10.175127,0.00720983,0.019428862,-0.07404769,55.625,78.0,0.0023928226,1114658,-960,2624,-3584,2049
57384410,5252,0,1.3986758,1.071029,-10.110508,0.0065320907,0.0075660185,-0.06510767,55.625,78.0,0.0023928226,1114658,345,-1840,-2316,11947
57486249,5099,0,-0.07066837,-0.35026205,-9.790031,-0.030491892,-0.0039391895,-0.0703611,55.5,78.0,0.0023928226,1114658,569,-130,-6649,-16
57582850,4137,0,0.95291144,-0.40157974,-9.540011,-0.016764078,-0.0080091115,0.0049741096,55.625,78.0,0.0023928226,1114658,2149,-2308,-1938,13197
57686821,4104,0,0.6239168,-0.89055645,-9.737927,0.011995802,-0.0037424122,-0.051179595,55.75,78.0,0.0023928226,1114658,419,-32,-5610,0
57788650,4158,0,-0.42781827,-0.05213421,-9.6667185,-0.0023511169,0.015229314,-0.06496684,55.625,78.0,0.0023928226,1114658,-294,3139,-7026,-15
57889449,4199,0,0.49548066,1.7891058,-10.6627655,-0.00997315,0.00023521978,-0.011420782,55.75,78.0,0.0023928226,1114658,234,-1463,1522,11934
57992400,4243,0,0.19639437,2.1512427,-9.526956,0.0026235527,0.0055961665,-0.09024054,55.625,78.0,0.0023928226,1114658,720,1746,-7234,11950
58092099,5202,0,-0.3116957,1.8498033,-10.606709,0.036058985,0.0037434855,-0.06748623,55.5,78.0,0.0023928226,1114658,1822,4565,-83,8193
58193994,5294,0,1.574216,0.24569747,-10.321943,0.04184343,-0.019289816,-0.04704934,55.625,78.0,0.0023928226,1114658,1694,1691,-2807,13213
58296864,4214,0,1.3024359,-1.0511911,-11.269753,-0.01311624,0.0042967354,-0.014198956,55.625,78.0,0.0023928226,1114658,662,-1707,1391,0
58398737,5286,0,0.50983346,-1.2898756,-9.024231,-0.028100107,0.0043598693,-0.022505157,55.625,78.0,0.0023928226,1114658,-264,-1591,-6027,11943
58500563,5264,0,-0.12852408,0.33450133,-9.89899,-0.023398424,0.018848019,-0.049281064,55.625,78.0,0.0023928226,1114658,-885,689,-1403,-15
58602399,5225,0,0.23064291,1.3389333,-8.095768,-0.019295001,0.010938856,-0.030693749,55.75,78.0,0.0023928226,1114658,-752,469,-7329,8192
58702159,4179,0,0.8647288,2.3251414,-9.795332,-0.011263852,0.009484853,-0.051243756,55.625,78.0,0.0023928226,1114658,696,-2918,-3059,-16
58802950,4181,0,1.1405671,1.9237527,-10.091447,0.013335149,-0.0035895784,-0.01922245,55.5,78.0,0.0023928226,1114658,1005,-1933,-1211,8192
58904800,4200,0,1.6121377,-0.0073673488,-11.858188,0.025717702,-0.0037645688,-0.05549764,55.625,78.0,0.0023928226,1114658,1711,-874,1083,-16
59006737,4278,0,1.7890418,-1.1531062,-10.513585,0.015344401,0.0010146243,-0.06579069,55.625,78.0,0.0023928226,1114658,149,-2513,-5812,11937
59108501,4166,0,0.6759795,-1.4179515,-10.370973,0.020424196,0.0028230837,-0.010744507,55.375,78.0,0.0023928226,1114658,-1629,-1962,221,11946
59210349,4184,0,0.35060486,-0.46210414,-10.4075165,0.02201995,0.008919533,-0.070934474,55.625,78.0,0.0023928226,1114658,-2048,990,-784,-16
59311158,4208,0,-0.3398237,1.2555813,-9.198933,0.014121662,0.010649549,-0.054933693,55.625,78.0,0.0023928226,1114658,743,3350,-1863,-16
59413113,4314,0,0.18720296,1.7741491,-8.717283,0.027695108,-0.0045009367,-0.046966836,55.625,78.0,0.0023928226,1114658,889,3683,-7119,13224
59514850,4137,0,0.43994713,0.1090886,-9.794975,0.030051468,-0.008097235,-0.08100127,55.625,78.0,0.0023928226,1114658,674,3635,-4604,11938
59616726,4225,0,1.4447137,-0.8516869,-11.374648,0.006902103,-0.018909866,-0.03796602,55.625,78.0,0.0023928226,1114658,1238,-858,2069,-16
59716457,4098,0,1.0353632,-1.2180635,-10.474595,0.008128595,-0.007026266,-0.01589312,55.625,78.0,0.0023928226,1114658,1176,-1850,-107,11934
59818308,4194,0,0.98117787,-0.7551999,-9.049493,-0.009395694,0.0013855244,-0.0150620835,55.5,78.0,0.0023928226,1114658,-439,-3138,-5342,-16
59920157,4208,0,-0.23161222,0.7610326,-8.967294,-0.017217757,0.016865129,-0.05424529,55.5,78.0,0.0023928226,1114658,-1095,1548,-7028,2049
60018850,4113,0,0.23048107,0.32237706,-8.471044,-0.009559987,0.016639234,-0.052669,55.625,78.0,0.0023928226,1114658,-2566,420,-6518,11940
60120700,4194,0,0.49819013,1.3394102,-9.881117,0.005219273,0.016219728,-0.07891501,55.625,78.0,0.0023928226,1114658,-1046,1970,-4189,8192
60226807,4257,0,1.4485304,-0.64987737,-8.589768,-0.019613065,-0.01482853,-0.028683001,55.625,78.0,0.0023928226,1114658,2174,-3470,-9551,0
60328600,4200,0,-0.2574965,-1.6654602,-10.470698,-0.019333528,-0.00606048,-0.07011924,55.5,78.0,0.0023928226,1114658,-99,2805,-2321,8193
60428350,4202,0,0.098662555,-1.2632627,-9.983242,-0.009237509,-0.0067505557,-0.060603578,55.75,78.0,0.0023928226,1114658,539,672,-2120,13244
60530200,4190,0,-0.17514579,-0.80120957,-9.041241,0.009491907,0.0037626754,-0.04322068,55.625,78.0,0.0023928226,1114658,-1703,-58,-2579,11946
60631000,4178,0,0.53414166,0.5336759,-9.811802,-0.0137720965,0.011361157,-0.05109013,55.875,78.0,0.0023928226,1114658,-1499,-1151,-2091,11937
60732849,4200,0,-0.28043896,1.545112,-10.028087,-0.021438232,-0.006752116,-0.030353652,55.625,78.0,0.0023928226,1114658,1277,1286,-1571,11941
60834737,5280,0,-0.297847,0.54544467,-9.063831,-0.0007419572,-0.012779573,-0.06643362,55.75,78.0,0.0023928226,1114658,164,3093,-6781,11956
60936563,4201,0,-0.57792985,-0.9085359,-10.416988,0.021705601,0.0037749046,-0.06469631,55.75,78.0,0.0023928226,1114658,63,4982,-4032,-16
61038400,5207,0,-0.3524438,-1.8748283,-10.063461,0.008364508,-0.002486784,-0.034629703,55.75,78.0,0.0023928226,1114658,-243,3790,-3283,11931
61140337,5335,0,-0.87144655,-0.66417587,-9.301587,0.002327402,0.009687584,-0.076947376,55.625,78.0,0.0023928226,1114658,-625,3503,-6657,11944
61241137,4264,0,-0.7180991,1.7594846,-9.494917,0.0022501312,0.019552305,-0.049146827,55.75,78.0,0.0023928226,1114658,-176,4241,-1989,11948
61343950,5205,0,0.46712393,1.7932211,-8.276883,0.017004017,0.0063248505,-0.03115031,55.625,78.0,0.0023928226,1114658,584,2935,-7006,8193
61444749,4199,0,0.019493291,0.7147966,-8.743377,0.008194268,-0.0062765116,-0.06026011,55.625,78.0,0.0023928226,1114658,135,3910,-9490,16990
61550823,4078,0,1.1785365,-1.327234,-10.601979,0.031045144,-0.0024038411,-0.009228568,55.625,78.0,0.0023928226,1114658,323,-1114,-1346,11943
62874850,4099,0,-0.92394245,-1.4534525,-10.151692,0.015220438,-0.0035952097,-0.03155076,55.75,78.0,0.0023928226,1114658,403,4976,-1196,11940
62976700,4200,0,-0.0022863222,-0.738939,-8.856323,-0.02776933,0.0034435005,-0.021945253,55.75,78.0,0.0023928226,1114658,-73,155,-4668,11947
63078549,6173,0,0.7710877,-0.7371676,-9.305696,-0.019242153,0.023332126,-0.043999236,55.625,78.0,0.0023928226,1114658,-1616,-2407,-6178,-16
63178299,4199,0,0.5341144,1.2427844,-11.433749,0.007156491,0.01814007,-0.061115187,55.625,78.0,0.0023928226,1114658,-758,364,335,2049
63280159,4209,0,1.0213795,2.684719,-9.52811,0.024575118,0.0066333557,-0.027755043,55.625,78.0,0.0023928226,1114658,1478,357,154,8193
63382037,4101,0,0.9290353,1.689567,-8.750713,0.029660877,1.8513088e-05,-0.055252183,55.75,78.0,0.0023928226,1114658,1812,1602,-6181,-16
63482832,4095,0,-0.28592366,-0.09777389,-9.394086,0.017074732,-0.0034935875,-0.07583651,55.625,78.0,0.0023928226,1114658,484,5128,-6684,-16
63585745,4245,0,-0.61705065,-1.8681601,-10.854928,0.00054198643,-0.008819928,-0.06324958,55.625,78.0,0.0023928226,1114658,249,3956,-1580,-16
63687587,4238,0,-0.93033874,-1.231202,-10.123077,-0.0072969277,0.0021787374,-0.043902826,55.625,78.0,0.0023928226,1114658,-888,2035,-2165,11967
63788395,4236,0,0.05731712,-0.124873556,-8.875357,0.005163777,0.010493971,-0.038677406,55.625,78.0,0.0023928226,1114658,-2203,3308,-4659,11949
63890216,4188,0,0.5873188,1.573162,-9.362497,0.007910973,0.018926434,-0.07992938,55.625,78.0,0.0023928226,1114658,-832,1075,-5702,11951
63996337,5337,0,0.9927145,1.013032,-9.430871,-0.025743863,-0.018899772,-0.028380144,55.75,78.0,0.0023928226,1114658,1588,-2480,-2901,11949
64098100,4187,0,0.9014812,-0.9817399,-9.598198,-0.021495787,-0.0066545755,-0.010879588,55.625,78.0,0.0023928226,1114658,1222,-1737,-3523,8193
64199950,4200,0,-0.0625779,-1.5153903,-8.950048,-0.025042677,-0.0045200307,-0.042448387,55.625,78.0,0.0023928226,1114658,716,-116,-7757,8193
64296557,4183,0,0.5358562,-1.2374375,-10.56421,0.009675234,-0.0013737695,0.0038717752,55.75,78.0,0.0023928226,1114658,179,-230,788,-16
64398399,4185,0,0.50330853,-0.3475821,-8.934939,-0.01927697,-0.0027050087,-0.010571868,55.625,78.0,0.0023928226,1114658,173,-1594,-4265,8192
64500290,6295,0,0.2855271,0.48376605,-8.585648,-0.0028692672,0.007833282,-0.052154228,55.625,78.0,0.0023928226,1114658,-1563,1838,-6833,8193
64604290,4290,0,0.7098143,1.5333855,-10.9247,0.006837698,0.005330659,-0.039521985,55.625,78.0,0.0023928226,1114658,2025,-46,2013,11947
64706082,4121,0,1.2459363,0.4359162,-9.553216,8.034386e-05,-0.009922753,0.004946145,55.625,78.0,0.0023928226,1114658,2088,-1149,-4198,11972
64805937,5386,0,0.6892085,-0.7725161,-9.803127,-0.0314912,-0.020780072,-0.03671735,55.625,78.0,0.0023928226,1114658,1734,-675,-3130,11961
64909755,4176,0,0.4758892,-1.1445955,-10.030636,0.013077597,0.009987786,-0.027361972,55.625,78.0,0.0023928226,1114658,-2156,380,-1390,11969
65009500,5176,0,-0.5036782,-0.32980037,-8.579011,-0.018925117,0.012012471,-0.030028857,55.75,78.0,0.0023928226,1114658,-74,-1983,-5385,-16
65112441,4096,0,-0.61732846,1.3281323,-9.542475,0.0129189575,0.015863724,-0.075999565,55.625,78.0,0.0023928226,1114658,-1592,4619,-2551,11964
65213235,5274,0,0.5826131,1.6908338,-10.099744,0.006405842,0.016111173,-0.06797584,55.875,78.0,0.0023928226,1114658,-95,1970,-466,11960
65315068,5155,0,0.06116187,0.76594454,-9.391504,0.02654986,-0.0045507676,-0.041212976,55.625,78.0,0.0023928226,1114658,1195,2401,-4611,2049
65416899,5249,0,0.77076346,-0.4564976,-10.29093,0.03098409,-0.0018757075,-0.08865825,55.625,78.0,0.0023928226,1114658,574,3414,-5714,0
65515609,4096,0,0.6751269,-1.4026033,-10.227945,-0.02526358,-0.01516235,-0.08864038,55.625,78.0,0.0023928226,1114658,146,911,-3204,8193
65615351,4192,0,1.4415954,-1.4547243,-10.575632,-0.012537372,-0.007916097,0.007305186,55.625,78.0,0.0023928226,1114658,953,-2612,1521,2049
65717200,5235,0,0.45104465,-1.4176465,-10.674908,0.023696277,0.012070114,-0.065955915,55.75,78.0,0.0023928226,1114658,-54,-692,-3846,-16
65821162,4213,0,0.5862832,0.34679353,-9.249905,0.024765525,0.0056673633,-0.036836077,55.625,78.0,0.0023928226,1114658,-72,-534,-5812,11963
65923025,4225,0,-0.098716095,2.3184047,-10.744298,0.02915996,0.0033450767,-0.034351252,55.75,78.0,0.0023928226,1114658,1365,3129,1365,-16
66029159,5332,0,1.3201687,0.88461006,-11.266444,0.026892997,-0.014552397,-0.049298313,55.75,78.0,0.0023928226,1114658,2392,913,2114,11962
66128800,4157,0,-0.64786047,-1.202143,-9.168078,-0.004944772,-0.009197884,-0.044755347,55.75,78.0,0.0023928226,1114658,325,2640,-8904,8192
66232749,4199,0,0.9013417,-1.9897554,-9.621558,-0.03632205,-0.00621014,-0.01670853,55.75,78.0,0.0023928226,1114658,6,-3254,-4274,-16
66332500,4163,0,0.51072466,-1.3969336,-10.5819235,0.02386579,0.006985075,-0.050492175,55.625,78.0,0.0023928226,1114658,125,-38,891,11973
66434349,4190,0,-1.2599752,-0.21002245,-9.039912,0.021223739,0.011942801,-0.038157362,55.875,78.0,0.0023928226,1114658,-776,4825,-5359,8193
66538300,4200,0,-0.5954393,2.3347466,-8.95373,-0.004656428,0.01089717,-0.007930719,55.75,78.0,0.0023928226,1114658,-856,3264,-1061,8192
66635949,4200,0,0.24750976,2.2689006,-9.263435,0.037099898,0.004030467,-0.05795301,55.625,78.0,0.0023928226,1114658,535,1588,-4647,11974
66737914,4310,0,-1.0783525,1.6260875,-9.394514,-0.004706506,-0.0043018046,-0.02331604,55.625,78.0,0.0023928226,1114658,741,4611,-3302,13308
66841788,4233,0,-0.6748019,-0.5250547,-10.176621,-0.033282187,-0.015392008,-0.020687975,55.75,78.0,0.0023928226,1114658,2622,803,-304,8193
66941500,4198,0,0.7623116,-1.1728766,-10.053166,0.033089414,-0.0063227457,-0.06895534,55.75,78.0,0.0023928226,1114658,131,2779,-6915,8192
67042301,4201,0,-0.7993302,-1.6817888,-10.069212,-0.029409926,-0.012734919,-0.014601765,55.75,78.0,0.0023928226,1114658,82,1144,-1701,-16
67149400,5239,0,0.11039214,0.622573,-8.678642,0.008602395,0.020045,-0.03052616,55.75,78.0,0.0023928226,1114658,-1144,4358,-5501,-16
67249169,4220,0,1.5802133,1.8728296,-10.089214,0.0064754514,0.010169931,-0.050136343,55.75,78.0,0.0023928226,1114658,-267,-3319,634,11965
67353171,5321,0,1.6040646,2.0270767,-10.087875,0.01913046,-0.011813424,-0.084786884,55.75,78.0,0.0023928226,1114658,2917,-1451,-3768,11973
67451799,4158,0,0.21892501,0.36584866,-9.039525,-0.03007898,-0.0035487525,-0.006220357,55.75,78.0,0.0023928226,1114658,1389,-580,-6022,11967
67551588,4238,0,0.51374406,0.55849046,-10.2801075,0.0415719,-0.006275723,-0.07805266,55.875,78.0,0.0023928226,1114658,2428,4758,-6439,11971
67653399,4199,0,0.1840199,-1.3421564,-9.028297,-0.039953206,-0.0064554503,-0.043558456,55.75,78.0,0.0023928226,1114658,941,-1659,-7958,2048
67757350,4168,0,0.93688023,-0.89475095,-9.418768,-0.03309911,0.00059255894,-0.0039444515,55.75,78.0,0.0023928226,1114658,274,-3716,-2692,8192
67857157,5300,0,-1.1009607,-0.67586297,-9.24826,0.006333898,0.0033048089,-0.090763174,55.75,78.0,0.0023928226,1114658,-695,4388,-8252,-16
67958960,5261,0,0.5950489,1.3157586,-9.428091,-0.02182417,0.013103514,-0.010202597,55.625,78.0,0.0023928226,1114658,329,-2272,199,11975
68062901,4096,0,0.7799122,2.1945348,-10.202954,-0.021629753,0.004394918,-0.027454862,55.75,78.0,0.0023928226,1114658,1656,-2076,272,11972
68164775,4225,0,0.8174631,2.0464852,-9.5997715,0.03553409,0.0008903501,-0.055567086,55.625,78.0,0.0023928226,1114658,1448,646,-5534,2049
68265550,4200,0,-0.5400931,-0.07229697,-10.230633,0.002854807,-0.009737692,-0.02219013,55.875,78.0,0.0023928226,1114658,674,4064,-2023,2049
68367537,4337,0,0.58139867,-1.0440174,-10.510784,-0.036011532,-0.011383144,-0.056888584,55.75,78.0,0.0023928226,1114658,1746,-2507,-2512,11968
68469249,4127,0,1.6805769,-1.6550323,-10.118575,-0.015780961,-0.0017875488,-0.01359435,55.75,78.0,0.0023928226,1114658,-582,-3043,-972,13346
68571105,4205,0,0.22129999,-0.8118808,-10.575617,0.017092135,0.0068945107,-0.068153314,55.75,78.0,0.0023928226,1114658,-218,958,-1244,8193
68667700,4163,0,0.121032834,-1.1189498,-9.78607,-0.03535115,0.019402403,-0.03976159,55.75,78.0,0.0023928226,1114658,-613,-2972,-2835,11976
68769549,4200,0,0.20447236,-0.03466095,-9.826214,0.008529145,0.0149413245,0.003485471,55.625,78.0,0.0023928226,1114658,-1361,-1269,-824,0
68871537,4337,0,0.44484887,2.3919036,-10.7712145,0.024316417,0.01358542,-0.04425314,55.625,78.0,0.0023928226,1114658,581,939,941,11970
68976400,4111,0,1.1891985,1.2510082,-10.37111,-0.0010759826,0.0030234992,-0.04841778,55.625,78.0,0.0023928226,1114658,827,-1317,-528,2049
69077200,4056,0,1.2730681,-0.60534984,-11.457269,0.03230002,-0.0031077648,-0.04430143,55.625,78.0,0.0023928226,1114658,1049,658,1667,11973
69175899,5140,0,0.036749143,-0.6704908,-10.22722,-0.013270208,-0.017033203,-0.05811977,55.75,78.0,0.0023928226,1114658,2128,2010,-4640,11976
69277791,5291,0,-0.2738314,-1.5232639,-8.906791,0.0041768905,-0.013220802,-0.062235545,55.75,78.0,0.0023928226,1114658,916,1717,-8161,-16
69380650,6301,0,-0.54631406,-1.0723195,-9.390844,0.026453147,0.009882328,-0.0920946,55.625,78.0,0.0023928226,1114658,-1938,1646,-1032,11984
69482500,4201,0,0.1475532,1.0281019,-10.373795,-0.018880364,0.021373348,-0.038182177,55.75,78.0,0.0023928226,1114658,-1752,-572,471,8192
69584389,4226,0,-0.41307697,1.9771516,-9.5316105,-0.004772969,0.012845823,-0.054849487,55.75,78.0,0.0023928226,1114658,212,2999,-4013,8193
69686199,4199,0,0.54315406,1.2955271,-10.637269,0.015001606,-0.008474923,-0.08153272,55.75,78.0,0.0023928226,1114658,1988,1178,-4947,2049
69788050,4200,0,0.7122778,-0.5681132,-10.438377,-0.0071022934,0.0076824105,-0.031398874,55.625,78.0,0.0023928226,1114658,2,548,-2723,-16
69887800,4200,0,-0.16277629,-1.2457606,-8.631996,0.010627774,-0.0139792655,-0.037452225,55.75,78.0,0.0023928226,1114658,1209,3717,-8789,8193
69989649,4189,0,1.2430977,-1.1898139,-10.287882,-0.008101065,-0.00042028894,-0.00771571,55.75,78.0,0.0023928226,1114658,-391,-2729,-686,-16
70091518,4218,0,-0.07105801,0.06912132,-10.755324,-0.0074463226,0.0076898015,-0.08564097,55.625,78.0,0.0023928226,1114658,-218,349,-3714,-16
70193350,4158,0,-1.10108,1.2763693,-8.090469,-0.007904971,0.0056564314,-0.0048181424,55.75,78.0,0.0023928226,1114658,687,3982,-5455,11976
70298350,4191,0,-0.042240612,1.3984231,-10.041715,0.0034132646,0.0045683063,-0.006649575,55.75,78.0,0.0023928226,1114658,1526,2295,-2637,11981
70399157,5181,0,0.61977386,0.0010685044,-9.905866,0.021228405,-0.027878772,-0.04438623,55.625,78.0,0.0023928226,1114658,1478,-98,-990,2049
70501137,5387,0,0.95955986,-0.41469818,-10.327157,0.023473386,0.008432953,-0.08358011,55.75,78.0,0.0023928226,1114658,1557,1145,-1853,11979
70603900,4200,0,-0.24743278,-0.5037915,-8.662723,-0.004932204,0.011695792,-0.043177716,55.75,78.0,0.0023928226,1114658,-1143,1862,-6006,8192
70705753,4204,0,-0.40737918,0.7187008,-10.437137,-0.002073089,0.017739633,0.004824334,55.75,78.0,0.0023928226,1114658,-828,1314,2608,2049
70807601,4058,0,1.1813086,1.1186199,-9.194834,0.010164629,-0.0032960656,-0.0725354,55.75,78.0,0.0023928226,1114658,13,-970,-5923,11972
70909460,4211,0,0.030341377,1.4925436,-9.540362,0.0020642716,-0.01261468,-0.038992114,55.75,78.0,0.0023928226,1114658,2518,1192,-4366,-16
71007118,4218,0,0.7733555,0.7050634,-9.377536,0.01241062,-0.017094817,-0.08194902,55.75,78.0,0.0023928226,1114658,1667,1455,-6257,8193
71108950,4193,0,0.10954046,-0.39197496,-10.114071,-0.017174609,-0.0066262227,-0.0030803015,55.875,78.0,0.0023928226,1114658,435,561,-3299,-16
71210800,4063,0,0.663528,-0.5573249,-10.188437,0.030416979,0.005255064,-0.047826435,55.75,78.0,0.0023928226,1114658,2166,697,-1109,11980
71312683,4230,0,-0.54938185,-0.17405388,-10.999224,-0.012160324,0.013423199,-0.043534417,55.875,78.0,0.0023928226,1114658,-1019,1377,2209,11979
71413463,4213,0,0.56431246,0.4826478,-8.944396,0.0038861982,0.024590189,-0.054449353,55.625,78.0,0.0023928226,1114658,-1915,1677,-5779,-16
71520550,4191,0,0.80817884,1.0779583,-9.317602,-0.021326466,-0.018860558,-0.020225244,55.875,78.0,0.0023928226,1114658,2131,-2916,-4495,2048
71622399,4200,0,0.38158464,-0.8713296,-9.308964,-0.02586648,-0.013613397,-0.02554872,55.875,78.0,0.0023928226,1114658,813,-728,-3365,2049
71724359,5360,0,0.02190047,-1.8037177,-9.868065,-0.048088167,-0.0012652383,-0.050924014,55.75,78.0,0.0023928226,1114658,317,-2552,-5511,11986
71826115,5265,0,0.12198366,-0.37669256,-10.151532,-0.018454198,0.010234317,-0.027580172,55.625,78.0,0.0023928226,1114658,657,-336,-60,2049
71925942,4292,0,0.60684496,0.18076709,-8.890684,0.0030841683,0.010113644,-0.0020124787,55.75,78.0,0.0023928226,1114658,-225,-1603,-3658,11987
72027699,4162,0,0.7759074,2.0329304,-10.388863,-0.00019550907,0.015910612,-0.04235898,55.75,78.0,0.0023928226,1114658,-85,-808,-157,11986
72130759,4360,0,0.7508747,1.3132236,-8.708558,-0.0055019087,-0.0035809134,-0.01936692,55.75,78.0,0.0023928226,1114658,1202,-1713,-5445,11987
72231573,4374,0,1.8164817,0.2795779,-10.970844,0.012872919,0.0023998641,-0.06807702,55.75,78.0,0.0023928226,1114658,646,-2039,-2259,11975
72333250,4136,0,0.26270354,-1.3706228,-10.292182,0.03141378,-0.0005059222,-0.03004543,55.75,78.0,0.0023928226,1114658,787,2604,-2197,13385
72434050,4113,0,-0.45919073,-1.5937383,-9.721034,-0.03850129,0.002005347,-0.06051358,55.75,78.0,0.0023928226,1114658,-41,318,-5559,11994
72535900,4178,0,1.4652126,-0.59067976,-9.293225,-0.005851855,0.0078598885,0.0020582944,55.75,78.0,0.0023928226,1114658,-1050,-4196,-1802,2048
72637749,4199,0,0.46259895,1.0048503,-10.7714615,0.023347048,0.010734554,-0.062326875,55.75,78.0,0.0023928226,1114658,-330,352,2086,-15
72737500,4200,0,-0.46882072,1.6448648,-8.911835,0.004040777,0.0044554602,-0.02939359,55.75,78.0,0.0023928226,1114658,-347,3247,-4555,8192
72839349,4190,0,0.7697109,1.70961,-9.395354,-0.031938784,-0.002547248,-0.059941232,55.75,78.0,0.0023928226,1114658,1057,-3069,-5824,8192
72941200,5244,0,1.3633819,0.9622397,-10.478341,0.019854497,-0.01314303,-0.027844101,55.75,78.0,0.0023928226,1114658,2106,-1568,-486,8192
73043067,5102,0,0.57717836,-1.2665275,-9.565791,0.032530908,-0.006652181,-0.071565166,55.75,78.0,0.0023928226,1114658,299,1571,-5981,-16
73142816,4079,0,-1.1500586,-1.4697207,-10.608095,-0.0082242405,-0.0005353291,-0.061782345,55.75,78.0,0.0023928226,1114658,118,4594,-3001,11992
73243600,4063,0,-0.64865494,-1.5464792,-10.341631,-0.027138744,-0.0010431813,-0.019193085,55.75,78.0,0.0023928226,1114658,-667,1068,-1023,11976
73348600,5251,0,-0.17662503,0.8943845,-10.275288,-0.014305436,0.02563531,-0.07710015,55.75,78.0,0.0023928226,1114658,-1785,3154,-4072,8193
73450450,5250,0,-0.08424377,1.5157577,-8.835653,0.004115929,0.013763359,-0.03505739,55.75,78.0,0.0023928226,1114658,-640,1998,-4778,8193
73547058,4207,0,0.28981924,2.0777414,-10.218245,0.024081009,-0.009742431,-0.017766802,55.75,78.0,0.0023928226,1114658,1824,289,1539,0
73653137,4238,0,0.67539585,0.15526159,-10.467987,-0.031759825,-0.014372632,-0.048686776,55.625,78.0,0.0023928226,1114658,2669,-2483,-1056,11980
73754950,4159,0,1.9419345,-1.1709015,-9.176368,0.0013772235,-0.00900049,-0.02042458,55.875,78.0,0.0023928226,1114658,1263,-4110,-7302,11982
73856834,4231,0,0.85259575,-0.8274356,-10.716304,0.0008048791,0.0067860573,-0.01917283,55.75,78.0,0.0023928226,1114658,158,-2012,1336,0
73958737,4242,0,0.74616396,0.55366004,-9.718641,0.01700388,0.016400622,-0.050590713,55.875,78.0,0.0023928226,1114658,-164,-2632,-4462,11986
74060500,4161,0,0.23699616,1.9600749,-9.552035,0.03546378,0.005489719,-0.03380662,55.75,78.0,0.0023928226,1114658,660,1894,-2901,-16
74161299,4186,0,-0.8450659,1.8040507,-8.914875,-0.021918185,0.011719684,-0.06218868,55.75,78.0,0.0023928226,1114658,-1119,2558,-5825,-16
74263163,4213,0,0.47781903,0.6551134,-9.16235,-0.019496748,-0.019338027,-0.015841529,55.75,78.0,0.0023928226,1114658,1668,-477,-4405,11971
74365167,4368,0,1.8390114,-0.6029546,-11.268587,0.041489404,-0.0084399395,-0.026491506,55.75,78.0,0.0023928226,1114658,2370,464,1727,11973
74464749,4199,0,1.0630087,-1.2363675,-9.212019,-0.04629845,-0.015483113,-0.07142947,55.75,78.0,0.0023928226,1114658,1356,-3440,-7413,16991
74568700,4191,0,0.7188855,-0.5615506,-9.151812,0.026839394,0.011452772,-0.040303145,55.625,78.0,0.0023928226,1114658,-618,-1117,-4154,11972
74669501,5164,0,0.630221,0.6602875,-9.924273,-0.019930596,0.009452759,-0.030908123,55.875,78.0,0.0023928226,1114658,1155,-3288,444,2048
74772400,4063,0,-1.4006883,1.754047,-8.714321,-0.018974507,0.009313841,-0.061106082,55.75,78.0,0.0023928226,1114658,-311,5139,-2803,11981
74874250,4200,0,0.56407934,1.6808602,-8.89583,0.054055054,-0.0036879154,-0.04925303,55.75,78.0,0.0023928226,1114658,1801,370,-8829,8193
74975050,4200,0,1.5565889,-0.042531226,-10.867091,-0.02098132,-0.017931778,-0.03230017,55.875,78.0,0.0023928226,1114658,981,-3613,2428,13415
75075850,5136,0,-0.99765277,-1.0129391,-11.088048,-0.03680744,-0.008592913,-0.065073624,55.75,78.0,0.0023928226,1114658,-10,572,-3614,11967
75177699,5242,0,-1.1357495,-2.0427084,-8.978054,0.041701663,0.005737727,-0.04144027,55.875,78.0,0.0023928226,1114658,-816,4965,-6935,2049
75279580,5280,0,2.040095,-0.40236714,-10.279137,0.024453955,0.009485516,-0.02792434,55.75,78.0,0.0023928226,1114658,-799,-3327,-131,-16
75380392,4233,0,-1.2784033,1.5067517,-9.60884,-0.039081443,0.0062956843,-0.039675355,55.75,78.0,0.0023928226,1114658,-309,1544,-2128,11979
75482220,4220,0,0.51109725,1.8643489,-10.086222,0.038958278,0.0015291338,-0.059532225,55.875,78.0,0.0023928226,1114658,1618,3036,2492,8193
75588337,4283,0,-0.75523907,-0.7362082,-10.4480505,-0.01959489,-0.004444293,-0.0341254,55.875,78.0,0.0023928226,1114658,279,3819,577,11989
75688008,4208,0,-1.708988,-1.5217501,-10.123593,-0.0018198041,0.0017815039,-0.06300088,55.625,78.0,0.0023928226,1114658,-339,4572,-6574,-16
75789921,5314,0,-1.8804909,-1.1174966,-9.514675,0.030295627,0.012402141,-0.059777983,55.75,78.0,0.0023928226,1114658,126,4845,-6684,13444
75891705,4133,0,1.4599531,0.28262606,-8.774384,0.015925506,0.008187478,-0.012058181,55.75,78.0,0.0023928226,1114658,-1200,-2464,-3135,11980
75991566,4316,0,1.3287934,1.6293507,-9.088124,-0.030135358,0.0059861727,-0.013634548,55.875,78.0,0.0023928226,1114658,-379,-5156,-1582,12005
76093300,4159,0,-1.523459,1.825156,-9.648423,-0.00920531,0.0038260908,-0.051627647,55.875,78.0,0.0023928226,1114658,1518,5465,-3069,8193
76194100,4164,0,0.48278636,0.96284,-9.676302,0.04709796,-0.006810523,-0.07505732,55.75,78.0,0.0023928226,1114658,3236,3805,-7014,-16
76295950,4189,0,1.0825151,-1.1184285,-9.622192,-0.0312147,-0.013236973,-0.053533763,55.75,78.0,0.0023928226,1114658,851,-4563,-6523,11991
76395700,4134,0,0.38225082,-1.9635478,-10.258231,-0.046726026,-0.013770972,-0.018592846,55.75,78.0,0.0023928226,1114658,229,-2477,873,-16
76499650,4115,0,0.024675814,-1.1497674,-9.407169,0.03591747,0.013137443,-0.024050489,55.75,78.0,0.0023928226,1114658,-1695,1840,-3432,2048
76601511,4211,0,1.3025072,0.51968676,-9.277915,-0.009217553,0.008138569,-0.01970707,55.875,78.0,0.0023928226,1114658,-714,-3534,-2000,-16
76703349,4192,0,-1.0604,2.188201,-8.880362,-0.012760566,0.010382214,-0.011413338,55.75,78.0,0.0023928226,1114658,-1067,2200,-4475,11983
76805200,4038,0,0.891842,2.2727463,-9.76204,0.04144756,-0.006875843,-0.022002488,55.75,78.0,0.0023928226,1114658,2647,2310,-1742,13444
76907049,4199,0,1.13403,0.23853937,-9.553701,-0.026289172,-0.018180465,-0.015093523,55.75,78.0,0.0023928226,1114658,442,-3524,-3440,2049
77013122,5272,0,0.9078073,-1.2700787,-10.483414,0.044945292,0.007879645,-0.08183641,55.75,78.0,0.0023928226,1114658,890,1719,-3844,13444
77109704,4204,0,-0.36224124,-2.089163,-10.372448,0.056713175,0.0017062844,-0.016908122,55.875,78.0,0.0023928226,1114658,-85,5372,-1255,-16
77216835,5220,0,-2.209537,0.38965106,-9.272486,-0.016295163,0.024721812,-0.06747989,55.75,78.0,0.0023928226,1114658,-1491,4229,-4675,0
77313400,4200,0,-0.91349995,0.68403685,-8.8265505,-0.035823766,0.0151508255,-0.01072137,55.75,78.0,0.0023928226,1114658,-1845,-148,-6282,11962
77415249,4200,0,-1.5941925,2.162351,-8.460392,0.04422397,0.018036429,-0.052717287,55.875,78.0,0.0023928226,1114658,-133,6554,-6675,11972
77517138,5288,0,0.7094382,1.7758031,-9.522228,0.034218002,-0.003405515,-0.09919796,55.75,78.0,0.0023928226,1114658,1004,-1162,-7753,11961
77618950,4167,0,1.7527469,-0.01604414,-10.938221,-0.038595274,-0.008633165,-0.04519593,56.0,78.0,0.0023928226,1114658,2254,-4178,395,-16
77722900,4125,0,-1.3141506,-2.3190465,-10.113361,0.018537002,-0.0018930048,-0.026576666,55.75,78.0,0.0023928226,1114658,-399,5906,-886,11972
77828950,4200,0,0.48518485,0.4853036,-9.65238,-0.043702018,0.012501867,-0.061399437,55.75,78.0,0.0023928226,1114658,-741,-2844,-1880,2048
77928699,4184,0,0.17052914,1.7464856,-8.844331,-0.034186754,0.011905112,-0.050551277,55.75,78.0,0.0023928226,1114658,-810,466,-3051,-16
