timestamp,integral_dt,error_count,x,y,z,x_integral,y_integral,z_integral,temperature,range_m_s2,scaling,device_id,x_raw,y_raw,z_raw,temperature_raw
36658995,4230,0,0.04218334,0.5220569,-9.84542,0.00029694007,0.0017235422,-0.042598646,33.625,78.0,0.0023928226,1114658,63,456,-3058,2049
36761865,4196,0,-0.82614535,0.33201042,-10.035742,-0.001319884,0.0060733757,-0.047716156,33.75,78.0,0.0023928226,1114658,223,727,-4185,10
36859515,4199,0,-0.2061784,0.660042,-9.846966,-0.0014714681,0.004849852,-0.034069356,33.5,78.0,0.0023928226,1114658,1004,506,-3000,8192
36963503,4239,0,-0.58150107,-1.4412987,-10.406383,-0.0002916487,0.013533015,-0.04436969,33.5,78.0,0.0023928226,1114658,-1392,587,-3925,2048
37064264,5195,0,0.056338035,-0.3911113,-10.302271,-0.0032178988,-0.031018915,-0.0573959,33.625,78.0,0.0023928226,1114658,5132,-274,-1557,10
37161915,4199,0,0.5409224,3.0964034,-9.643683,0.005830397,0.00220821,-0.047613077,33.625,78.0,0.0023928226,1114658,726,379,-3246,8193
37264815,4170,0,0.33913025,2.279629,-9.986265,-0.011394523,-0.004371514,-0.03906825,33.5,78.0,0.0023928226,1114658,2110,-478,-2470,8193
37370900,4235,0,-0.82847065,-1.5761282,-9.704646,-0.005538625,-0.008764359,-0.046125583,33.5,78.0,0.0023928226,1114658,941,89,-1457,10
37470615,4200,0,-1.0117778,-1.381266,-9.763059,-0.0038519646,0.009200767,-0.038104974,33.625,78.0,0.0023928226,1114658,-208,859,-5394,10
37569314,4156,0,-0.1884437,-0.44726127,-10.223653,0.011471378,7.575465e-05,-0.04103327,33.625,78.0,0.0023928226,1114658,-1684,1577,-4344,8193
37670158,6289,0,0.7782214,0.3428415,-9.819977,0.004652858,0.003003491,-0.0560136,33.625,78.0,0.0023928226,1114658,697,-818,-3618,10
37771981,5266,0,-0.9492082,-0.545417,-9.581184,-0.009730674,-0.007484689,-0.056092665,33.625,78.0,0.0023928226,1114658,492,181,-4730,8193
37874864,4189,0,-0.34535304,-0.012536524,-10.193421,0.004547824,0.00920168,-0.04125504,33.625,78.0,0.0023928226,1114658,175,1366,-1980,16902
37975665,4141,0,-0.005011821,0.86605823,-9.814219,-0.0039874986,-0.00854061,-0.036447965,33.625,78.0,0.0023928226,1114658,401,354,-1898,10
38075415,4200,0,-0.48761043,-1.1413579,-9.842178,-0.008769594,-0.010432032,-0.04000514,33.625,78.0,0.0023928226,1114658,-178,56,-3866,8192
38179365,4167,0,0.016640747,0.90683913,-10.07247,0.008072298,0.0036401944,-0.037447542,33.5,78.0,0.0023928226,1114658,424,530,-2951,8192
38282342,4277,0,-0.83606803,-0.5293497,-9.698116,-0.009894387,-0.007561506,-0.043478604,33.625,78.0,0.0023928226,1114658,1707,832,-3875,7537
38488065,4105,0,-0.8568797,-0.40522954,-9.871684,-0.011287815,-0.004057948,-0.04472495,33.625,78.0,0.0023928226,1114658,2330,17,-3636,8193
38590984,4178,0,0.77220273,0.68932223,-9.969447,0.0107824,0.012175827,-0.049844664,33.625,78.0,0.0023928226,1114658,-1065,1207,-5391,8193
38691764,4200,0,-1.7448324,-1.0106019,-9.381956,-0.010935173,0.010059022,-0.033470407,33.5,78.0,0.0023928226,1114658,-2619,413,-6639,8192
38793615,5251,0,-1.4299167,-1.297929,-10.281756,-0.011327636,-0.003114123,-0.056647506,33.375,78.0,0.0023928226,1114658,-946,672,829,7534
38894423,4153,0,-1.1570383,-1.1113926,-10.314873,-0.0044581676,-0.005212303,-0.042116262,33.75,78.0,0.0023928226,1114658,-566,898,-4563,4286
38995215,4146,0,-1.5455227,-1.4132036,-9.815315,-0.0048980364,-0.004354421,-0.032477356,33.625,78.0,0.0023928226,1114658,-2942,319,-4270,7535
39096015,5250,0,-0.6665455,-0.059448544,-8.384987,-5.5172015e-05,0.013208704,-0.046254933,33.5,78.0,0.0023928226,1114658,-1106,836,-4330,7542
39196834,4189,0,-0.12585747,0.42856055,-9.692532,0.018199189,0.00968391,-0.030852653,33.625,78.0,0.0023928226,1114658,717,1239,-5614,0
39299740,4225,0,0.9925441,1.1102471,-10.006282,-0.0022989444,0.0010047393,-0.04496257,33.625,78.0,0.0023928226,1114658,2876,-1049,40,2049
39404730,5227,0,-1.5146716,-1.1475283,-10.277348,-0.0091993315,-0.002347716,-0.059965014,33.625,78.0,0.0023928226,1114658,-915,2422,253,7548
39505544,4230,0,-0.24341252,-0.2692779,-9.872626,0.01049164,0.0098214615,-0.040719762,33.625,78.0,0.0023928226,1114658,-2337,443,-4157,10
39606367,4209,0,0.38487694,1.21855,-9.863905,0.012184125,0.012184243,-0.044582564,33.75,78.0,0.0023928226,1114658,257,1176,-4639,7561
39711315,4168,0,-1.4793428,-0.7889103,-10.196879,-0.017109383,-0.0049313176,-0.045157705,33.625,78.0,0.0023928226,1114658,561,1075,-3131,10
39812149,4202,0,-0.8596489,-0.89080167,-9.88665,0.008391773,0.0022938678,-0.04400369,33.625,78.0,0.0023928226,1114658,-2104,1704,-2446,10
39912916,4200,0,0.75018394,1.112922,-10.114496,-0.0020086758,-0.00024556625,-0.042626202,33.625,78.0,0.0023928226,1114658,2352,-105,-1195,10
40013714,4126,0,-1.5006036,-1.6319529,-10.096868,-0.0033231915,-0.0083991615,-0.039873287,33.75,78.0,0.0023928226,1114658,-1870,2798,-1596,10
40116670,4256,0,0.80289984,0.8940313,-9.980517,-0.010136413,-0.005271099,-0.04547798,33.5,78.0,0.0023928226,1114658,-128,-1049,-1405,4318
40215321,4158,0,-1.8016425,-1.7393516,-9.906317,0.012728489,0.00015540369,-0.046947245,33.75,78.0,0.0023928226,1114658,-1124,1840,-5939,7568
40318283,4254,0,-0.43656105,0.6021939,-9.712548,-0.016711954,-0.0175936,-0.047019504,33.625,78.0,0.0023928226,1114658,2909,-617,-6488,4318
40423224,4179,0,-0.57421595,0.37496448,-9.8951235,-0.013133627,-0.02050645,-0.03531881,33.625,78.0,0.0023928226,1114658,882,-2096,-5523,10
40524037,4131,0,0.18376316,0.41477108,-9.924607,-0.018166697,-0.008607676,-0.051652703,33.5,78.0,0.0023928226,1114658,875,-929,-3250,7587
40624815,4118,0,0.019317057,-0.04146114,-9.375016,-0.014388859,-0.007466337,-0.03468738,33.75,78.0,0.0023928226,1114658,-1152,-2525,-3685,7586
40729815,4200,0,-1.6886946,-0.67981744,-9.733956,0.0023911088,-0.0048155687,-0.05959816,33.75,78.0,0.0023928226,1114658,-203,2840,-3103,8193
40828514,4177,0,-1.0278734,-0.5432556,-9.44503,0.005064338,0.0037965076,-0.04403715,33.75,78.0,0.0023928226,1114658,-820,2096,-5208,10
40929315,4145,0,0.5353488,-0.31229588,-10.740648,0.008560353,0.0074324426,-0.03672509,33.625,78.0,0.0023928226,1114658,-1961,-40,-3227,8193
41030158,4243,0,-0.9610687,0.6466589,-9.864727,-0.0139109,-0.004021543,-0.017147789,33.625,78.0,0.0023928226,1114658,2619,974,-4565,8192
41135143,4229,0,0.9520245,0.07140069,-10.826267,-0.015059437,0.010044255,-0.05823806,33.75,78.0,0.0023928226,1114658,848,-2986,-4809,7593
41231757,4242,0,-1.6010156,0.21762572,-9.832832,-0.010574432,-0.010678108,-0.037166227,33.625,78.0,0.0023928226,1114658,1102,1740,-2685,2049
41336717,4202,0,-0.96525586,0.116193034,-9.893207,-0.0014103068,0.0066952584,-0.04257323,33.75,78.0,0.0023928226,1114658,2672,1485,-2536,7603
41437567,4253,0,0.6171958,0.04907143,-10.659663,-0.03077923,-0.012532748,-0.010108365,33.875,78.0,0.0023928226,1114658,-622,-4039,333,7600
41540457,4242,0,-0.52109826,0.46679175,-10.8672085,-0.020607173,-0.019919852,-0.009684214,33.625,78.0,0.0023928226,1114658,4765,870,1054,8192
41641214,4199,0,-1.5771121,0.26005638,-10.765759,-0.03772243,-0.013821751,-0.017245566,33.625,78.0,0.0023928226,1114658,2530,-1357,-811,7602
41744158,4211,0,-0.8439612,-0.3277776,-9.002934,0.04590689,0.0004336922,-0.031895943,33.75,78.0,0.0023928226,1114658,1077,5095,-5290,7616
41844939,4199,0,-0.040803064,0.25574264,-11.315163,-0.047914993,-0.00877085,-0.049260326,33.75,78.0,0.0023928226,1114658,1671,-2878,5641,7610
41945714,4198,0,-0.56164366,0.2757109,-9.042692,0.07891442,-0.0046932,-0.060939517,33.75,78.0,0.0023928226,1114658,329,4582,-7781,10
42048707,6388,0,-0.5646242,-0.068493396,-9.343599,0.05705276,0.0075593474,-0.09644926,33.875,78.0,0.0023928226,1114658,642,-1096,-2889,4331
42149469,4255,0,0.87621504,0.31915236,-9.853408,-0.0087760305,0.0033020598,-0.039728817,33.75,78.0,0.0023928226,1114658,1340,-5280,-5539,4348
42250257,4243,0,0.37549,0.12352031,-11.521081,-0.04934934,0.0070055043,-0.04903606,33.875,78.0,0.0023928226,1114658,2038,-7079,357,8193
42351045,6329,0,-0.4113218,0.3942192,-10.503262,-0.044801023,0.0070042736,-0.06346591,33.75,78.0,0.0023928226,1114658,904,1433,-2613,7632
42451895,4281,0,-0.42761877,0.06848103,-9.819585,0.033890806,-0.0030543741,-0.034957558,33.75,78.0,0.0023928226,1114658,1325,3429,-5329,4343
42555767,5252,0,-1.0534924,0.47778592,-10.112466,-0.021886256,0.0006122162,-0.033795588,33.75,78.0,0.0023928226,1114658,-460,3050,-114,8192
42655519,4205,0,0.87370336,0.8102647,-10.557763,0.015088658,0.0019209038,-0.06779406,33.75,78.0,0.0023928226,1114658,-1317,-2062,-1454,10
42756330,4172,0,-1.2167985,-0.03401637,-9.854984,-0.039964415,-0.011693278,-0.010263888,33.75,78.0,0.0023928226,1114658,2189,1,-5114,10
42859227,4127,0,0.3663149,-0.37537557,-11.000398,-0.027235538,-0.0050245817,-0.0316739,33.75,78.0,0.0023928226,1114658,-1829,-3937,-1525,7642
42965265,4200,0,0.2956735,0.20787951,-10.16467,-0.012416157,0.0061848448,-0.053605422,33.875,78.0,0.0023928226,1114658,-150,-1703,-2438,8193
43065015,4171,0,0.08522735,1.0535679,-9.083041,0.03373505,-0.0013423944,-0.04709641,33.875,78.0,0.0023928226,1114658,-112,3107,-7916,7634
43166865,5246,0,-1.1696483,0.19769572,-10.358587,0.0009797231,0.0016636407,-0.05803957,33.75,78.0,0.0023928226,1114658,-56,4630,-4947,0
43267665,4162,0,-0.071426086,-0.8462007,-11.05872,-0.023950867,-0.010222024,-0.04769584,33.875,78.0,0.0023928226,1114658,1955,-53,-1406,10
43367415,4200,0,-0.24609743,-1.00493,-10.681675,-0.025659274,4.163731e-05,-0.03479085,33.75,78.0,0.0023928226,1114658,1714,-2211,-7455,4356
43473589,4325,0,-1.4200454,0.024220048,-9.905765,-0.007155936,0.008718279,-0.032593004,33.875,78.0,0.0023928226,1114658,-1900,3571,-5728,8193
43574400,4336,0,-0.6797235,1.2934856,-10.7519455,-0.026164465,0.02250532,-0.054070774,33.875,78.0,0.0023928226,1114658,867,1046,-3934,7654
43677202,4189,0,-0.06139263,1.9227861,-10.103899,0.020024981,-0.0039793034,-0.07669747,33.875,78.0,0.0023928226,1114658,2158,2739,-2272,10
43780065,4083,0,0.60222965,-0.6223208,-10.178603,-0.006902731,-0.0031941882,-0.05002728,33.75,78.0,0.0023928226,1114658,2267,-2372,-4903,7659
43882998,4224,0,-0.79438984,-1.1425327,-10.714698,0.0059382473,-0.0004728005,-0.062153958,33.875,78.0,0.0023928226,1114658,3055,4309,-2320,8193
43983805,4240,0,-0.8323654,-0.19027588,-10.200568,0.015649516,0.0040775454,-0.021959616,33.875,78.0,0.0023928226,1114658,2457,2999,-823,7659
44082504,4188,0,-0.9977338,0.39646786,-9.312303,0.008784668,0.015197917,-0.047420092,33.875,78.0,0.0023928226,1114658,925,4171,-4597,8193
44187498,4233,0,0.20649722,1.0573862,-9.648894,-0.020338504,0.0099471565,-0.045075525,33.875,78.0,0.0023928226,1114658,1142,-1859,-4674,8193
44288265,4200,0,-0.6914754,-0.24442738,-10.039655,-0.017655585,-0.0038253001,-0.025348485,33.875,78.0,0.0023928226,1114658,-94,1385,-4142,8192
44387004,4239,0,-0.4082319,-0.85234475,-9.803987,-0.007863163,-0.0011120178,-0.02846737,34.0,78.0,0.0023928226,1114658,1032,2583,-4372,8193
44491973,4208,0,0.046191357,-1.0017577,-10.704803,-0.012599011,0.008394249,-0.04970535,33.875,78.0,0.0023928226,1114658,113,-1437,-2272,8193
44592769,4204,0,-0.9486401,0.5718463,-10.213341,-0.0087891985,0.010534589,-0.03658276,33.875,78.0,0.0023928226,1114658,-1290,3828,1555,4373
44693599,4234,0,-0.6803144,1.0616809,-9.077846,-0.009307916,0.0024684353,-0.043663103,33.75,78.0,0.0023928226,1114658,-1394,3302,-5427,7689
44794395,4231,0,-0.37187374,0.4962694,-9.658635,0.026193323,0.0028882371,-0.05918478,33.875,78.0,0.0023928226,1114658,1188,3767,-3775,7686
44895206,4203,0,0.933849,-0.955395,-10.962419,-0.0031036008,-0.009429745,-0.041169174,33.875,78.0,0.0023928226,1114658,-672,-3248,-2549,8193
44996009,4245,0,-0.78637296,-1.1125731,-10.551902,-0.0145628285,-0.0016965368,-0.038277116,33.875,78.0,0.0023928226,1114658,-1156,3492,831,8193
45096830,4266,0,-0.037338957,-0.27242747,-10.505077,0.007623765,-0.0055171107,-0.026620004,34.0,78.0,0.0023928226,1114658,-913,526,-1404,0
45201765,4174,0,-0.7127708,0.80325216,-9.892449,0.0083971,-0.0064511662,-0.06723365,34.0,78.0,0.0023928226,1114658,165,4447,-1286,10
45302565,4173,0,0.66085047,-0.52326804,-10.266358,-0.023289295,-0.013513869,-0.020628894,33.875,78.0,0.0023928226,1114658,-998,-1922,-2990,10
45406515,4169,0,0.22866628,-1.9064856,-10.484209,0.018507762,-0.013492617,-0.06337378,33.875,78.0,0.0023928226,1114658,1212,-918,-7867,2048
45506385,4320,0,-0.2442734,-1.4531517,-10.729605,-0.008871661,0.005283,-0.045120917,33.875,78.0,0.0023928226,1114658,-3312,195,411,7694
45608159,4219,0,-0.2740243,0.8723507,-9.620461,-0.0009372655,0.012809403,-0.030612666,33.875,78.0,0.0023928226,1114658,1174,3722,-1284,7697
45706815,5242,0,-1.0252242,0.7689051,-9.532296,-0.02241778,0.0021037688,-0.04044248,33.75,78.0,0.0023928226,1114658,-451,529,1942,0
45810764,6253,0,-0.91328734,-0.15568821,-9.105774,-0.025386836,-0.0012050981,-0.057411816,34.0,78.0,0.0023928226,1114658,831,1656,-4256,10
45912669,5305,0,-0.5054261,-0.7507993,-9.663895,-0.020472521,0.00063244195,-0.060209833,33.875,78.0,0.0023928226,1114658,171,1077,-4098,4403
46013446,4232,0,1.2496742,0.21169733,-10.123263,-0.019030439,0.0050806054,-0.027811674,33.875,78.0,0.0023928226,1114658,913,-4782,-67,7717
46115265,4079,0,0.643903,0.54934144,-9.008505,0.016486794,-0.00252238,-0.033284698,33.875,78.0,0.0023928226,1114658,-215,-90,-2443,8192
46217158,4243,0,-0.5563023,1.0034833,-8.598907,0.031703748,-0.002278385,-0.037651647,34.0,78.0,0.0023928226,1114658,1925,4065,-7876,10
46317914,5109,0,0.79880005,-0.29015106,-10.1857815,-0.024285529,-0.00880682,-0.060801603,34.0,78.0,0.0023928226,1114658,-656,-2381,1396,8192
46417665,4112,0,0.01726905,-1.1107818,-9.390494,0.036976654,-0.008104281,-0.021049201,33.875,78.0,0.0023928226,1114658,99,140,-4634,7716
46521614,4145,0,1.0110688,0.22179943,-11.790555,0.01825542,0.0011047767,-0.06508342,34.0,78.0,0.0023928226,1114658,761,-1450,1221,8192
46621365,4200,0,-0.8431445,0.84718823,-8.751682,-0.022412505,-0.0023942606,-0.02054931,34.0,78.0,0.0023928226,1114658,-590,3677,-5283,7725
46723214,5211,0,0.68482435,0.8281124,-9.536259,-0.015455554,0.0063478546,-0.05904083,34.125,78.0,0.0023928226,1114658,977,-3150,-2805,8193
46824038,4149,0,-0.40234017,0.10492487,-9.61971,0.01908133,-0.00832653,-0.03929199,34.0,78.0,0.0023928226,1114658,2858,3526,-1482,7725
46924847,4147,0,-0.43755555,-1.3280815,-10.05968,-0.012586755,-0.002480944,-0.033497393,34.0,78.0,0.0023928226,1114658,3722,645,-5724,7738
47029822,4207,0,-0.5496316,-0.5129276,-10.161075,0.014697639,-0.007613786,-0.03088955,34.0,78.0,0.0023928226,1114658,1451,2617,-2491,2048
47130683,4226,0,-0.8707124,1.4314415,-9.506279,0.023832036,0.0028464375,-0.047922254,34.0,78.0,0.0023928226,1114658,629,1219,-7757,7738
47229320,4156,0,-0.34605187,1.5026467,-9.238892,0.018534018,0.0016635271,-0.031135924,34.0,78.0,0.0023928226,1114658,1539,401,-4186,10
47334348,6291,0,-0.65941054,0.12992193,-9.684561,-0.0030809501,-0.0019278101,-0.043497395,34.0,78.0,0.0023928226,1114658,594,5749,-2575,7748
47433015,4155,0,0.052886408,-0.65947556,-10.156878,0.013620511,-0.016690422,-0.05738194,34.0,78.0,0.0023928226,1114658,620,-1654,-7690,10
47533815,4164,0,-0.32650307,-1.6790106,-10.562212,-0.019508496,0.0052275453,-0.009766364,34.0,78.0,0.0023928226,1114658,-2160,-115,1393,8193
47636717,4203,0,-0.85381603,0.9559453,-10.722684,0.013659076,0.007829187,-0.08406122,34.0,78.0,0.0023928226,1114658,2797,2915,-107,7755
47738572,5258,0,-0.3506467,1.542688,-10.132695,-0.015571533,0.008402316,-0.026342632,34.125,78.0,0.0023928226,1114658,-799,-1571,-1682,7761
47841546,5320,0,0.55700076,0.06972824,-11.481373,0.021213248,-0.0096789785,-0.067991436,34.0,78.0,0.0023928226,1114658,573,3620,-1325,8193
47942370,4306,0,0.59990865,-1.1546569,-10.85063,-0.015756873,-0.0036940137,-0.053841777,34.125,78.0,0.0023928226,1114658,1111,-4139,-99,7767
48043183,4318,0,-0.55841404,-0.6657675,-10.999131,0.0011174983,0.0025582325,-0.067598924,34.0,78.0,0.0023928226,1114658,439,3186,1799,7767
48143947,5332,0,0.36988702,0.13999495,-10.575738,-0.011923054,-0.007559787,-0.060545832,34.125,78.0,0.0023928226,1114658,1441,-3053,-1852,7770
48248865,4106,0,0.13440502,0.5589277,-9.463376,0.004685046,-0.009852933,-0.0067239073,34.125,78.0,0.0023928226,1114658,216,157,-4741,7773
48345577,4313,0,-0.34912556,0.51499575,-10.383429,0.0068713217,0.0022650778,-0.05108568,34.125,78.0,0.0023928226,1114658,-930,3419,286,8193
48450503,4161,0,-0.7931411,-0.8473046,-10.169062,-0.0067008897,0.007990205,-0.030826388,34.125,78.0,0.0023928226,1114658,1341,713,-8395,8193
48551265,4079,0,0.4098544,0.2453254,-10.724202,-0.008337853,0.0025049665,-0.036826767,34.125,78.0,0.0023928226,1114658,-2026,250,3990,7781
48652072,4073,0,0.5283264,0.94165516,-9.821375,0.02163254,-0.0060936133,-0.075895764,34.25,78.0,0.0023928226,1114658,2498,-365,-9795,7780
48752865,4093,0,-0.8036588,0.42856404,-9.40314,-0.013204027,0.01798928,-0.03873243,34.0,78.0,0.0023928226,1114658,-65,736,-10857,7791
48855764,4199,0,0.29461467,-0.75710255,-9.480302,-0.0054636993,-0.012340145,-0.03649368,34.0,78.0,0.0023928226,1114658,-486,-2914,-9904,7787
48954512,4196,0,-0.5300505,-0.3606463,-9.956733,-0.024064861,-0.0022032536,-0.032665808,34.0,78.0,0.0023928226,1114658,410,-1171,-4881,8193
49057365,4195,0,0.5350337,0.9349326,-10.462817,-0.0034611423,0.0015221273,-0.023751747,34.0,78.0,0.0023928226,1114658,-1980,-1997,-1632,0
49159228,5229,0,-0.38087574,1.7981428,-10.121573,-0.01687762,0.0035407867,-0.047845393,34.0,78.0,0.0023928226,1114658,2741,-376,-3623,7799
49266341,4221,0,-1.5155534,-0.40862006,-9.548722,-0.01745626,0.003596112,-0.031900954,34.0,78.0,0.0023928226,1114658,2433,2294,-6437,7799
49367143,4213,0,-0.46304977,-0.35972172,-10.272948,0.0037366978,0.004112026,-0.03926994,34.125,78.0,0.0023928226,1114658,2971,1098,-4049,7791
49467947,5282,0,-0.11358573,0.5275329,-10.806118,-0.011644582,-0.0040703956,-0.031650696,34.125,78.0,0.0023928226,1114658,552,-2605,-2428,7793
49570815,4197,0,-1.1082819,1.2687365,-9.948446,0.012372141,0.00321019,-0.026823578,34.125,78.0,0.0023928226,1114658,-592,3147,-1424,2048
49669566,4242,0,-0.032634437,0.9297961,-10.09238,0.029305413,-0.021713769,-0.037613828,34.125,78.0,0.0023928226,1114658,1551,2655,-2593,7803
49774515,4175,0,-0.16126132,-1.088466,-9.831229,-0.0072810934,0.016073938,-0.03469307,34.125,78.0,0.0023928226,1114658,-89,1505,-7216,16904
49875314,4170,0,-0.9673028,0.49692535,-10.051369,0.020245988,0.012429447,-0.05117163,34.125,78.0,0.0023928226,1114658,1051,2873,-5696,7813
49976122,5257,0,-0.07276555,1.5844184,-9.794836,0.02456867,0.012089827,-0.075613715,34.25,78.0,0.0023928226,1114658,185,601,-9544,4475
50074815,4199,0,-1.0553592,1.0824699,-8.49391,-0.013422958,0.0037777578,-0.04294548,34.125,78.0,0.0023928226,1114658,-1569,1417,-9107,8193
50179869,4254,0,-0.14322492,-0.6536358,-9.650113,0.014344326,-0.0040828534,-0.053242333,34.125,78.0,0.0023928226,1114658,1109,2611,-4544,4474
50280670,4256,0,-0.15136665,-0.38751075,-9.368835,-0.02784394,0.0030072252,-0.055664614,34.125,78.0,0.0023928226,1114658,-573,-349,456,4471
50379315,4151,0,0.2955889,-0.32835254,-9.244244,0.019382268,0.0025855647,-0.054875925,34.125,78.0,0.0023928226,1114658,-793,-1667,-3410,7820
50484315,4146,0,0.7137831,0.77496123,-9.150595,0.008692633,0.00021827647,-0.06043959,34.25,78.0,0.0023928226,1114658,123,-842,-3283,8192
50583089,4275,0,0.09407276,0.7736281,-9.864141,-0.03054455,0.018392578,-0.011826209,34.25,78.0,0.0023928226,1114658,879,1504,-2248,4473
50685934,4219,0,-0.5746626,-0.8979136,-9.9651165,-0.033786133,-0.00444969,-0.022081902,34.125,78.0,0.0023928226,1114658,-2247,-240,-1307,8192
50786714,4192,0,0.9515448,-0.9837921,-9.954122,-0.021019027,0.008245907,-0.056363255,34.25,78.0,0.0023928226,1114658,1822,-5454,-5579,8192
50887514,4199,0,0.3314411,-0.3656926,-9.504144,0.032470778,0.000606696,-0.04714949,34.25,78.0,0.0023928226,1114658,-345,368,-5582,8192
50986275,4260,0,-1.2349339,0.36702543,-9.899501,0.005791343,-0.0090043275,-0.031370137,34.25,78.0,0.0023928226,1114658,-701,4977,81,4481
51091221,4176,0,0.10781497,0.4183441,-9.724165,-0.0006276662,-0.011412882,-0.021543128,34.25,78.0,0.0023928226,1114658,1476,-152,-4249,7842
51197264,5250,0,0.022120023,-0.56501657,-9.505338,-0.037791766,-0.007817887,-0.043600712,34.125,78.0,0.0023928226,1114658,4000,-1495,-6214,9
51297014,4154,0,0.85708463,-0.6953861,-10.617804,-0.0012742905,0.007665345,-0.051824555,34.125,78.0,0.0023928226,1114658,-2663,-4243,766,9
51397824,4209,0,-0.0988487,0.3960273,-9.023333,-0.0019567774,-0.007350652,-0.042315647,34.25,78.0,0.0023928226,1114658,1387,-2659,-6973,9
51499664,5227,0,0.50412107,0.8618931,-8.524527,0.017440218,-0.009400586,-0.04872077,34.125,78.0,0.0023928226,1114658,3322,-2014,-10996,8192
51603615,4159,0,0.13087359,-0.25924712,-9.170982,-0.019568395,-0.0012798923,-0.045453664,34.125,78.0,0.0023928226,1114658,2435,-175,-3599,7861
51705544,5330,0,0.5111616,-1.2923815,-9.391295,-0.019373205,0.016545497,-0.047933593,34.125,78.0,0.0023928226,1114658,237,-3036,-1833,8193
51806347,4282,0,-0.02376393,-0.39065284,-9.2733555,-0.0046041976,0.010782709,-0.030773263,34.25,78.0,0.0023928226,1114658,1089,-1802,-2259,7863
51906025,4180,0,0.12449348,0.4500868,-9.874743,0.014216294,-0.019707182,-0.014310004,34.25,78.0,0.0023928226,1114658,319,-911,-700,0
52007942,5327,0,1.1849662,0.64957273,-9.068091,0.006841684,-0.0046458235,-0.035082735,34.25,78.0,0.0023928226,1114658,2034,-3536,-4106,7866
52110770,5254,0,0.32413515,-0.5620599,-10.019783,-0.021557849,0.002487327,-0.030053584,34.25,78.0,0.0023928226,1114658,1630,-1440,-312,10
52208416,4193,0,-0.07319354,-1.1457548,-11.225661,0.021481588,-0.023803646,-0.025354652,34.25,78.0,0.0023928226,1114658,3368,2365,5201,8192
52314489,4119,0,-0.70740426,-0.6102484,-10.497551,-0.03030872,0.0027699608,-0.018317558,34.125,78.0,0.0023928226,1114658,1406,-3658,-8079,8193
52413175,5259,0,0.20389974,0.030020079,-11.008701,0.020472623,0.0066307844,-0.06435654,34.125,78.0,0.0023928226,1114658,1318,422,-55,10
52517145,6331,0,0.79060453,0.8468301,-8.690265,0.028740717,0.008061979,-0.059087496,34.125,78.0,0.0023928226,1114658,2794,2061,-8849,0
52616875,4129,0,-0.855517,-0.588652,-9.495083,-0.020187898,-0.018314198,-0.026442707,34.375,78.0,0.0023928226,1114658,2410,2838,-7045,0
52719765,4185,0,-1.7714413,-0.4096214,-11.45126,-0.019167706,-0.0036703465,-0.04380488,34.25,78.0,0.0023928226,1114658,424,4022,5794,7889
52818475,5261,0,-0.73284817,-1.4336214,-10.173118,0.013415753,-0.0070813824,-0.0542213,34.25,78.0,0.0023928226,1114658,-1641,105,-5654,8193
52921365,5206,0,0.39603734,0.7815214,-9.955369,0.04539676,0.011326985,-0.0899177,34.25,78.0,0.0023928226,1114658,1208,366,-10555,7898
53022224,4212,0,-0.26896387,1.5643787,-8.856993,0.006861742,0.002922102,-0.06612547,34.25,78.0,0.0023928226,1114658,1490,504,-5014,8193
53121914,6300,0,-1.0621907,0.18131724,-9.367251,0.008158723,-0.004402306,-0.045072295,34.25,78.0,0.0023928226,1114658,1694,4206,75,10
53228004,4240,0,-0.4256994,-0.89002466,-8.87311,-0.022978496,-0.011026188,-0.030765366,34.25,78.0,0.0023928226,1114658,4914,-2983,-8926,8193
53328770,4206,0,-0.016860513,-0.6901926,-10.454293,0.01469018,-0.0035229947,-0.061602365,34.125,78.0,0.0023928226,1114658,4064,967,-3867,7894
53429598,5284,0,0.092041165,-0.7158208,-10.491943,-0.016137946,0.004832502,-0.05560629,34.375,78.0,0.0023928226,1114658,2093,-3765,-2594,7905
53533578,4263,0,0.02033118,0.897557,-10.952615,0.011269723,0.0011447748,-0.0045343474,34.25,78.0,0.0023928226,1114658,1148,-761,-1389,10
53630167,4252,0,0.4179703,0.3723866,-9.799084,-0.003757696,0.0045084166,-0.043398015,34.25,78.0,0.0023928226,1114658,-3251,1115,183,10
53733014,6299,0,0.98411405,0.13113576,-10.005194,-0.0033205964,-0.0071555357,-0.071275905,34.375,78.0,0.0023928226,1114658,-2042,-2214,-1904,7906
53834865,5232,0,-0.21497251,-0.41585326,-10.57395,0.023033643,-0.0007852381,-0.07635525,34.25,78.0,0.0023928226,1114658,3447,199,-5877,10
53938815,4166,0,-0.34074888,-0.07380439,-10.653462,-0.0042922935,-0.0006604948,-0.06752296,34.25,78.0,0.0023928226,1114658,-1971,1606,-1418,8193
54035459,4223,0,-1.3473961,0.25953665,-10.515981,0.022004781,0.006021646,-0.05249414,34.25,78.0,0.0023928226,1114658,298,5171,-499,10
54138366,4249,0,-0.13493402,0.5846983,-9.996582,-0.017370379,0.0023997219,-0.031746898,34.375,78.0,0.0023928226,1114658,-2291,-860,2750,7932
54243315,4172,0,-0.8692336,0.54796374,-10.577413,-0.0045555755,-0.015404568,-0.055668164,34.375,78.0,0.0023928226,1114658,2736,5286,2885,7921
54344160,6307,0,-0.8583688,-1.2666728,-9.99161,0.011323754,-0.010851952,-0.09372096,34.375,78.0,0.0023928226,1114658,1885,2445,-11208,7925
54446003,5287,0,0.042308345,-1.2938693,-10.640019,0.017076915,-0.011889369,-0.037390538,34.375,78.0,0.0023928226,1114658,-907,-288,-454,8193
54547869,4250,0,-0.7616045,0.6970448,-9.80624,-0.011469201,0.016354347,-0.043510217,34.375,78.0,0.0023928226,1114658,1826,-1739,-5434,4538
54651774,5259,0,-1.0172786,0.32764965,-9.318404,-0.021132432,-0.011485334,-0.03715826,34.5,78.0,0.0023928226,1114658,-561,3408,4056,7937
54751528,4211,0,0.99604857,-0.29376695,-8.680143,0.0029815016,-0.011069629,-0.053886756,34.375,78.0,0.0023928226,1114658,-4002,-1766,-4049,2048
54854422,4177,0,0.21933778,-0.8118919,-7.992319,-0.012834913,-0.023358678,-0.025983378,34.375,78.0,0.0023928226,1114658,-3986,-2047,-3832,7938
54955215,4146,0,0.1488055,-0.6270956,-9.11421,-0.003673064,0.01642662,-0.026256235,34.375,78.0,0.0023928226,1114658,-218,-471,-5939,7938
55057065,5176,0,-0.077521294,1.4240336,-8.767843,0.01552436,0.014025704,-0.040417522,34.625,78.0,0.0023928226,1114658,4333,865,-8313,0
55161020,4171,0,-0.2980554,-0.021659229,-10.348009,0.028679656,-0.012576882,-0.039325435,34.5,78.0,0.0023928226,1114658,5987,1863,-2072,9
55257615,4140,0,0.29464802,-1.3566158,-10.911501,-0.0138636045,0.0012753011,-0.006722656,34.5,78.0,0.0023928226,1114658,-4821,294,449,7954
55362615,4200,0,0.080080874,0.12294839,-11.057294,-0.006776719,-0.004079617,-0.039603468,34.25,78.0,0.0023928226,1114658,-1701,-1156,-1189,9
55465587,4272,0,0.53428024,1.088346,-11.114671,-0.013074035,-0.003588357,-0.034192134,34.5,78.0,0.0023928226,1114658,307,-1657,1487,7959
55566357,6342,0,0.17125127,1.3877904,-10.856723,0.004486736,-0.012419645,-0.081142895,34.25,78.0,0.0023928226,1114658,-45,-62,-1785,7961
55667168,4253,0,0.4376408,-0.58311373,-10.433448,0.0035863025,-0.018749699,-0.038997285,34.375,78.0,0.0023928226,1114658,-456,-190,-1566,7960
55767951,4237,0,-0.18824206,-1.4668542,-10.616495,-0.010840685,-0.016089367,-0.030711347,34.375,78.0,0.0023928226,1114658,286,-1663,-3685,7966
55870814,4199,0,-0.36763912,-1.5016595,-10.623478,-0.010366889,0.0004298058,-0.026921438,34.375,78.0,0.0023928226,1114658,-3200,-614,-1025,9
55969586,4272,0,-0.6760064,0.35252532,-11.369299,-0.0008957394,0.010079385,-0.06610065,34.25,78.0,0.0023928226,1114658,-1628,2688,-629,7971
56072439,4204,0,-0.5138251,1.3772029,-10.608614,-0.004914476,0.017160175,-0.06471136,34.5,78.0,0.0023928226,1114658,1830,1335,-5006,9
56173219,4205,0,0.1248794,0.7872516,-9.765258,-0.004842314,0.00068154023,-0.031248007,34.375,78.0,0.0023928226,1114658,-738,621,-6970,8192
56274015,4197,0,0.5283589,-0.35349664,-10.294838,-0.008687035,-0.014273691,-0.027538946,34.375,78.0,0.0023928226,1114658,1342,-566,-158,4558
56376914,4129,0,-0.3379623,-1.1423256,-10.097727,0.01314794,-0.014021875,-0.048736133,34.375,78.0,0.0023928226,1114658,2407,-173,-3707,0
56478765,5221,0,-0.8356161,-0.39010552,-10.076347,-0.021467948,0.023043932,-0.01364185,34.375,78.0,0.0023928226,1114658,-1586,761,-2178,10
56580676,4261,0,0.3598519,1.3179864,-10.680333,0.005271453,0.0016901437,-0.04136868,34.5,78.0,0.0023928226,1114658,687,-1738,-124,4576
56679315,4171,0,0.43317288,1.1167291,-9.417397,-0.004678676,-0.014439919,-0.03958205,34.375,78.0,0.0023928226,1114658,1379,-1176,-3155,8192
56784315,4156,0,-0.11826286,-0.05384106,-9.642491,0.020285357,-0.015480871,-0.06424452,34.375,78.0,0.0023928226,1114658,473,3279,-4292,8193
56883090,4276,0,0.13782352,-0.6158196,-11.018395,0.017075902,-0.0062852274,-0.04141522,34.5,78.0,0.0023928226,1114658,1814,-196,-2884,4570
56988015,4146,0,-1.1251696,0.19947268,-10.607089,0.0092246095,0.025370888,-0.016988292,34.5,78.0,0.0023928226,1114658,707,3413,-3572,7998
57084669,4254,0,-1.7174307,-0.6582136,-9.626742,0.021174816,0.016496418,-0.03630337,34.625,78.0,0.0023928226,1114658,2799,3858,-4698,4579
57187514,4199,0,0.37500867,2.2918859,-9.774933,-0.0044706683,0.027757864,-0.0286935,34.5,78.0,0.0023928226,1114658,73,-979,-8481,7996
57289412,5250,0,0.13591805,1.8301173,-10.300207,-0.005272542,0.007835482,-0.07495877,34.5,78.0,0.0023928226,1114658,4341,-487,-4041,8192
57392265,5220,0,0.22708301,-0.9687831,-11.034688,-0.020934949,-0.021667223,-0.058324885,34.5,78.0,0.0023928226,1114658,-1093,-2608,-1307,4577
57492015,4126,0,-1.2942828,-0.6290494,-8.891477,-0.0013198969,0.005047954,-0.008048135,34.5,78.0,0.0023928226,1114658,-2349,3885,-6544,9
57592815,4126,0,-0.9152208,-1.5727526,-9.187047,0.021831121,0.019063784,-0.06695777,34.5,78.0,0.0023928226,1114658,316,3558,-9732,8006
57698865,4200,0,0.16655156,1.8087525,-10.476481,0.025367156,0.018884763,-0.07453109,34.625,78.0,0.0023928226,1114658,2731,232,-3374,8008
57798616,4197,0,0.36595154,1.3824506,-10.183214,-0.008275395,-0.0319927,-0.04360087,34.625,78.0,0.0023928226,1114658,2485,-1618,-1735,9
57895215,4133,0,0.43363053,1.1260568,-11.240861,-0.008500849,-0.03444222,-0.04254399,34.375,78.0,0.0023928226,1114658,5851,-3073,2972,8192
58000214,4164,0,0.91699225,-0.5542887,-11.203876,-0.018350083,-0.02461091,-0.023507634,34.625,78.0,0.0023928226,1114658,-1845,-931,3182,9
58101014,4194,0,-0.747099,-0.9201157,-10.097133,-0.01674383,0.021984551,-0.03320943,34.375,78.0,0.0023928226,1114658,-3589,2635,-6894,9
58201815,4187,0,-0.38583198,0.08508055,-9.206168,-0.01773537,0.008359047,-0.019373396,34.5,78.0,0.0023928226,1114658,-3531,4241,-2353,9
58304744,4230,0,-1.0518814,0.84732705,-9.122177,0.0036196215,0.0049459725,-0.020883225,34.375,78.0,0.0023928226,1114658,1483,4940,-10735,8025
58407629,4214,0,1.4249088,-0.14129919,-9.824143,-0.0004619781,-0.027795546,-0.03305396,34.5,78.0,0.0023928226,1114658,779,-3808,-1606,9
58508449,4198,0,-1.3576678,-0.6764962,-9.167892,-0.029110914,-0.013219143,0.00437074,34.625,78.0,0.0023928226,1114658,-500,2440,-7719,9
58609215,4201,0,-0.46792048,-0.22225341,-10.67841,-0.0070163915,-0.030251592,-0.035803862,34.5,78.0,0.0023928226,1114658,3813,-1813,-2350,8193
58712159,4192,0,0.45014915,1.9432236,-10.393784,0.010508133,0.00031100516,-0.06556474,34.5,78.0,0.0023928226,1114658,2749,-2171,-3822,8041
58812943,4164,0,-0.39702109,1.171651,-10.265208,0.01502429,0.00018274158,-0.05432023,34.625,78.0,0.0023928226,1114658,4409,336,-3327,8059
58915869,4252,0,-1.1924725,-0.88422203,-9.202538,0.001175895,0.0010679651,-0.030290412,34.75,78.0,0.0023928226,1114658,-1305,2498,-7651,4609
59016670,4255,0,0.010670417,0.26724374,-10.351241,0.0121572735,-0.002750221,-0.03669005,34.5,78.0,0.0023928226,1114658,5160,-104,-4475,4613
59113215,4183,0,0.3810358,-0.8518457,-11.008939,0.007928075,-0.009840982,-0.05199617,34.5,78.0,0.0023928226,1114658,-2324,-2351,-2171,8192
59220315,4149,0,-0.9561581,-0.11197198,-8.631308,0.010902823,0.030349594,-0.053184573,34.5,78.0,0.0023928226,1114658,-3766,3538,-8395,8193
59319045,4230,0,-0.71539503,1.3359147,-10.239797,-0.020873507,-0.017395692,-0.02654477,34.5,78.0,0.0023928226,1114658,577,233,2587,8192
59419889,4270,0,-0.41981012,0.18608478,-8.872748,0.011149449,0.03312512,-0.026272528,34.5,78.0,0.0023928226,1114658,-1361,4434,-6084,4619
59522714,4198,0,-0.82826793,-1.3906906,-9.698953,-0.0055797966,0.004795526,-0.037711076,34.625,78.0,0.0023928226,1114658,-2891,385,-6728,0
59625615,4146,0,0.3100928,0.7301938,-11.33628,-0.020364625,-0.022139698,-0.014976363,34.625,78.0,0.0023928226,1114658,4416,-1775,2886,8072
59724314,4155,0,-0.7136329,-0.33946246,-10.039922,-0.02501888,-0.003169025,0.0015111249,34.5,78.0,0.0023928226,1114658,-5325,1191,164,8192
59829315,4156,0,-0.20734799,0.4069337,-9.750635,-0.003513742,-0.019903298,-0.036177035,34.5,78.0,0.0023928226,1114658,-1592,-284,-2667,9
59929079,4215,0,-0.8259373,-0.5209661,-10.071475,-0.010105538,0.0080742715,0.0033732294,34.625,78.0,0.0023928226,1114658,-1412,3330,1300,8068
60030962,4248,0,-0.5260677,0.35504186,-9.188868,0.012244904,0.00818439,-0.07720368,34.625,78.0,0.0023928226,1114658,4379,2137,-7439,2049
61047315,5251,0,0.6670693,-0.37084913,-11.730142,0.006753501,0.0025336577,-0.09311558,34.625,78.0,0.0023928226,1114658,5180,-1304,-4946,8100
61152315,4154,0,-0.8699647,-0.83718026,-11.238359,-0.012393976,0.008580253,0.010963035,34.625,78.0,0.0023928226,1114658,-1227,1490,-1844,8193
61253171,5231,0,-1.1216307,0.13361292,-9.250439,-0.00038300658,0.022717234,-0.07806192,34.625,78.0,0.0023928226,1114658,-4074,2540,-11304,8193
61356020,4151,0,0.05491814,0.61297846,-10.123382,-0.0086576715,-0.024987074,-0.017290516,34.625,78.0,0.0023928226,1114658,2173,515,1665,8111
61456825,4156,0,-0.20802228,-0.34416175,-10.701691,-0.0043194527,-0.004907942,-0.020946257,34.625,78.0,0.0023928226,1114658,-976,599,-248,0
61557615,4146,0,0.35710207,-0.91020143,-9.273093,0.009071851,0.027289065,-0.03855049,34.625,78.0,0.0023928226,1114658,-896,2510,-3871,8107
61658415,4146,0,-0.37639955,-0.08567856,-8.486304,0.010267481,0.015757307,-0.09243741,34.625,78.0,0.0023928226,1114658,-1791,43,-15196,8124
61759215,4170,0,0.5498578,1.6430364,-11.63657,-0.012286144,-0.010938219,-0.04967085,34.625,78.0,0.0023928226,1114658,5673,-1906,6919,8130
61860015,4123,0,0.4966684,1.6873256,-9.65902,0.019217515,-0.0027132921,-0.05774255,34.625,78.0,0.0023928226,1114658,4218,-248,-7815,4654
61960822,4127,0,0.10829477,0.5396763,-8.543543,0.030530328,0.0064805713,-0.094521955,34.75,78.0,0.0023928226,1114658,701,1784,-12369,8127
62063714,4200,0,-0.552084,-0.8975611,-10.333854,0.002501112,-0.009556429,0.012552984,34.75,78.0,0.0023928226,1114658,-1791,511,334,9
62165598,5284,0,-0.10729549,0.5484825,-8.557784,0.009132343,0.035157952,-0.03847554,34.75,78.0,0.0023928226,1114658,-1778,2773,-6908,8119
62268503,5288,0,-0.35961452,-0.37011847,-9.487715,-0.03495413,-0.008211688,-0.07451074,34.75,78.0,0.0023928226,1114658,-736,-2551,-2817,8193
62369265,4200,0,-0.4471096,-0.039879058,-8.933408,0.012928067,0.0076103187,-0.0069395774,34.75,78.0,0.0023928226,1114658,-2525,1669,-6374,9
62468005,5291,0,1.044223,0.4079557,-9.233123,0.022115342,0.010298722,-0.09602944,34.75,78.0,0.0023928226,1114658,1788,-861,-7309,8193
62573005,4237,0,-0.58730924,0.1970465,-10.577412,-0.022215502,-0.0037449207,-0.03718222,34.625,78.0,0.0023928226,1114658,-285,493,797,8193
62673765,5251,0,0.6676626,0.08975951,-9.84977,0.016884523,0.009076506,-0.08878176,34.625,78.0,0.0023928226,1114658,1758,-2025,-7258,8132
62774575,4187,0,0.33539462,1.9456553,-9.0223675,0.035388887,0.019716617,-0.070800826,34.75,78.0,0.0023928226,1114658,2925,70,-11205,16907
62875365,4162,0,-0.46640217,1.3209469,-9.004819,0.020251652,0.01852275,-0.07634978,34.625,78.0,0.0023928226,1114658,2347,516,-9969,8192
62980365,4195,0,0.53252786,-1.0596039,-10.102534,-0.0030025283,-0.017769033,-0.03185308,34.75,78.0,0.0023928226,1114658,1443,-1594,1018,8152
63081164,4161,0,0.6509675,0.26253697,-10.722602,0.017027343,0.002574559,-0.06693343,34.625,78.0,0.0023928226,1114658,4006,-2610,-3176,8192
63184065,4110,0,-0.4811505,0.85843146,-11.374265,-0.0058923867,0.0018594987,-0.04722461,34.625,78.0,0.0023928226,1114658,2439,-1742,-888,8157
63284865,5238,0,0.79563576,1.1489974,-8.800334,0.010049095,0.03024771,-0.043641593,34.75,78.0,0.0023928226,1114658,-129,756,-13442,8152
63387765,5250,0,-0.4779895,0.13449442,-9.048227,-0.020060351,0.0031190468,-0.030180411,34.75,78.0,0.0023928226,1114658,-2723,2307,-3425,2048
63488564,4200,0,0.592121,-0.4412975,-10.370768,-0.010877116,-0.014081219,-0.028863218,34.75,78.0,0.0023928226,1114658,-571,-666,-2875,2048
63591506,4241,0,-0.57357377,-0.7730938,-10.010092,-0.007684611,-0.014415614,-0.03378412,34.625,78.0,0.0023928226,1114658,-4371,-742,-7564,8193
63692264,4199,0,0.12804738,0.17830186,-10.673469,-0.010988101,-0.018699873,-0.029329512,34.75,78.0,0.0023928226,1114658,1411,1360,2964,9
63793065,4200,0,-0.19296184,1.1807374,-11.276476,-0.009869685,-0.017237635,-0.04026217,34.625,78.0,0.0023928226,1114658,5584,-2541,864,9
63893877,4212,0,-0.4021429,0.98619705,-9.794081,0.012104167,0.011649161,-0.06626239,34.75,78.0,0.0023928226,1114658,3278,-644,-4318,9
63996837,4272,0,0.5429754,0.6052623,-11.387239,0.015192389,0.0009107643,-0.061161466,34.875,78.0,0.0023928226,1114658,2923,-3716,1866,0
64095468,4204,0,-1.0194123,-0.728938,-9.55325,-0.00033925765,0.00016334161,-0.008289505,34.875,78.0,0.0023928226,1114658,-669,2957,-9465,8193
64200503,4230,0,0.47932497,0.071409374,-10.270329,0.0046283854,-0.00089677365,-0.059269775,34.75,78.0,0.0023928226,1114658,-1377,-3187,-1438,8193
64301265,4176,0,1.2619123,1.4172884,-10.450946,0.00047324083,-0.010986464,-0.08229111,34.75,78.0,0.0023928226,1114658,4160,-1463,-6178,8192
64397900,4213,0,0.5965189,0.3214176,-9.160739,-0.0077826157,0.013443437,-0.024329085,34.75,78.0,0.0023928226,1114658,-1028,3448,-3123,8
64505006,4234,0,0.19759576,0.26017705,-10.427332,0.0075855074,0.007040083,-0.089620225,34.875,78.0,0.0023928226,1114658,1104,-502,-7829,8193
64605765,4191,0,-0.69606173,-0.49244317,-8.395265,0.013848506,0.0061592488,-0.050082024,34.75,78.0,0.0023928226,1114658,149,4122,-9235,2048
64706565,4174,0,-0.1366625,0.50566995,-10.078815,-0.025533494,-0.026458371,0.02918476,34.875,78.0,0.0023928226,1114658,482,-800,1943,8208
64808414,5244,0,0.7042569,1.6226932,-11.929197,-0.0058606113,-0.0009275556,-0.07443403,34.75,78.0,0.0023928226,1114658,5526,-2465,5851,8
64908165,4160,0,0.24272804,-0.71293765,-8.901202,0.014202575,0.020559888,-0.04549581,34.875,78.0,0.0023928226,1114658,-4969,1197,-7287,8192
65011147,4282,0,-0.6620137,-1.5141042,-8.570574,0.010867911,0.012211062,-0.03708505,35.0,78.0,0.0023928226,1114658,-3155,2778,-5032,8199
65111940,4275,0,0.03561304,0.15122582,-10.002984,-0.002553493,-0.017746802,-0.052642465,34.75,78.0,0.0023928226,1114658,2162,-658,-524,8197
65212740,4235,0,0.34133932,0.31582794,-8.470673,0.010548361,0.02320181,-0.0620274,34.75,78.0,0.0023928226,1114658,34,1128,-7623,8195
65314526,4128,0,-1.1169794,0.90205294,-9.2971525,0.009720061,0.008223264,-0.04502194,34.875,78.0,0.0023928226,1114658,-895,3779,-6411,16907
65419515,5149,0,-0.057392973,0.010188379,-9.960114,0.018028256,0.019635467,-0.09725064,34.875,78.0,0.0023928226,1114658,-388,3872,-7386,2048
65519265,4097,0,-0.17519215,0.3193033,-11.501707,-0.017676262,-0.011583838,-0.06064753,34.75,78.0,0.0023928226,1114658,5589,361,3001,8223
65621151,4236,0,-0.75335145,0.024653345,-9.748541,-0.008703194,0.010078431,0.009889254,34.875,78.0,0.0023928226,1114658,1696,2821,-851,2049
65721931,5215,0,-0.61316884,0.589939,-9.866595,-0.0094801085,0.02048524,-0.005060398,34.875,78.0,0.0023928226,1114658,-1747,2267,-291,8193
65821664,4105,0,-0.34586477,0.9978657,-8.380683,0.0003211189,0.006793095,-0.006516359,34.75,78.0,0.0023928226,1114658,-997,3673,-10904,8240
65925615,4146,0,1.8462254,-0.5795003,-10.706473,0.0026278286,-0.035166286,-0.04367679,34.875,78.0,0.0023928226,1114658,-978,-1928,-3686,8221
66025365,4200,0,-0.53138715,-0.4108408,-9.729734,-0.018913979,0.022084339,-0.032251295,34.875,78.0,0.0023928226,1114658,141,2931,-4368,4730
66127218,5215,0,-0.5386655,0.53972757,-9.570941,0.015871394,0.0077718683,-0.059546772,35.0,78.0,0.0023928226,1114658,2716,1135,-3928,8192
66230161,5296,0,-0.07162624,0.3561433,-10.6158085,-0.010435202,0.009232448,-0.038151365,34.875,78.0,0.0023928226,1114658,-1716,821,-154,2049
66327764,4199,0,-0.36780408,0.16640952,-10.170986,-0.015870348,-0.037724115,-0.0019999805,34.875,78.0,0.0023928226,1114658,-723,690,-2624,0
66433815,4198,0,-0.3770026,-0.21234675,-11.147034,-0.0011930753,-0.018351853,-0.05269398,34.875,78.0,0.0023928226,1114658,2451,-2656,382,8193
66534614,4199,0,0.35317594,0.8616665,-10.268008,0.010115232,-0.003866908,-0.050124984,35.0,78.0,0.0023928226,1114658,249,-2111,-4775,16908
66639614,4200,0,-0.13456348,0.94298935,-9.9036455,0.013843104,0.020281397,-0.06290759,34.875,78.0,0.0023928226,1114658,1245,990,-6310,4748
66740414,4200,0,0.35203168,0.8835871,-10.639503,0.016499387,0.008571495,-0.09133198,34.875,78.0,0.0023928226,1114658,4540,2054,-4927,2049
66841214,4200,0,0.30439687,-0.2627318,-11.431186,-0.002267252,-0.019705163,-0.06874704,35.0,78.0,0.0023928226,1114658,3765,-2787,-1396,0
66942015,4200,0,0.31416357,-0.23207732,-11.434726,0.0027911013,-0.0055563366,-0.04717007,35.0,78.0,0.0023928226,1114658,674,-274,2839,9
67042815,4200,0,0.7815168,0.714053,-10.913164,-0.0058198213,-0.006178343,-0.049201116,35.0,78.0,0.0023928226,1114658,-1320,-2037,1053,9
67147901,4287,0,-0.22632216,1.5089583,-9.72082,0.002402922,0.009828943,-0.045789037,35.0,78.0,0.0023928226,1114658,2689,1059,-5911,4746
67248714,4299,0,-0.25764894,-0.0676445,-10.106988,-6.355328e-05,0.012856706,-0.031269997,34.875,78.0,0.0023928226,1114658,481,1656,-7304,4743
67349454,4240,0,-0.48590264,-0.7145048,-10.037162,-0.009507561,0.028621463,-0.008175645,35.0,78.0,0.0023928226,1114658,-1179,1085,-3878,8192
67450326,4312,0,-0.24204451,0.5895437,-9.156193,-0.0044988296,0.027467849,-0.018121129,34.875,78.0,0.0023928226,1114658,-1313,1035,-8073,4759
67553159,4216,0,0.39520183,2.1829991,-9.529487,0.01076937,0.0060103443,-0.054814823,34.875,78.0,0.0023928226,1114658,5118,203,-4378,8263
67653958,4200,0,0.4800075,1.6221204,-9.088526,0.022617383,0.0074915146,-0.060123038,35.0,78.0,0.0023928226,1114658,5357,955,-6458,9
67756855,4186,0,0.36153638,-1.0371218,-10.354475,0.011402221,-0.01752628,-0.07414003,34.75,78.0,0.0023928226,1114658,1581,-1280,-4959,0
67856564,5227,0,-0.6624039,-0.41908753,-8.906915,0.008562111,0.011716485,-0.048685666,35.125,78.0,0.0023928226,1114658,853,3774,-4958,9
67957376,4212,0,-0.2841391,-0.069794185,-7.9265265,0.0022875867,0.018317373,-0.040138803,35.0,78.0,0.0023928226,1114658,-1571,3004,-4730,2049
68057159,4244,0,0.28833234,1.1783217,-10.184808,-0.005569404,-0.0074607315,-0.027412536,35.0,78.0,0.0023928226,1114658,-2202,-2092,-346,0
68161064,4161,0,0.65209806,0.15587677,-10.262871,0.014951014,-0.008028948,-0.04292061,35.0,78.0,0.0023928226,1114658,-1347,-550,-3045,4766
68261865,5196,0,-0.18816085,-0.27652842,-10.070578,0.0065937564,-0.018033635,-0.05975434,34.875,78.0,0.0023928226,1114658,3278,1994,-4603,8287
68362664,4158,0,-0.3361091,-1.0317771,-9.777645,-0.012652207,0.014492247,-0.03285707,35.0,78.0,0.0023928226,1114658,-128,-2086,-8139,8193
68465585,4220,0,-0.4426206,0.9175654,-9.327901,0.018535689,0.008440021,-0.036411893,35.0,78.0,0.0023928226,1114658,1912,-671,-5028,9
68566386,4219,0,0.14282326,1.5921664,-10.32721,-0.023301264,0.007490349,-0.025478872,35.0,78.0,0.0023928226,1114658,-1168,-2611,-1775,8
68667185,5270,0,-0.48283046,2.729714,-9.9135895,0.009827075,0.010018874,-0.06657277,35.0,78.0,0.0023928226,1114658,3138,2267,-2730,8
68770065,4190,0,0.030078212,0.46633956,-10.758721,-0.021252904,0.0018658128,-0.045583088,34.875,78.0,0.0023928226,1114658,1714,-270,-429,8289
68873002,4197,0,0.6949715,-1.6290298,-11.155053,-0.0037182902,-0.006194544,-0.06352265,34.875,78.0,0.0023928226,1114658,187,-1787,-271,8193
68971664,4183,0,-0.3286534,-1.5328978,-10.142487,-0.028077068,0.004548849,-0.02329074,35.0,78.0,0.0023928226,1114658,-2004,-454,-718,8192
69072504,4221,0,-0.8884609,0.12739688,-9.581391,0.008054861,0.0012683191,-0.037459273,35.0,78.0,0.0023928226,1114658,-338,1871,-6900,8193
69177567,4303,0,-0.5406049,1.9708567,-9.152761,-0.022031993,0.017685855,-0.008587265,35.0,78.0,0.0023928226,1114658,664,2447,-1309,8193
69278317,4251,0,0.21451342,1.7559973,-9.747984,0.022465274,-0.020361006,-0.043105356,35.125,78.0,0.0023928226,1114658,1400,1043,-3436,4790
69379148,4283,0,0.40384907,-0.11886236,-10.338305,-0.022165293,-0.00504966,-0.035957094,34.75,78.0,0.0023928226,1114658,263,-644,333,8309
69482003,4238,0,0.32709017,-1.6655232,-11.060159,0.01078016,-0.009382412,-0.04919095,35.125,78.0,0.0023928226,1114658,1685,-2578,-1997,8193
69582765,4200,0,-0.22023055,-1.6632935,-10.528412,-0.011702313,0.0073259156,-0.04805342,35.125,78.0,0.0023928226,1114658,-13,288,-1568,2048
69683565,4200,0,-0.96168786,0.48154053,-9.07553,0.0040337215,0.026099732,-0.058145545,35.0,78.0,0.0023928226,1114658,-1363,1852,-7761,2048
69786512,4145,0,0.25105438,1.15361,-10.096867,-0.0012579736,0.009958455,-0.027820373,35.125,78.0,0.0023928226,1114658,-578,-2025,-1858,2048
69888315,5175,0,-0.26562482,1.1273447,-9.459848,-0.004692319,-0.004618679,-0.057622317,35.125,78.0,0.0023928226,1114658,1288,600,-7837,8192
69992265,4200,0,0.17785199,-0.45733297,-9.896086,-0.014269778,-0.0023987822,-0.018906057,35.125,78.0,0.0023928226,1114658,2126,960,-2992,2049
70094159,5290,0,0.42938396,-1.003983,-10.190299,-0.01848088,0.010849549,-0.06389501,35.0,78.0,0.0023928226,1114658,-1791,-3436,-3824,8192
70193864,4172,0,-0.88600725,0.7470539,-9.689259,0.002035995,0.0026244933,-0.035943244,35.0,78.0,0.0023928226,1114658,1180,3701,-2918,9
70294664,4161,0,0.54297495,0.75306123,-9.862855,-0.011198795,0.010430448,-0.04859282,35.125,78.0,0.0023928226,1114658,-3254,-767,-473,9
70395504,4239,0,0.19895585,1.2126263,-9.335254,0.020245867,-0.010699023,-0.04741392,35.125,78.0,0.0023928226,1114658,2837,1088,-4206,8193
70499458,5294,0,-0.34625736,-0.88557774,-9.390438,-0.005746703,0.00038396177,-0.048058104,35.125,78.0,0.0023928226,1114658,1950,1255,-6774,2049
70599196,4193,0,0.22963029,-1.7110559,-11.245503,-0.0066991076,-0.022119353,-0.055740952,35.125,78.0,0.0023928226,1114658,1360,-1263,981,0
70703123,4209,0,0.17149432,0.9422554,-10.028284,0.013082988,0.009934311,-0.039352868,35.0,78.0,0.0023928226,1114658,1758,714,-853,8192
70801825,5260,0,0.2941207,1.4209644,-9.186154,0.022408934,0.010428491,-0.07144878,35.0,78.0,0.0023928226,1114658,880,-651,-7395,2048
70906858,4243,0,-0.2701203,1.2089052,-9.998899,-0.0057640383,0.0059934026,-0.045711685,35.25,78.0,0.0023928226,1114658,1080,1683,-846,0
71007614,5234,0,-0.66785663,0.101927996,-10.288869,0.021053385,-6.355182e-05,-0.064834625,35.125,78.0,0.0023928226,1114658,2558,3677,-3058,9
71107365,4144,0,-0.16193283,-0.96882015,-9.90843,0.019014275,0.0028922532,-0.06481988,35.125,78.0,0.0023928226,1114658,1409,1024,-7446,8192
71208165,4146,0,-0.1743127,-0.6217104,-10.52032,0.022032063,0.0022537797,-0.069095075,35.125,78.0,0.0023928226,1114658,1270,-478,-1604,8192
71311141,4276,0,0.41270933,1.0262828,-10.646359,-0.021536792,0.010412155,-0.011394652,35.0,78.0,0.0023928226,1114658,-768,-1714,-3044,8364
71411940,4276,0,-0.50665045,1.746056,-9.021916,-0.014486178,0.010377319,-0.029701998,35.125,78.0,0.0023928226,1114658,2075,1344,-5764,8349
71512716,4213,0,-0.4547858,0.80432314,-10.322345,-0.013479982,0.00093477574,-0.04616689,35.25,78.0,0.0023928226,1114658,2139,1689,-2477,8367
71616646,4232,0,0.18655309,-1.7243991,-9.842189,0.020315256,-0.012470132,-0.03885663,35.125,78.0,0.0023928226,1114658,1646,137,-4698,9
72637215,4200,0,0.10496292,-1.1744624,-10.118389,0.02153493,-0.011998446,-0.025801636,35.125,78.0,0.0023928226,1114658,2228,-697,-4027,0
72738014,4199,0,-0.25946668,-1.463287,-10.075683,-0.023133636,0.003328822,-0.01158827,35.25,78.0,0.0023928226,1114658,-830,-2729,-3101,8192
72838815,4201,0,-0.40337667,1.1817832,-10.638854,0.0060271993,0.014460317,-0.057111986,35.25,78.0,0.0023928226,1114658,189,3526,-297,0
72941719,4166,0,0.2543891,1.0861976,-10.1664505,-0.010346376,0.0056070643,-0.04141625,35.25,78.0,0.0023928226,1114658,-274,-210,317,8390
73042514,4168,0,0.05030827,0.011295421,-8.97549,0.018223705,0.0036609496,-0.048811443,35.25,78.0,0.0023928226,1114658,2853,1926,-10295,8394
73143324,4182,0,0.574588,-1.0217941,-11.113411,-0.031592436,-0.0051012975,-0.026397567,35.25,78.0,0.0023928226,1114658,-2736,-3370,2886,8
73246270,4254,0,-0.35581577,0.600003,-9.732619,0.0327788,-0.0032124256,-0.05941845,35.25,78.0,0.0023928226,1114658,2885,1581,-6647,4859
73347069,4255,0,-0.37164035,0.5319503,-8.978753,-0.004856925,0.0070533846,-0.024656566,35.125,78.0,0.0023928226,1114658,-3456,2614,-4470,4861
73447845,4231,0,0.69868755,1.105493,-10.443481,0.012878011,-0.010370909,-0.061859526,35.25,78.0,0.0023928226,1114658,3804,-1104,-1865,8
73550716,4200,0,0.2928285,-1.0988262,-10.529034,0.0110405395,-0.005397384,-0.07848461,35.375,78.0,0.0023928226,1114658,1079,377,-4226,8
73651514,4199,0,-0.9077424,-1.5206482,-9.994759,-0.0044771396,0.012586061,-0.031113788,35.25,78.0,0.0023928226,1114658,245,1179,-4769,8
73752319,4161,0,-0.49296373,0.7965839,-9.2151575,0.015136485,0.011374925,-0.045613233,35.125,78.0,0.0023928226,1114658,2847,1512,-5073,8192
73853158,4206,0,0.56938726,1.2157507,-9.550643,0.002266701,0.0054691685,-0.042964384,35.125,78.0,0.0023928226,1114658,-1222,-2126,-4891,8425
73956029,4142,0,-0.36590663,1.7755603,-9.600102,-0.003745033,0.01387365,-0.056206938,35.125,78.0,0.0023928226,1114658,2832,2435,-5754,8
74058915,4186,0,1.0832489,-0.06507553,-10.062115,0.015030297,-0.024652235,-0.02542476,35.25,78.0,0.0023928226,1114658,781,-1436,-1963,2048
74159715,4169,0,0.67694205,-1.2105633,-10.078915,-0.020261768,0.0036452438,-0.034742106,35.25,78.0,0.0023928226,1114658,-2807,-3026,-3282,8193
74260514,4155,0,-0.6645628,-0.8090099,-10.3884735,-0.02391797,0.014260317,-0.056526825,35.125,78.0,0.0023928226,1114658,-28,-632,-2780,8192
74363415,4200,0,-1.3456732,0.8743539,-10.074508,-0.01698783,0.0205435,-0.030037576,35.375,78.0,0.0023928226,1114658,-206,1316,-3235,8427
74464215,4200,0,-0.1757309,1.6109818,-10.116479,-0.021605723,0.00561597,-0.009896869,35.25,78.0,0.0023928226,1114658,770,457,-2498,8427
74565019,5254,0,-0.25950286,1.1516745,-9.900155,-0.03390135,-0.0061392523,-0.027709756,35.25,78.0,0.0023928226,1114658,1172,43,-3035,8192
74665815,4200,0,-0.36698225,-0.55050844,-9.625093,-0.021473786,-0.008366088,-0.025180565,35.375,78.0,0.0023928226,1114658,1895,586,-4463,2048
74768741,4218,0,0.33134282,-1.110756,-10.347154,-0.018396188,-0.0014134839,-0.049594663,35.25,78.0,0.0023928226,1114658,197,-2440,-3150,8437
74869540,4185,0,-0.11538793,-0.68176156,-10.851191,-0.0062801978,-0.0002783905,-0.030048518,35.25,78.0,0.0023928226,1114658,-1133,-2134,-1252,8445
74970324,5249,0,-0.010170156,0.6831679,-9.910701,0.018713612,-0.0045445515,-0.03299738,35.25,78.0,0.0023928226,1114658,-772,147,-1279,8439
75071120,4206,0,0.3647752,1.8303882,-9.937767,0.010582287,-0.0024364828,-0.049572576,35.25,78.0,0.0023928226,1114658,1871,227,-1611,8437
75176114,5250,0,0.6426261,-0.20846346,-10.79622,-0.024839116,-0.019389767,-0.054829754,35.25,78.0,0.0023928226,1114658,409,-2350,-2345,8444
75276915,4175,0,0.1015929,-1.4337311,-10.3861265,-0.031911526,-0.0029790078,-0.034376044,35.25,78.0,0.0023928226,1114658,-1026,-1966,-2802,0
75377715,4175,0,0.50266856,-1.3966587,-9.979415,-0.020660885,0.006091806,-0.04219836,35.25,78.0,0.0023928226,1114658,-1183,-3850,-4029,8446
75481665,4105,0,-0.6894602,1.4723,-10.477871,-0.017216543,0.023069507,-0.052420683,35.375,78.0,0.0023928226,1114658,-54,2172,771,8448
75585631,4162,0,-0.77586895,1.3553425,-9.289501,0.012269835,-0.004553866,-0.029535903,35.375,78.0,0.0023928226,1114658,2380,4526,-3730,2048
75684314,5174,0,-1.261037,1.4143163,-9.337221,-0.023949469,0.00011919913,-0.029620122,35.375,78.0,0.0023928226,1114658,1584,1445,-3905,8
75784065,4141,0,-1.6144772,-0.71720207,-9.5147085,-0.028374277,0.0069994377,-0.020367008,35.25,78.0,0.0023928226,1114658,1926,1928,-2535,8450
75890158,5293,0,-1.0664239,-0.17018393,-9.957352,0.037613235,-0.0056992844,-0.06573739,35.25,78.0,0.0023928226,1114658,2581,4490,-2597,8192
75988846,4201,0,-1.2346544,1.8280872,-9.842555,0.019058822,0.00931102,-0.06743151,35.25,78.0,0.0023928226,1114658,426,3486,-3509,8468
76093815,4201,0,-0.5653389,1.2747544,-9.708159,-0.028591007,0.0011808418,-0.028256731,35.375,78.0,0.0023928226,1114658,-1927,-309,-2659,8193
76194614,4185,0,-0.124152124,-0.006960017,-9.789301,-0.023517484,0.000611081,-0.019617388,35.25,78.0,0.0023928226,1114658,-690,-719,-3086,16909
76295415,5250,0,0.10329252,-1.1864177,-10.036378,-0.028624674,0.0037071938,-0.028871115,35.375,78.0,0.0023928226,1114658,664,-439,-2508,8192
76393064,6258,0,0.67653245,-1.3476819,-10.609059,0.0001999808,-0.017014982,-0.05100107,35.25,78.0,0.0023928226,1114658,-2993,-3002,-4731,9
76499147,4232,0,-1.6354717,2.1610162,-9.865945,0.0012219,0.020892445,-0.046431478,35.375,78.0,0.0023928226,1114658,1934,3381,-2532,8192
76598865,4200,0,-0.4450707,1.5767725,-9.791491,-0.01554385,0.016879952,-0.056616284,35.5,78.0,0.0023928226,1114658,-718,-144,-2994,8193
76700717,5214,0,-0.8240886,1.3751249,-10.411701,-0.020725392,0.0054572453,-0.047090013,35.25,78.0,0.0023928226,1114658,948,2581,-742,4911
76801516,4202,0,-0.7470992,0.047678947,-10.46338,-0.008202378,-0.005233537,-0.037818275,35.375,78.0,0.0023928226,1114658,521,2751,-3186,8475
76904414,4199,0,-0.042019658,-1.0674183,-9.699011,0.015071944,-0.008176389,-0.03086816,35.375,78.0,0.0023928226,1114658,2332,261,-5762,8192
77004165,4162,0,-0.58540875,-0.26990974,-10.213774,0.02816455,-0.005758428,-0.01595099,35.375,78.0,0.0023928226,1114658,1978,2214,-3720,4920
77105003,4206,0,0.3841468,0.8873076,-10.062428,-0.004803471,-0.003985551,-0.04074742,35.375,78.0,0.0023928226,1114658,5,-3994,-270,8193
77207955,4290,0,-0.9229201,1.3469118,-10.156939,-0.015292732,0.005382491,-0.03780796,35.375,78.0,0.0023928226,1114658,-1191,2668,-1592,9
77306564,4191,0,-0.55757236,1.3966352,-9.612106,-0.0030173115,0.010475117,-0.07181949,35.375,78.0,0.0023928226,1114658,852,2029,-9203,9
77409599,4306,0,0.7462944,-0.58049625,-10.236026,0.0021536876,-0.018589389,-0.061648406,35.5,78.0,0.0023928226,1114658,-737,-1754,-4254,8193
77512374,4172,0,-0.9140166,-0.35254335,-9.332086,0.0014619296,0.0120250685,-0.051811673,35.5,78.0,0.0023928226,1114658,-2427,3377,-5178,8193
77614271,5257,0,0.398229,1.2920301,-10.418228,0.014762823,-0.014487504,-0.032176454,35.375,78.0,0.0023928226,1114658,2634,-796,-574,4911
77715045,4231,0,-0.11514059,1.7193819,-9.377161,-0.008722518,0.0168764,-0.05837386,35.25,78.0,0.0023928226,1114658,-1690,1278,-7143,2049
77814764,4179,0,0.42346695,1.5071101,-9.779416,0.0105689345,-0.008695329,-0.04068573,35.375,78.0,0.0023928226,1114658,5265,736,-5283,8192
77920860,4171,0,-0.12606558,-1.735406,-9.695886,0.021919983,-0.007887416,-0.049648255,35.25,78.0,0.0023928226,1114658,1436,33,-6345,8
78021652,4183,0,0.3166559,-1.7447844,-10.457435,-0.006690928,-0.006992617,-0.023321694,35.375,78.0,0.0023928226,1114658,-4093,-2768,676,8
78122417,5252,0,-0.42580673,-0.17535596,-9.701156,0.0060782367,0.033435907,-0.081152156,35.5,78.0,0.0023928226,1114658,-929,2243,-6039,8
78220065,6300,0,-0.5749242,0.27359217,-9.997661,0.0017962052,0.01838059,-0.06741649,35.375,78.0,0.0023928226,1114658,801,2174,-3584,8507
78326142,4227,0,-0.6820281,0.76745343,-8.786847,0.008551462,-0.0046285014,-0.035385408,35.375,78.0,0.0023928226,1114658,1630,3289,-6909,4927
78424860,5296,0,-0.23214266,0.2540189,-9.669926,0.027414737,-0.0053759064,-0.085509665,35.5,78.0,0.0023928226,1114658,1794,3787,-4900,8516
78529815,4177,0,-1.0840075,-0.40411305,-9.722824,-0.013307233,0.018254766,-0.055487476,35.375,78.0,0.0023928226,1114658,-1150,3913,-4792,8193
78630615,5251,0,-0.49111617,0.82055867,-9.618095,0.022898158,-0.0027475553,-0.04802851,35.375,78.0,0.0023928226,1114658,3632,2150,-4603,8518
78728264,4199,0,0.015047936,1.1977769,-10.40906,0.016151102,-0.0072568506,-0.0691309,35.375,78.0,0.0023928226,1114658,3080,38,-2528,8192
78830145,5280,0,-0.01677458,1.9277357,-9.9124155,-0.022356123,0.015618302,-0.06614218,35.375,78.0,0.0023928226,1114658,2137,161,-5244,2048
78935151,4236,0,0.42986992,-0.72558385,-10.15943,-0.008990406,-0.035272907,-0.018069899,35.5,78.0,0.0023928226,1114658,-1977,-2055,-3332,8533
79035917,5252,0,0.43630624,-1.2817647,-11.125586,-0.030375006,0.00093521737,-0.058768213,35.625,78.0,0.0023928226,1114658,-1052,-2844,-170,4945
79136747,4232,0,-1.327969,-0.141253,-10.623744,0.0038795571,0.005968632,-0.048537645,35.5,78.0,0.0023928226,1114658,2446,3922,-345,8538
79237547,4233,0,0.0010671031,1.0076656,-9.717059,0.018670706,0.019610865,-0.06406721,35.5,78.0,0.0023928226,1114658,3016,783,-5907,8526
79340414,4199,0,0.124176316,1.3572031,-9.561734,-0.002349712,-0.002264004,-0.045739274,35.5,78.0,0.0023928226,1114658,552,-761,-5262,8
79441215,4200,0,0.61467654,0.507431,-9.463507,-0.032054763,0.00220385,-0.051749796,35.5,78.0,0.0023928226,1114658,1574,-3040,-5142,8
79542014,4199,0,0.23789096,-1.1307179,-9.636232,-0.01529632,-0.00251278,-0.028433613,35.5,78.0,0.0023928226,1114658,-162,-108,-2484,8
79640754,4239,0,0.9538213,-1.3277597,-10.825227,-0.0016198445,-0.016462471,-0.033215795,35.5,78.0,0.0023928226,1114658,3342,-3136,-1131,8545
79745715,4173,0,-1.174845,0.5697223,-9.208256,0.0020459895,0.031033846,-0.040355034,35.5,78.0,0.0023928226,1114658,325,1530,-8841,8542
79846515,4199,0,-1.0801681,1.7597446,-9.733887,0.02152969,0.006612676,-0.048063565,35.5,78.0,0.0023928226,1114658,2500,2532,-5359,8192
79947328,4209,0,0.06376323,1.09918,-9.565125,0.009974977,-0.0054970435,-0.040289704,35.375,78.0,0.0023928226,1114658,-627,1411,-2710,8554
80048159,4219,0,-0.110538036,0.2657511,-9.66877,0.01761678,-0.014611866,-0.04202017,35.375,78.0,0.0023928226,1114658,-233,4555,-924,8558
80151069,4250,0,-0.017254768,-1.180625,-9.658899,0.016162466,-0.012031719,-0.05704546,35.5,78.0,0.0023928226,1114658,853,153,-1997,4968
80251846,4231,0,0.28044686,-1.2923646,-9.768253,0.016637415,-0.017274871,-0.061924923,35.5,78.0,0.0023928226,1114658,-934,-1156,-5578,8
80356865,4176,0,-0.61509526,1.1302582,-9.628788,-0.022643082,0.008250182,-0.032926757,35.375,78.0,0.0023928226,1114658,-1728,2149,-4783,0
80458679,4173,0,0.13003507,1.276148,-9.195587,0.028120339,-0.009303408,-0.058821723,35.5,78.0,0.0023928226,1114658,1493,-80,-7837,8558
80559503,5234,0,-0.048680034,0.32767668,-10.130133,-0.0061898082,-0.017235445,-0.069947146,35.625,78.0,0.0023928226,1114658,656,-2488,-4055,8193
80656065,5244,0,0.5859906,-0.066580474,-10.965179,0.010736593,-0.022244023,-0.04818853,35.5,78.0,0.0023928226,1114658,1345,125,293,8569
80761064,4199,0,-0.5296898,-0.74619216,-9.63784,0.019895263,0.0005512785,-0.052366532,35.625,78.0,0.0023928226,1114658,3552,2782,-6532,8192
80863969,4205,0,-0.34200332,0.38519782,-9.278662,-0.014230917,0.01703135,-0.03894565,35.625,78.0,0.0023928226,1114658,-1210,1763,-4152,8193
80964765,5242,0,-0.062472336,1.2473364,-9.686184,0.005154333,0.013099321,-0.040000714,35.5,78.0,0.0023928226,1114658,1258,715,-5930,2049
81067665,4167,0,-0.44667244,0.0033463864,-10.471257,-0.022234483,-0.0036461914,-0.034278657,35.5,78.0,0.0023928226,1114658,513,1196,367,8578
81168510,4246,0,0.21738775,-0.98455995,-9.968269,0.01958141,-0.0014629787,-0.04822619,35.625,78.0,0.0023928226,1114658,3715,772,-5279,8193
81269264,4200,0,-0.9274203,-0.1343705,-10.17709,-0.0058006486,0.018815117,-0.02131904,35.75,78.0,0.0023928226,1114658,2308,2464,-5168,8593
81370104,4240,0,-0.50889486,-0.27364698,-9.180191,0.0014414956,-0.011469358,-0.05067334,35.625,78.0,0.0023928226,1114658,-76,-131,-6888,8
81471942,5278,0,0.30499718,1.4943182,-10.295525,-0.0028851016,-0.007905985,-0.020066489,35.5,78.0,0.0023928226,1114658,1162,-1546,-179,8590
81571665,4167,0,-0.48215955,1.2112259,-9.52161,0.018969374,-0.015856292,-0.063484594,35.5,78.0,0.0023928226,1114658,3182,1871,-6796,8
81676778,4272,0,-0.43491283,-0.8788625,-9.555808,-0.0006546988,-0.019122314,-0.020422097,35.5,78.0,0.0023928226,1114658,1087,-982,-5295,8588
81774344,5280,0,0.34366643,-0.62991977,-9.624303,0.011090612,-0.0075480426,-0.07262188,35.5,78.0,0.0023928226,1114658,4756,-361,-6324,8193
81879315,4166,0,0.14567606,0.10565434,-9.982161,-0.017384874,0.015890704,-0.016155554,35.75,78.0,0.0023928226,1114658,400,24,-1018,8193
81982275,4260,0,-0.08818557,1.5893216,-9.480272,0.003942058,-0.01279276,-0.07446165,35.5,78.0,0.0023928226,1114658,2694,766,-3019,4989
82083081,4257,0,0.33302274,0.66153395,-10.341749,0.0014270333,-0.033997722,-0.059322003,35.5,78.0,0.0023928226,1114658,2753,-2757,264,8192
82183896,4282,0,-0.7980364,-0.6970334,-8.761362,0.009011658,-0.005634053,-0.030264793,35.5,78.0,0.0023928226,1114658,-152,3854,-8543,5001
82288816,4147,0,-0.6297031,-1.3780719,-10.413746,-0.03245816,-0.0006567767,-0.030122554,35.625,78.0,0.0023928226,1114658,-5922,-661,-975,8619
