timestamp,integral_dt,error_count,x,y,z,x_integral,y_integral,z_integral,temperature,range_m_s2,scaling,device_id,x_raw,y_raw,z_raw,temperature_raw
49603633,4206,0,-0.45006016,0.37820607,-9.867459,-0.0012217793,0.0050473367,-0.043427724,37.875,78.0,0.0023928226,1114658,-622,717,-3266,5
49702350,4192,0,0.36516556,-0.72593415,-9.61448,0.0011164742,0.00097613095,-0.042252854,38.0,78.0,0.0023928226,1114658,312,598,-3306,5757
49807328,4143,0,-0.31832945,0.9316335,-9.92814,0.0027464451,0.008908176,-0.039059732,37.875,78.0,0.0023928226,1114658,-240,277,-4156,5754
49904979,4201,0,-0.33718672,-0.21721426,-9.736263,-0.00095584814,-0.012719686,-0.041404013,38.0,78.0,0.0023928226,1114658,1645,856,-4264,8193
50009980,4202,0,0.027012704,2.8260665,-10.001046,0.0016136053,-0.009508845,-0.04104175,37.75,78.0,0.0023928226,1114658,2214,279,-2910,8193
50108721,4243,0,-0.49942055,0.1306618,-9.348895,0.006317093,0.023560762,-0.04906477,37.875,78.0,0.0023928226,1114658,-2762,885,-4709,5755
50209522,5294,0,-1.0674542,-2.2671487,-9.341797,-4.3854285e-05,0.015842482,-0.049772017,37.75,78.0,0.0023928226,1114658,-414,1510,-3996,5761
50312377,4199,0,-0.7379104,-1.3802058,-9.576048,0.006663133,0.01322664,-0.03998025,38.0,78.0,0.0023928226,1114658,-1497,1120,-3875,5758
50414326,5348,0,-0.10745128,-0.026550252,-10.134467,0.0070342757,0.018419284,-0.05896569,37.875,78.0,0.0023928226,1114658,-1101,620,-2744,7180
50515123,4296,0,0.43331224,1.4391348,-10.223242,-0.0032213351,0.011528404,-0.045428455,37.875,78.0,0.0023928226,1114658,-46,23,-3726,5767
50617928,4172,0,0.3799477,0.6515745,-9.893896,0.0020891482,-0.0076107895,-0.039012227,37.875,78.0,0.0023928226,1114658,1220,-81,-3796,2049
50720828,4081,0,-1.165617,-1.0111469,-9.9799595,-0.011147936,-0.0014481172,-0.042023662,37.875,78.0,0.0023928226,1114658,326,835,-3218,5758
50821657,4136,0,1.0074863,1.2693503,-9.627952,0.0018744756,0.0020300995,-0.03798869,37.875,78.0,0.0023928226,1114658,139,440,-4982,8192
50922428,4131,0,-0.8860904,0.2014979,-9.824669,0.017487442,0.018415395,-0.046549022,37.875,78.0,0.0023928226,1114658,-1043,2447,-4112,5765
51023228,4125,0,-1.8718128,-0.6714397,-9.832398,0.0060557555,0.012889945,-0.04166258,37.875,78.0,0.0023928226,1114658,-1271,2819,-4723,7194
51124028,4078,0,-0.38535488,0.18920639,-9.609697,0.017664358,0.023155015,-0.040196624,37.875,78.0,0.0023928226,1114658,-2023,2676,-2880,7200
51226939,4165,0,2.2003322,-0.5790232,-11.081734,-0.019668171,0.009560946,-0.028788349,38.0,78.0,0.0023928226,1114658,-1248,-4858,265,2049
51328821,4233,0,1.8932582,1.1323789,-9.734344,-0.05646948,0.0036303746,-0.03030246,38.0,78.0,0.0023928226,1114658,2380,-7147,-3576,5776
51430628,4200,0,-3.9559686,-1.1099368,-8.232398,0.004340041,-0.013641183,-0.03574163,37.875,78.0,0.0023928226,1114658,-2517,5877,-4717,8192
51528277,4200,0,-2.7226255,-0.99599516,-8.124092,0.050936844,-0.006001891,-0.08678988,38.0,78.0,0.0023928226,1114658,-2826,8685,-8086,5
51629078,4200,0,-2.7854462,0.5700771,-10.703274,0.021552483,-0.010776275,-0.0015112568,38.0,78.0,0.0023928226,1114658,-874,7591,845,5765
51734119,4241,0,1.1600412,-0.49424627,-9.63585,-0.0039452566,-0.008490834,-0.060312375,38.125,78.0,0.0023928226,1114658,-957,-3933,-5279,5
51834919,4241,0,-0.008863038,0.5378398,-9.434174,-0.03340853,0.008371216,-0.05784653,37.875,78.0,0.0023928226,1114658,-306,-586,-2770,5
51936728,5250,0,0.97823,0.5241613,-9.83779,0.014180553,-0.003855539,-0.04711658,37.875,78.0,0.0023928226,1114658,271,-2591,-5092,5791
52037542,4215,0,-0.9300126,0.20370452,-10.182242,0.035080906,-0.002437966,-0.03300343,38.0,78.0,0.0023928226,1114658,2210,5112,-1882,5788
52140438,4211,0,-0.30533394,0.5762618,-10.751279,0.020955779,0.0029433554,-0.05599575,38.0,78.0,0.0023928226,1114658,1879,1244,-2355,2049
52246478,4151,0,0.97672343,-0.49775213,-11.977777,-0.019594643,-0.0044728396,-0.03482174,38.0,78.0,0.0023928226,1114658,354,-3644,-2356,8193
52348327,5172,0,-1.2338034,-0.5091604,-11.446541,-0.022586344,-0.000783396,-0.045416754,38.0,78.0,0.0023928226,1114658,-452,3679,-3586,8192
52450182,4203,0,0.47416547,-0.19104633,-10.4033575,-0.011084095,-0.009763764,-0.049616586,38.0,78.0,0.0023928226,1114658,-597,-1629,-1530,8192
52553087,4209,0,-1.1863494,1.5725873,-9.566308,-0.0045570848,0.019084001,-0.063350685,38.0,78.0,0.0023928226,1114658,27,3579,-7755,0
52654928,5250,0,-0.11337429,0.22827753,-10.431941,0.033615194,-0.008935283,-0.07979582,38.125,78.0,0.0023928226,1114658,1432,4093,-2936,0
52755727,4195,0,0.021986624,-0.77985185,-10.471342,0.021203406,-0.010735525,-0.042948805,38.125,78.0,0.0023928226,1114658,1397,1408,255,8192
52856528,4165,0,0.2616886,-0.4330216,-10.260334,0.0040468597,-0.0004426104,-0.03695425,37.875,78.0,0.0023928226,1114658,-1884,-514,-1296,5
52957327,4166,0,-0.35544688,0.74322414,-8.729666,-0.022706678,0.018599441,-0.03875413,38.0,78.0,0.0023928226,1114658,-1045,-3112,-6769,2049
53058158,4230,0,-0.18167098,0.6785763,-8.552004,-0.028655645,0.0006997495,-0.01943987,38.0,78.0,0.0023928226,1114658,-45,-2680,-2244,8192
53163178,6350,0,0.27346337,-0.8517986,-9.056879,-0.025554,-0.0016548898,-0.073655725,38.0,78.0,0.0023928226,1114658,282,927,-2978,8192
53263974,4246,0,-1.4286743,-0.5500881,-10.091852,-0.011301773,0.0059982743,-0.02802585,38.125,78.0,0.0023928226,1114658,5,4968,-505,5792
53365788,4163,0,-1.7750005,1.1530734,-9.823383,0.007610407,0.007351844,-0.043266237,38.125,78.0,0.0023928226,1114658,1266,5483,-2023,5
53465529,4201,0,-0.38113323,1.3516682,-8.5506935,-0.014752239,0.013625589,-0.04165086,38.125,78.0,0.0023928226,1114658,-1499,649,-7663,5793
53569561,4284,0,-0.03505806,0.25182968,-10.12936,0.029772574,-0.017637735,-0.04187863,38.0,78.0,0.0023928226,1114658,3202,461,-1697,5789
53670297,5269,0,1.0270108,-1.0439546,-10.801974,0.0007850287,-0.01150208,-0.0491604,38.125,78.0,0.0023928226,1114658,-288,-2587,-1014,5788
53771122,4227,0,0.20579489,0.12495379,-10.68228,0.008307048,0.005634671,-0.047375243,38.125,78.0,0.0023928226,1114658,-1136,-3296,-164,7302
53871943,4222,0,0.701403,1.5822287,-10.602301,-0.013022502,0.003396695,-0.0306404,38.125,78.0,0.0023928226,1114658,-149,-3563,-738,5798
53972743,4217,0,-0.8722027,1.4255043,-9.343265,-0.0054470096,0.005444922,-0.018640965,38.125,78.0,0.0023928226,1114658,1106,3457,-5779,5790
54074528,5238,0,0.8420097,0.089713186,-11.330291,0.0046931286,-0.023546338,-0.070861064,38.125,78.0,0.0023928226,1114658,1381,-2747,-1560,2048
54175327,4191,0,-1.3320155,0.03185028,-10.80134,-1.8116298e-06,0.006719625,-0.031684253,38.125,78.0,0.0023928226,1114658,1234,3413,-3743,8192
54276158,4207,0,-0.7445559,0.6909657,-10.298806,0.009016454,-0.0035497546,-0.03213816,38.125,78.0,0.0023928226,1114658,1955,-460,-3801,7322
54381161,4222,0,-0.15517318,1.4402624,-10.595658,0.021836229,-0.00016944279,-0.040956967,38.125,78.0,0.0023928226,1114658,2581,2310,-3446,5818
54481936,4193,0,0.810477,-0.37110296,-10.078892,0.008755178,-0.008230935,-0.028572934,38.125,78.0,0.0023928226,1114658,808,-2131,-3255,5801
54582771,4243,0,-0.06851479,-0.8653155,-10.382363,-0.019958176,0.003914898,-0.06421025,38.0,78.0,0.0023928226,1114658,-343,-1034,-7690,0
54686690,4212,0,-0.040583204,0.30874377,-10.271314,-0.0062043644,-0.005726827,-0.017516218,38.125,78.0,0.0023928226,1114658,-587,-2909,-3881,5822
54783278,4146,0,0.057486396,0.7552587,-10.504213,-0.020953815,0.0082817115,-0.015463928,38.125,78.0,0.0023928226,1114658,-1216,-2527,187,5819
54888277,4199,0,0.98943,0.52825487,-10.465629,0.023243865,-0.008343696,-0.07104209,38.125,78.0,0.0023928226,1114658,2515,-760,-2924,8192
54986978,6253,0,-0.7911998,0.28439307,-9.456375,0.028738705,-0.004100425,-0.07368074,38.125,78.0,0.0023928226,1114658,700,1126,-6022,8193
55089878,4200,0,0.032205235,-0.5332173,-10.061257,-0.01841797,0.009689806,-0.0489031,38.0,78.0,0.0023928226,1114658,-1183,-1528,-5261,2048
55191728,5249,0,-1.779596,0.93605965,-9.403217,-0.016786922,0.025590668,-0.057498805,38.0,78.0,0.0023928226,1114658,-580,3588,-4619,8192
55292527,4153,0,-1.2048359,1.5831525,-9.154733,-0.020303182,0.007906018,-0.05009609,38.0,78.0,0.0023928226,1114658,139,4250,-4067,5
55393327,4168,0,-0.092298254,0.37867606,-9.84095,-0.02959364,-0.0017538392,-0.042118367,38.0,78.0,0.0023928226,1114658,622,-134,-5486,8193
55494158,4230,0,0.39277583,-0.8704168,-10.743372,-0.027519112,0.007933436,-0.042973913,38.0,78.0,0.0023928226,1114658,671,-438,1203,8192
55595997,5269,0,-0.46802408,-0.29733405,-10.465766,-0.03372019,0.008083264,-0.021448202,38.125,78.0,0.0023928226,1114658,-202,-2104,-431,5828
55700979,4158,0,-0.75303245,1.4683255,-9.043602,-0.03906125,0.014526567,-0.045154847,38.125,78.0,0.0023928226,1114658,-104,-80,-5846,5
55801804,5276,0,1.2097298,0.75610495,-10.148949,7.3292176e-05,-0.018180536,-0.076211154,38.25,78.0,0.0023928226,1114658,1444,-4315,-3682,2048
55899428,4200,0,-1.4111313,-0.2228687,-10.172686,0.0051225405,0.0059634484,-0.04344086,38.125,78.0,0.0023928226,1114658,2008,5755,-976,5832
56005547,4271,0,-1.795996,-0.12029789,-9.379617,0.011630271,0.013867649,-0.04595214,38.25,78.0,0.0023928226,1114658,-156,4301,-7397,5827
56106297,4183,0,-0.5598955,1.423723,-10.262118,-0.034529716,0.016933097,-0.029531583,38.0,78.0,0.0023928226,1114658,-315,-2576,-430,7370
56207148,4233,0,0.8899425,1.3868876,-9.042288,0.02332105,-0.010806508,-0.052556366,38.0,78.0,0.0023928226,1114658,-967,-2718,-3875,5837
56303715,4237,0,-0.86773413,0.8578442,-9.537119,-0.02137824,0.012508312,-0.009680922,38.25,78.0,0.0023928226,1114658,1104,2648,-1139,5
56409769,4196,0,-1.124836,-1.3169892,-10.267967,0.004083005,-0.011627819,-0.027719488,38.125,78.0,0.0023928226,1114658,893,4046,-2762,8192
56510527,4179,0,-0.1725002,-0.509631,-9.761949,-0.04001475,0.02100388,-0.03550798,38.25,78.0,0.0023928226,1114658,-226,-1435,-842,16921
56611327,4175,0,0.41608393,1.1041743,-9.3587475,0.024308624,0.006065183,-0.06380473,38.25,78.0,0.0023928226,1114658,-82,-122,-4307,7404
56714304,4277,0,-0.507845,1.8301448,-9.12603,0.03764081,-0.009237568,-0.023073053,38.0,78.0,0.0023928226,1114658,2426,4926,-2456,5838
56815157,4330,0,-0.9510811,-0.31071895,-9.16575,0.018972782,-0.004694271,-0.032951195,38.125,78.0,0.0023928226,1114658,1081,6244,-6264,5831
56918978,5250,0,-1.6299558,-0.20785671,-7.584303,-0.06153124,0.008433136,-0.036161028,38.0,78.0,0.0023928226,1114658,-1768,-648,-4615,2049
57016756,4329,0,-1.1896968,0.81412905,-7.7659245,-0.060766917,0.017325561,-0.044046864,38.0,78.0,0.0023928226,1114658,-1060,-1193,-3785,5838
57118478,5250,0,-2.1668801,1.5529625,-8.185879,-0.054836586,0.010561995,-0.0307037,38.25,78.0,0.0023928226,1114658,2166,1203,257,8193
57219278,4157,0,-1.645006,-0.45216173,-8.715112,-0.014618248,-0.0013292765,-0.0408535,38.25,78.0,0.0023928226,1114658,-2047,4512,-4371,5843
57322190,4212,0,-1.0867008,-0.56024843,-9.985399,-0.043025423,0.0018095232,-0.03195765,38.125,78.0,0.0023928226,1114658,1062,523,726,5
57424028,4068,0,0.16917615,0.7661632,-10.529815,-0.008727073,0.013652367,-0.0504034,38.125,78.0,0.0023928226,1114658,-3,-844,230,8192
57524828,4151,0,0.2691987,1.9513712,-9.859383,-0.0046809427,0.0024910579,-0.051209416,38.125,78.0,0.0023928226,1114658,265,-3061,-4128,8193
57627768,4213,0,0.18767314,0.46148086,-10.743112,-0.02102689,-0.0020200035,-0.012895663,38.0,78.0,0.0023928226,1114658,185,-822,-896,0
57728527,4199,0,0.16477671,-1.1478418,-10.505918,-0.03340075,0.0002265122,-0.015928816,38.125,78.0,0.0023928226,1114658,-1118,-675,-740,5
57831428,4200,0,-0.8488653,-1.2248201,-9.825839,0.0060590897,0.015820809,-0.066768184,38.125,78.0,0.0023928226,1114658,-926,3735,-5826,5847
57933277,5249,0,0.21048592,1.0314447,-10.351802,0.02162771,0.014912277,-0.06152638,38.25,78.0,0.0023928226,1114658,1617,2452,-182,0
58030927,4199,0,-1.7301133,2.1209228,-10.28409,-0.013174408,0.028038433,-0.05064021,38.125,78.0,0.0023928226,1114658,1085,4321,152,16920
58136978,4174,0,1.1841793,-0.008883858,-10.664376,0.021037916,-0.0052365162,-0.075735934,38.125,78.0,0.0023928226,1114658,401,-2675,-6655,5
58237790,4206,0,0.44242474,-0.9423482,-11.872757,0.017732447,-0.008107639,-0.059279654,38.125,78.0,0.0023928226,1114658,2500,-116,2159,5
58338607,4180,0,-1.385572,-0.5865391,-10.60288,0.028929098,-0.0030391961,-0.029524786,38.125,78.0,0.0023928226,1114658,505,4189,-3643,5
58439409,4232,0,-1.2737963,1.5687888,-9.056214,0.013732282,0.00977289,-0.04690883,38.25,78.0,0.0023928226,1114658,211,4418,-7130,5859
58538094,4217,0,-0.6509002,1.3300788,-9.735818,-0.029729873,0.019374052,-0.04277386,38.25,78.0,0.0023928226,1114658,-1647,119,-3768,5
58644159,4225,0,-0.02352129,0.5078162,-9.336124,0.032602195,0.0007295459,-0.06512615,38.125,78.0,0.0023928226,1114658,2110,3082,-6242,5
58742831,4204,0,-1.3161684,-0.74565697,-11.174161,-0.0034164211,-0.0016470201,-0.049733076,38.125,78.0,0.0023928226,1114658,2414,3810,-1272,0
58847933,4305,0,0.0062694987,-0.052409127,-10.254768,0.027850738,-0.0025121602,-0.07149154,38.25,78.0,0.0023928226,1114658,119,-779,-3562,5855
58948722,6394,0,-0.6778941,1.9201771,-9.931731,0.027916895,-0.0051875915,-0.06483377,38.25,78.0,0.0023928226,1114658,336,-590,-4113,5861
59051536,4209,0,-0.16164002,0.7573681,-10.534427,-0.02846675,-0.0069329366,-0.04221283,38.25,78.0,0.0023928226,1114658,1115,-96,290,5
59153395,5237,0,-0.301821,-1.4396387,-9.953159,-0.0031216198,0.013166499,-0.05247662,38.25,78.0,0.0023928226,1114658,-1361,4183,-4142,2048
59256278,4195,0,-1.524962,0.25510934,-10.424536,0.036501814,-0.005134301,-0.025135612,38.25,78.0,0.0023928226,1114658,2091,4609,-1126,5
59352878,4157,0,-1.0461317,0.22753552,-10.517452,-0.02317776,0.016807053,-0.024035864,38.25,78.0,0.0023928226,1114658,-2394,766,161,0
59461029,5252,0,1.2825849,0.5152019,-10.430363,-0.00062347716,-0.019856347,-0.045567535,38.25,78.0,0.0023928226,1114658,1563,-3890,-38,5854
59561834,4205,0,0.96608144,-1.3641771,-9.993301,-0.010466959,-0.006393404,-0.03560818,38.125,78.0,0.0023928226,1114658,95,-4699,-3050,5858
59662628,4180,0,-0.32653365,-0.749307,-11.025158,-0.015558716,0.008134896,-0.055731386,38.125,78.0,0.0023928226,1114658,-54,-2896,-2098,5864
59759263,4110,0,0.17042248,-0.3816121,-10.830139,0.036373895,-0.0028248827,-0.06934282,38.25,78.0,0.0023928226,1114658,766,540,-1325,5
59864228,4200,0,0.13193563,1.1866765,-9.2592745,-0.038377017,0.013197039,-0.04879872,38.125,78.0,0.0023928226,1114658,-374,-4069,-6646,7518
59965028,4198,0,0.3550938,1.1524847,-10.314277,-0.020925324,-0.0020737334,-0.06156613,38.125,78.0,0.0023928226,1114658,863,-4110,-4244,8193
60068979,4168,0,-0.7111226,-1.5793633,-9.88732,-0.027910206,-0.0004613346,-0.031070355,38.25,78.0,0.0023928226,1114658,-330,1368,-1875,5
60169778,4195,0,-0.4432624,-0.5419347,-10.1705065,-0.037603803,0.021561043,-0.0427257,38.25,78.0,0.0023928226,1114658,157,-831,-4510,5
60268478,4201,0,0.07630437,0.23306371,-10.583563,0.013273518,0.010313669,-0.057949226,38.25,78.0,0.0023928226,1114658,-41,-3371,-1448,8193
60372427,5226,0,1.4365324,1.1691331,-9.844316,-0.0149688125,-0.0038197946,-0.049967397,38.25,78.0,0.0023928226,1114658,-495,-3978,-2959,8192
60470078,6301,0,-0.50554633,1.5987358,-8.174921,0.014784484,0.0024793067,-0.07099526,38.375,78.0,0.0023928226,1114658,607,1551,-10159,5862
60574028,4200,0,-1.2362628,-1.4525197,-10.184171,0.028943544,-0.014499561,-0.02389158,38.25,78.0,0.0023928226,1114658,-1206,5225,-3814,8193
60679129,4301,0,-0.11370996,-0.3700891,-10.488697,0.027538268,-0.001186887,-0.03691407,38.25,78.0,0.0023928226,1114658,201,-619,-4729,5864
60775627,4199,0,-0.6756433,0.37543485,-10.390438,-0.023521658,0.01609484,-0.042650703,38.25,78.0,0.0023928226,1114658,-102,488,529,5
61389877,4199,0,-0.6567096,1.3595539,-9.768275,0.013686645,0.0025221102,-0.06880606,38.125,78.0,0.0023928226,1114658,3021,5051,-2640,5
61490679,4201,0,1.3356106,-0.75255406,-9.659921,-0.010574103,-0.0132918665,-0.04299355,38.25,78.0,0.0023928226,1114658,130,-3661,-3317,2048
61593581,4203,0,-0.4160206,-0.42863294,-9.6652,-0.005712218,0.0069651254,-0.01404363,38.25,78.0,0.0023928226,1114658,1351,2909,-5538,5878
61695428,5251,0,-0.16367607,1.0477319,-10.512158,0.015951116,0.0091646435,-0.07305775,38.25,78.0,0.0023928226,1114658,1421,735,475,5875
61796228,4164,0,-0.3530735,1.447131,-8.540442,-0.016259547,0.0056029214,-0.029985216,38.25,78.0,0.0023928226,1114658,220,1327,-7008,5881
61899152,4201,0,-0.009387691,-0.6065685,-9.667572,-0.010862475,-0.023498809,-0.022987455,38.25,78.0,0.0023928226,1114658,244,-1011,-2797,5893
62004159,4186,0,0.6553632,-1.0339607,-10.244138,0.00094971556,-0.015650205,-0.015146428,38.25,78.0,0.0023928226,1114658,-1717,-2087,161,5881
62100773,4245,0,0.14016598,-1.134089,-9.335323,-0.020291261,0.0059209475,-0.029436486,38.25,78.0,0.0023928226,1114658,-2967,-1183,-2475,5884
62203627,6298,0,0.27996972,1.487055,-10.8394165,-0.019946866,0.0027981354,-0.037701778,38.25,78.0,0.0023928226,1114658,2204,-1609,-2002,5
62305544,5316,0,0.6278404,0.45008105,-9.690098,0.004797785,-0.00036283172,-0.06621176,38.375,78.0,0.0023928226,1114658,-1184,-1010,-4112,5882
62410501,4131,0,0.4623925,-1.1081458,-9.85862,-0.005736916,-0.022857396,-0.020513196,38.25,78.0,0.0023928226,1114658,-348,-1616,-1660,5
62509185,4207,0,-0.37118524,-0.7041249,-9.558028,0.0015695242,0.0154302865,-0.060041435,38.25,78.0,0.0023928226,1114658,-3213,3304,-4952,8193
62614178,4159,0,-0.09114826,1.8326033,-9.890994,0.012853449,0.0025100806,-0.032426074,38.375,78.0,0.0023928226,1114658,117,2805,-2549,5
62712878,4133,0,0.5385317,0.67721635,-9.128387,-0.016270954,-0.023628002,-0.026378129,38.25,78.0,0.0023928226,1114658,-1062,-824,-3761,0
62813678,4124,0,0.05293464,0.39518553,-9.892678,0.015332873,0.0006147953,-0.06334404,38.375,78.0,0.0023928226,1114658,2833,1786,-6283,5905
62915527,5180,0,-0.1878089,-0.3698366,-10.594999,-0.0087613,0.021545177,-0.03286449,38.375,78.0,0.0023928226,1114658,75,1683,358,5
63015278,4124,0,0.6409181,0.9393548,-10.04164,0.023147816,0.0007956178,-0.024247063,38.375,78.0,0.0023928226,1114658,567,-1462,-2952,5900
63119227,4093,0,-0.9872293,1.5367858,-10.054412,0.002499494,0.016766775,-0.06274101,38.125,78.0,0.0023928226,1114658,1857,4798,-3250,5
63222136,4208,0,0.41564846,-1.1737955,-8.932045,-0.0005476527,0.008131797,-0.037662864,38.25,78.0,0.0023928226,1114658,-1311,1418,-5485,8193
63320827,5249,0,0.582341,-1.2890481,-11.007958,0.02461666,-0.004710341,-0.067721106,38.375,78.0,0.0023928226,1114658,983,125,-6824,7650
63421628,4085,0,-0.53979665,-0.23397592,-10.504897,-0.013679089,0.0212857,-0.033220395,38.25,78.0,0.0023928226,1114658,-630,1156,22,5891
63526634,6307,0,-0.18694013,0.8895141,-9.3141985,-0.017172324,0.014563447,-0.06681034,38.25,78.0,0.0023928226,1114658,-2333,525,-5486,5905
63623228,4131,0,-0.51948744,1.5166985,-8.555937,-0.016547255,0.0035077175,-0.04287967,38.5,78.0,0.0023928226,1114658,-234,1330,-6083,5894
63729277,4200,0,-0.016067173,-1.2780963,-9.443393,-0.017050132,-0.012359517,-0.021325197,38.375,78.0,0.0023928226,1114658,-1794,-278,-5201,5
63829027,4200,0,0.26778242,-0.27205184,-9.988951,0.012069391,-0.012581901,-0.036540184,38.375,78.0,0.0023928226,1114658,2951,709,-3111,5895
63930878,4200,0,-0.09049616,0.723341,-9.005989,0.0017498932,0.031860977,-0.06532076,38.375,78.0,0.0023928226,1114658,-1440,1072,-7651,5
64035922,4234,0,-0.3205837,0.8398338,-9.639398,0.0033241205,-0.010254355,-0.02348635,38.375,78.0,0.0023928226,1114658,3360,906,-4033,5909
64136728,4200,0,-0.3344493,-0.3271112,-9.4815,-0.018860318,0.0075546564,-0.014210882,38.375,78.0,0.0023928226,1114658,168,1235,-7904,5918
64238528,5251,0,-0.27674136,-1.1427037,-9.158859,-0.030164981,0.015465046,-0.04695281,38.25,78.0,0.0023928226,1114658,-1704,381,-5113,2048
64339333,4181,0,-0.80503196,-0.030487077,-8.985952,-0.020788169,0.009194204,-0.041175954,38.5,78.0,0.0023928226,1114658,-2701,1438,-6701,5919
64442278,4247,0,-0.38448474,0.74171954,-9.423959,0.0063894917,0.027465142,-0.061213713,38.375,78.0,0.0023928226,1114658,486,1701,-8679,8193
64540928,6300,0,-0.28276938,-0.5603017,-8.953968,-0.013242953,-0.011936814,-0.039512943,38.5,78.0,0.0023928226,1114658,-2040,2441,-7237,5901
64644910,4134,0,-0.08358151,-0.9961872,-10.475562,-0.0073370384,-0.007250843,-0.062093448,38.5,78.0,0.0023928226,1114658,720,-707,1091,5
64745720,4212,0,0.6830494,-0.21638265,-10.232641,-0.017651556,-0.026690707,0.00522582,38.25,78.0,0.0023928226,1114658,527,-1971,-78,5
64846489,4162,0,-0.34070498,1.5724947,-9.559438,0.005099902,0.01750363,-0.018143238,38.25,78.0,0.0023928226,1114658,1209,749,-2222,5
64947300,4185,0,-0.11639557,0.8783801,-9.617535,0.012913657,0.01727486,-0.059298184,38.375,78.0,0.0023928226,1114658,2466,2863,-7771,5
65050179,4157,0,0.25896344,-0.4883838,-11.564552,0.0007654335,-0.011432621,-0.055786733,38.25,78.0,0.0023928226,1114658,3374,117,2480,2049
65152028,4079,0,-0.35146517,-0.3497679,-10.606401,-0.0048568137,0.0047994233,-0.034577604,38.5,78.0,0.0023928226,1114658,161,2082,-2329,5928
65252835,4123,0,-0.5609757,0.5384115,-9.757275,0.018750362,0.018203758,-0.060678262,38.5,78.0,0.0023928226,1114658,-1855,3475,-3627,0
65358877,4199,0,1.0709213,-0.77813095,-9.652872,-0.0080459,-0.021723196,-0.02178236,38.375,78.0,0.0023928226,1114658,-1034,-2086,-1292,5923
65458628,4181,0,0.44854447,-0.53132683,-10.453557,0.014566555,-0.013595429,-0.01927329,38.375,78.0,0.0023928226,1114658,4211,-691,-5638,5
65560510,4232,0,-0.4567765,0.4223239,-9.63981,0.010493493,0.0067809056,-0.048119724,38.5,78.0,0.0023928226,1114658,3637,2350,-4749,16922
65663378,6300,0,-0.28664893,1.3016455,-9.624651,0.0046282797,0.02518162,-0.09197834,38.5,78.0,0.0023928226,1114658,3388,1893,-5933,5927
66382628,4200,0,-0.20590782,0.23230226,-9.5156,0.009650812,0.0032006472,0.0054943957,38.5,78.0,0.0023928226,1114658,-2368,2228,-1668,5
66484478,4180,0,0.44193396,0.97520155,-8.168962,-0.00060794776,0.025516221,-0.029603316,38.375,78.0,0.0023928226,1114658,-820,1898,-5842,8193
66586349,5231,0,0.31867695,0.04825146,-8.60124,-0.0029227287,0.0074431375,-0.06777601,38.375,78.0,0.0023928226,1114658,891,850,-11888,5938
66687177,4219,0,0.26191077,-0.5103177,-10.399675,0.0031303444,0.006965458,-0.05601708,38.375,78.0,0.0023928226,1114658,1818,749,-5048,5944
66792158,4229,0,0.1985141,0.45211002,-10.2492075,0.00081707776,-0.006829639,-0.056036796,38.5,78.0,0.0023928226,1114658,715,298,-2822,5937
66888773,5294,0,0.266326,0.61505884,-9.402426,0.005041802,0.005373051,-0.020485964,38.375,78.0,0.0023928226,1114658,675,-607,-6856,5952
66993727,4162,0,0.11701883,0.92066896,-10.408808,0.016984142,-0.0067950324,-0.08533192,38.5,78.0,0.0023928226,1114658,591,748,-4142,7778
67096783,4355,0,0.48250747,-1.5326954,-11.132788,0.004671692,-0.018782826,-0.03657452,38.5,78.0,0.0023928226,1114658,3748,-513,-2626,5948
67197499,4272,0,-0.8744137,-0.4661503,-9.597918,0.012094739,0.012537561,-0.06772484,38.375,78.0,0.0023928226,1114658,1819,2373,-6538,5
67298358,4331,0,-0.018939294,0.4271033,-9.5299635,-0.008103084,0.009389082,-0.01454641,38.5,78.0,0.0023928226,1114658,-3962,-110,-2943,5954
67400078,4149,0,0.5575164,1.3538829,-10.077226,0.003562635,-0.0032431572,-0.06549859,38.375,78.0,0.0023928226,1114658,1892,-210,-3338,5943
67500878,4157,0,0.5229723,-0.002799859,-9.39264,-0.020076454,-0.0063985353,-0.010279583,38.5,78.0,0.0023928226,1114658,2352,-1263,-7471,5961
67603778,4200,0,-0.6550503,-0.9931169,-10.229541,2.3541792e-05,-0.0019882554,-0.028156824,38.5,78.0,0.0023928226,1114658,63,4264,-2908,2048
67704577,4199,0,-1.2942563,0.118472815,-9.68612,0.0043007107,0.0019339187,-0.02962541,38.5,78.0,0.0023928226,1114658,217,2177,-5761,5946
67805377,4200,0,-0.9975567,1.39337,-8.674736,-0.016432688,0.008808394,-0.023096189,38.5,78.0,0.0023928226,1114658,848,4080,-5165,5949
67906183,4205,0,-0.15766679,1.336949,-8.8750925,-0.027347257,0.012696318,-0.045453206,38.5,78.0,0.0023928226,1114658,873,-25,-6114,2049
68010134,4206,0,-1.0393186,-1.1053928,-10.804953,-0.018898452,-0.016002692,-0.033063605,38.5,78.0,0.0023928226,1114658,-278,4682,-1594,2049
68109883,4198,0,1.1486074,-1.4347774,-10.699974,-0.040904667,0.0013720506,-0.025338037,38.5,78.0,0.0023928226,1114658,-498,-3601,-3310,8192
68211727,5249,0,0.16667253,-0.459623,-10.15975,-0.007356762,0.01933583,-0.0721787,38.5,78.0,0.0023928226,1114658,-2530,-3278,-4550,7807
68312528,4200,0,0.7758163,1.9345852,-9.970483,0.019958796,-0.006237246,-0.04249943,38.5,78.0,0.0023928226,1114658,1459,-1169,-1013,2048
68411228,4131,0,-0.90121293,2.292807,-9.868122,0.0016511651,0.0025301918,-0.037401743,38.5,78.0,0.0023928226,1114658,803,4034,-2274,8192
68514158,4230,0,0.10030324,0.16435152,-10.421773,-0.024255129,-7.223713e-05,-0.021529252,38.5,78.0,0.0023928226,1114658,1041,2368,-1662,5964
68615988,5261,0,1.4074656,-0.8727867,-10.112437,-0.01999738,-0.004827234,-0.0383472,38.5,78.0,0.0023928226,1114658,488,-5097,-4391,7831
68720978,4197,0,-0.3420845,0.39213842,-9.67566,-0.031914085,0.020906778,-0.05634909,38.5,78.0,0.0023928226,1114658,-1975,-1308,-3468,8193
68819678,4189,0,0.49766418,1.3381615,-8.6631775,0.0318139,-0.0030451093,-0.05575477,38.375,78.0,0.0023928226,1114658,-250,-440,-8089,8193
68920509,4206,0,-0.19301577,1.3532044,-9.503409,0.02308328,-0.00045865978,-0.06701923,38.625,78.0,0.0023928226,1114658,-352,4126,-8299,16922
69021278,4160,0,-1.022386,0.81403065,-11.238303,0.037476003,-0.005900548,-0.03805265,38.5,78.0,0.0023928226,1114658,3427,4519,-4009,8193
69124178,4192,0,0.72001445,-1.4562624,-11.630358,-0.021584177,0.0029250188,-0.063066415,38.5,78.0,0.0023928226,1114658,-2112,-2696,-3363,8192
69226028,5250,0,-0.77647823,0.5093676,-8.882094,-0.027268669,0.02447045,-0.01731644,38.625,78.0,0.0023928226,1114658,-1798,-1088,-2106,5973
69331170,4342,0,-0.81153023,1.510774,-10.0583935,0.017562201,-0.0033464527,-0.07422908,38.625,78.0,0.0023928226,1114658,2394,5667,-3260,5965
69427627,4200,0,1.044565,0.51730573,-9.558328,-0.035184648,-0.010732652,-0.05134661,38.5,78.0,0.0023928226,1114658,-18,-4768,-6978,5964
69532713,4286,0,-0.1840322,-0.82860214,-10.537878,-0.044397764,0.0018219273,-0.046155084,38.5,78.0,0.0023928226,1114658,1266,-2178,200,7863
69633521,4286,0,0.34944758,-0.41453272,-9.12665,0.03328227,-0.0009885948,-0.059418324,38.625,78.0,0.0023928226,1114658,-898,-25,-3115,5972
69734368,4341,0,-1.2128714,1.8056303,-8.628462,0.004468865,0.0065033855,-0.012782568,38.5,78.0,0.0023928226,1114658,-306,2663,-4250,5984
69835154,4326,0,-0.32513577,1.5063695,-10.177894,-0.024023492,0.0047433637,-0.034479268,38.625,78.0,0.0023928226,1114658,2624,1979,645,5983
69938986,4208,0,0.796764,-0.8720475,-10.752193,-0.03544787,-0.008597455,-0.039781034,38.5,78.0,0.0023928226,1114658,2556,-3433,-2760,8193
70039802,4213,0,0.30144385,-1.0311965,-11.213855,-0.02038396,0.013368574,-0.060914792,38.5,78.0,0.0023928226,1114658,-1980,-1852,333,5977
70138481,4139,0,-0.41887376,-0.6280226,-10.92874,-0.021878714,0.0111411195,-0.038868282,38.5,78.0,0.0023928226,1114658,-1094,-2472,-3218,8193
70241393,4215,0,-0.5988811,1.447829,-10.517236,0.021523578,0.022289788,-0.053693734,38.5,78.0,0.0023928226,1114658,821,4351,-4014,2049
70343228,5251,0,0.956653,1.1631978,-10.568011,0.002808378,-0.024181513,-0.044861693,38.5,78.0,0.0023928226,1114658,1612,-2663,-1950,8192
70446158,5280,0,-0.28024638,-0.41735283,-10.659992,-0.010756951,0.009851279,-0.0359976,38.625,78.0,0.0023928226,1114658,966,2221,-2818,5987
70546927,4156,0,-0.526905,0.18177378,-9.888531,0.003379357,0.011761251,-0.054422144,38.5,78.0,0.0023928226,1114658,703,4513,-3096,7888
70647728,4200,0,-0.97834504,1.163338,-8.989431,-0.0044145207,0.0020878306,0.0014188396,38.625,78.0,0.0023928226,1114658,-250,2416,-3372,8193
70748528,4200,0,-0.04501419,0.79541796,-8.54367,-0.024667237,0.0035714293,-0.043500338,38.5,78.0,0.0023928226,1114658,-1109,1151,-3836,8192
70850377,5206,0,-0.7927527,0.7492455,-9.881824,-0.0024853728,0.00883493,-0.06277153,38.625,78.0,0.0023928226,1114658,2241,3797,-3349,7902
70953301,5272,0,0.68930334,-1.5541447,-9.593221,0.017296348,-0.010030282,-0.085829966,38.5,78.0,0.0023928226,1114658,377,-829,-9044,5
71054158,4274,0,0.051814225,-0.60043246,-9.63649,0.0049809045,0.0051253797,-0.03211962,38.5,78.0,0.0023928226,1114658,-1691,-1546,-3258,5
71153828,4200,0,0.4144103,1.1198052,-10.437629,-0.0034928534,-0.012101029,-0.026490537,38.625,78.0,0.0023928226,1114658,594,-2779,-480,5
71257781,4163,0,-0.106616326,1.4727046,-10.3141165,0.017000834,0.009683444,-0.047818214,38.5,78.0,0.0023928226,1114658,2833,4453,-6416,5993
71358618,4199,0,0.8094263,-0.48459512,-11.869383,-0.01117959,0.010177357,-0.04884029,38.375,78.0,0.0023928226,1114658,-1074,-1465,-1167,8192
71459378,4176,0,-0.06273431,-1.3446515,-10.532518,-0.0004324957,-0.007889714,-0.025131568,38.625,78.0,0.0023928226,1114658,245,2292,-4915,2049
71560178,4200,0,-1.5837642,-0.5234243,-9.502857,0.0012299606,0.0051604034,-0.015071253,38.625,78.0,0.0023928226,1114658,-1648,5846,-1431,8192
71660978,4177,0,0.42789012,0.6022817,-10.325896,-0.026539061,0.008816525,-0.017964557,38.625,78.0,0.0023928226,1114658,-1606,-497,690,8193
71762828,5249,0,0.10967709,1.4352506,-9.675167,-0.0010572338,-0.00024802604,-0.07164924,38.625,78.0,0.0023928226,1114658,277,-3773,-1408,0
71865728,5219,0,0.9754271,-0.26247978,-10.9929285,0.040075265,-0.016004188,-0.06160663,38.375,78.0,0.0023928226,1114658,2126,7,-1173,4
71966528,4185,0,-2.0800161,-0.009111524,-10.7207155,0.0253002,0.003166997,-0.03264735,38.625,78.0,0.0023928226,1114658,1660,5668,-1259,2048
72067328,4151,0,-1.4752288,0.3938091,-9.934696,-0.02318427,0.009852983,-0.0110070435,38.5,78.0,0.0023928226,1114658,-1793,1287,-1437,4
72168141,4211,0,1.2553216,1.1187787,-9.957075,-0.025051957,0.011105118,-0.007849181,38.5,78.0,0.0023928226,1114658,-1802,-4647,-759,8192
72274178,4201,0,0.67758375,-0.005829769,-10.973042,-0.021823687,-0.00914182,-0.058644183,38.75,78.0,0.0023928226,1114658,2354,-2114,-276,5997
72375016,4238,0,-0.1459049,-1.0447526,-10.249164,0.05059813,-0.021291059,-0.03415278,38.625,78.0,0.0023928226,1114658,2538,1347,-3905,2048
72475778,4201,0,-1.3641675,-1.1247954,-10.682447,-0.0052824127,-0.0068090237,-0.013631194,38.5,78.0,0.0023928226,1114658,-242,3952,-376,8192
72578678,6301,0,-0.3291306,0.7928933,-9.111126,-0.034718383,0.019778034,-0.04854131,38.625,78.0,0.0023928226,1114658,-1380,979,-4104,4
72675289,6311,0,-0.6063727,1.8559132,-9.689358,0.03244999,0.010239753,-0.040507704,38.75,78.0,0.0023928226,1114658,448,913,-6373,2049
73900742,4314,0,0.76234853,-1.4690887,-10.325339,-0.00024373675,-0.0055761663,-0.025959076,38.875,78.0,0.0023928226,1114658,-2430,-2669,-2483,6010
74001539,4311,0,-0.17930168,0.6610704,-9.725715,-0.0316613,0.010087569,-0.014858576,38.75,78.0,0.0023928226,1114658,-1598,-1406,-2741,6019
74103278,4181,0,-0.97126305,1.6611798,-9.335308,-0.009678475,-0.0041688113,-0.026044574,38.75,78.0,0.0023928226,1114658,1338,3446,-2502,8192
74208286,4208,0,1.5170591,-0.82703966,-9.975167,-0.0061783423,-0.00813487,-0.038074106,38.75,78.0,0.0023928226,1114658,1141,-3350,-3762,6024
74310159,5281,0,0.695649,-1.3586472,-9.854329,-0.021761872,-0.003883449,-0.03875257,38.75,78.0,0.0023928226,1114658,-1231,-4027,-3193,4
74410973,4220,0,-0.25926942,0.09147297,-9.337707,-0.023706343,0.0070131123,-0.03123861,38.5,78.0,0.0023928226,1114658,-1956,-1209,-3230,2049
74511727,4159,0,0.54931843,1.0724012,-9.062839,-0.019332534,0.00648768,-0.051797643,38.75,78.0,0.0023928226,1114658,-1970,-1518,-2888,4
74612528,4200,0,0.12528904,1.1576465,-9.299415,-0.030406862,0.01441918,-0.058369573,38.875,78.0,0.0023928226,1114658,-764,-1166,-6080,4
74714393,5226,0,-0.098162025,-0.70152694,-10.6491375,-0.031221205,0.0073485626,-0.06599596,38.75,78.0,0.0023928226,1114658,1783,676,-3706,6024
74819377,4162,0,-0.59644544,-0.027880682,-9.686491,0.0290703,-0.0002612198,-0.024467206,38.75,78.0,0.0023928226,1114658,1688,2144,-5085,4
74922349,4272,0,-0.38262272,1.7375841,-8.650863,0.036770258,0.007603129,-0.06071645,38.75,78.0,0.0023928226,1114658,215,1726,-7731,6028
75023149,5321,0,-0.8495348,0.6681686,-9.328627,-0.022286106,0.003973511,-0.076827385,38.75,78.0,0.0023928226,1114658,-964,3063,-5802,6040
75128078,4122,0,-0.78375125,-1.6883433,-10.146216,0.0008811978,-0.0010795267,-0.018930413,38.625,78.0,0.0023928226,1114658,662,3582,-3881,6044
75228878,4149,0,-0.5002526,-0.77673113,-10.183142,-0.039647754,0.021757346,-0.03787843,38.625,78.0,0.0023928226,1114658,-910,-1391,-5044,8044
75330728,5178,0,-0.6283487,0.16962425,-10.820267,-0.009161239,0.014993323,-0.04103873,38.625,78.0,0.0023928226,1114658,-430,-5353,1805,5
75431528,4154,0,0.81276727,1.7244934,-9.157117,0.033807263,-0.004789413,-0.03359647,38.625,78.0,0.0023928226,1114658,1390,-356,-4706,5
75530321,4289,0,-0.0912264,0.69744545,-9.325346,-0.04768711,-0.00022705633,-0.031012928,38.75,78.0,0.0023928226,1114658,-465,-2948,-5774,6045
75633158,4231,0,1.1515901,-0.76174515,-9.846151,0.012043059,-0.016252775,-0.06677749,38.625,78.0,0.0023928226,1114658,619,-2018,-8179,5
75736029,4108,0,-1.5531719,-1.3239621,-10.299878,0.04051799,-0.0047442745,-0.023538483,38.625,78.0,0.0023928226,1114658,309,6667,-2288,6045
75837881,5153,0,-0.96145266,0.42875513,-9.298002,-0.039551824,0.011160538,-0.033922482,38.875,78.0,0.0023928226,1114658,-784,-871,-3813,8193
75940779,5251,0,0.53607345,1.1640097,-10.0798435,-0.021215763,-0.0011231062,-0.07293976,38.875,78.0,0.0023928226,1114658,1012,-4815,-2776,6042
76041578,4201,0,-1.3275604,0.35031113,-9.834809,0.008237795,-0.006322324,-0.019443862,38.75,78.0,0.0023928226,1114658,1448,6184,-2017,8080
76142378,4201,0,1.4962494,-1.415185,-10.131401,-0.03024917,-0.0031163495,-0.0276127,38.75,78.0,0.0023928226,1114658,88,-6191,-3340,6053
76243197,4220,0,-1.3646989,-0.88953507,-9.847915,0.030545142,0.008806903,-0.068606615,38.75,78.0,0.0023928226,1114658,-740,4302,-6857,6058
76345042,5264,0,-0.6135296,0.8439257,-10.214989,-0.045174904,0.007347095,-0.034142923,38.625,78.0,0.0023928226,1114658,678,-768,-130,6053
76445828,4184,0,0.29625037,1.4395866,-8.400419,0.052272644,-0.008311852,-0.03331783,38.75,78.0,0.0023928226,1114658,953,1892,-4878,6041
76548772,4244,0,-0.37308085,-0.28471807,-10.641839,-0.03886443,-0.006870237,-0.022759948,38.75,78.0,0.0023928226,1114658,1113,-439,1784,6062
76647428,4200,0,-0.85322934,-0.7703651,-9.743892,-0.020992937,-0.00434509,-0.05222578,38.625,78.0,0.0023928226,1114658,-1162,2594,-3880,6055
76750353,4185,0,-0.08937572,0.32073438,-9.693807,-0.040042005,0.020259684,-0.04464165,38.75,78.0,0.0023928226,1114658,124,-1546,-3283,8098
76852178,5251,0,0.84021455,1.5874189,-9.810884,-0.0100627225,0.01148725,-0.06797657,38.625,78.0,0.0023928226,1114658,-648,-3057,-2651,4
76955131,5303,0,0.84885067,1.3750613,-10.184218,0.025800228,-0.03131068,-0.057908323,38.75,78.0,0.0023928226,1114658,3764,-728,-1383,8096
77055969,4292,0,0.43354908,-0.9748081,-10.486259,0.040538426,-0.012565885,-0.036832463,38.625,78.0,0.0023928226,1114658,1128,787,-2653,6060
77156723,4245,0,-0.3248313,-1.3935187,-10.250874,0.026368978,-0.00431419,-0.018837757,38.875,78.0,0.0023928226,1114658,523,1966,-6143,6055
77257547,4269,0,-0.99889296,0.2921046,-9.818665,0.011775596,-0.0067590917,-0.017261071,38.75,78.0,0.0023928226,1114658,-532,2817,-2657,6059
77361554,4326,0,-0.05352719,2.0443816,-9.222746,0.033617307,0.008070428,-0.029031452,38.75,78.0,0.0023928226,1114658,2315,249,-5337,6058
77460159,4210,0,-1.0538965,2.059948,-9.994248,0.023663916,0.006709518,-0.0347473,38.75,78.0,0.0023928226,1114658,3409,4327,-882,6061
77565178,4250,0,1.0275738,-1.1280665,-11.048732,-0.018159693,-0.0024329636,-0.015584702,38.75,78.0,0.0023928226,1114658,-462,-2509,57,8192
77661728,6298,0,0.28868756,-0.8743333,-10.190054,0.021926709,-0.009957065,-0.054317705,38.75,78.0,0.0023928226,1114658,-1521,-2525,-900,6059
77764748,4321,0,-0.5881215,0.31076327,-9.832975,-0.009228516,0.0022393262,-0.009458368,38.75,78.0,0.0023928226,1114658,-1191,3028,-2839,6063
77866478,5250,0,0.2940292,1.90522,-9.350541,0.01447533,0.013425692,-0.08060846,38.75,78.0,0.0023928226,1114658,1499,1404,-5422,8193
77967278,4181,0,0.7301518,0.63793147,-9.842336,0.020501468,-0.014669696,-0.022030031,38.875,78.0,0.0023928226,1114658,113,-1347,-2269,8192
78072277,6297,0,-0.3785794,-1.2299676,-10.861018,-0.02508234,0.017574871,-0.08426199,38.875,78.0,0.0023928226,1114658,446,4168,-1166,4
78174142,5264,0,0.77494407,-0.36111102,-9.099871,0.028151449,-0.009941926,-0.056106754,38.75,78.0,0.0023928226,1114658,1576,-567,-5706,8192
78274956,4226,0,0.6093378,1.6411493,-11.496941,-0.019870259,0.0066533787,-0.036243107,38.875,78.0,0.0023928226,1114658,1490,-2194,-557,4
78375768,4240,0,0.8452407,0.83634526,-8.657386,-0.005744765,-0.007017428,-0.02617216,38.875,78.0,0.0023928226,1114658,144,-2882,-4878,2049
78476529,4202,0,0.62161344,-0.17561968,-10.667499,-0.024488889,0.009721793,-0.03924339,38.875,78.0,0.0023928226,1114658,-160,-1582,171,4
78578378,5216,0,-1.0249431,-0.9207777,-9.610965,-0.014351991,0.013280388,-0.056835834,38.875,78.0,0.0023928226,1114658,-285,3641,-5915,6084
78679178,4200,0,-1.2291725,0.20765547,-9.667753,-0.005356169,0.009523326,-0.03482906,38.875,78.0,0.0023928226,1114658,-1323,4856,-2550,6076
78780000,4216,0,-0.5443435,1.8179,-9.602274,0.007354343,0.0116308965,-0.011382562,38.875,78.0,0.0023928226,1114658,263,3446,-4423,6082
78880804,5263,0,-0.091871895,1.6316768,-9.442517,-0.008995064,9.593132e-05,-0.032514248,38.75,78.0,0.0023928226,1114658,2142,3831,-258,6079
78985777,4199,0,-0.46533412,-1.4435627,-9.692458,0.022291394,-0.009707993,-0.053471435,38.75,78.0,0.0023928226,1114658,1059,3932,-5389,4
79089728,4200,0,-1.3280257,0.3726974,-10.5872,0.027361035,0.011287475,-0.055703525,38.75,78.0,0.0023928226,1114658,1423,4291,-2258,6084
79190528,4186,0,-1.0160645,1.4670408,-9.962892,-0.007165488,0.022308365,-0.028440826,38.875,78.0,0.0023928226,1114658,-151,4014,-640,16923
79291328,4145,0,0.33078828,1.6854389,-10.005885,-0.036469847,0.000299702,-0.013705286,38.875,78.0,0.0023928226,1114658,705,-2268,-2189,6081
79396328,4169,0,-0.7375087,-0.8352493,-10.210823,-0.031501528,-0.00359283,-0.058103148,38.875,78.0,0.0023928226,1114658,888,2332,-3844,6095
79493979,4202,0,1.318342,-1.095187,-9.845638,0.021678206,-0.0130323535,-0.05336399,38.75,78.0,0.0023928226,1114658,823,-2187,-7405,4
79594793,4182,0,-1.7000911,-0.80809456,-9.279248,0.011322809,-0.0023158824,-0.045210414,38.75,78.0,0.0023928226,1114658,1403,5436,-7823,4
79695609,4231,0,-0.37709692,0.7659889,-9.335888,-0.032159455,0.015858637,-0.048063003,39.0,78.0,0.0023928226,1114658,-652,-742,-5511,4
79801628,4101,0,-0.5664813,1.3196772,-8.847692,0.029557467,-0.00013014069,-0.02378044,38.75,78.0,0.0023928226,1114658,1912,5816,-4955,6101
79898304,4276,0,0.5841036,0.58771455,-10.231543,-0.020093601,-0.005493571,-0.057052366,38.875,78.0,0.0023928226,1114658,565,-1709,-2033,8192
80003227,5249,0,0.25256175,0.19119644,-10.28055,-0.04983034,-0.007943541,-0.026022756,38.875,78.0,0.0023928226,1114658,1980,-4194,-2232,8202
80104027,4108,0,-0.12592503,-0.29036665,-10.014401,-0.018665245,0.010912236,-0.009841123,38.875,78.0,0.0023928226,1114658,-667,-3179,-3016,6105
80209028,4200,0,1.0677994,1.1270932,-8.966558,-0.036253773,0.01743979,-0.044937003,38.875,78.0,0.0023928226,1114658,68,-1538,-7352,6111
80305628,6301,0,-0.113764554,2.283551,-9.60224,0.02829134,-0.0018615393,-0.046673488,38.875,78.0,0.0023928226,1114658,2722,574,-3314,6108
80407485,5149,0,-0.227082,0.63533866,-9.517261,0.03412426,-0.017235553,-0.040793277,38.875,78.0,0.0023928226,1114658,2817,4703,-3797,8193
80511458,4231,0,0.6862631,-1.7131654,-9.917096,0.027900651,-0.004118537,-0.06945775,38.875,78.0,0.0023928226,1114658,256,-607,-7069,8192
80613278,4200,0,-1.1530188,-0.2218332,-9.882194,0.04050805,0.010440171,-0.0739841,38.875,78.0,0.0023928226,1114658,-571,4614,-5227,4
80714086,4208,0,-0.8770619,2.0195832,-9.84418,0.00776729,0.019744227,-0.0425334,38.875,78.0,0.0023928226,1114658,-73,5463,-1105,4
80814877,4200,0,-1.2009296,1.4206803,-10.26774,-0.027670281,0.004908339,-0.043850135,38.875,78.0,0.0023928226,1114658,-667,3538,488,4
80915677,4199,0,0.6389288,0.13235553,-10.342635,-0.037915874,-0.0061357464,-0.028211907,38.75,78.0,0.0023928226,1114658,-638,-10,-2123,8192
81017573,5296,0,-0.48127127,-1.3547646,-10.795636,-0.03144581,-0.0017901605,-0.04246577,38.875,78.0,0.0023928226,1114658,-1764,-2027,-845,6109
81118378,4194,0,0.50508595,-1.000174,-9.911647,-0.022031453,0.013773968,-0.04801572,38.875,78.0,0.0023928226,1114658,-3144,-4093,-3600,6116
81221227,4199,0,-0.6564591,1.1477966,-10.067575,-0.03262125,0.023722967,-0.04879936,38.875,78.0,0.0023928226,1114658,-233,683,-1130,8192
81322028,4200,0,0.4409601,1.5700815,-10.408702,-0.025748244,0.009075257,-0.054050136,38.875,78.0,0.0023928226,1114658,970,-3001,648,4
81422828,4199,0,1.1785265,0.5620055,-10.940581,0.023226462,-0.013596143,-0.057895698,38.875,78.0,0.0023928226,1114658,1326,99,2341,0
81523627,4199,0,1.076802,-1.4220011,-10.784896,0.02602017,-0.010340346,-0.042086974,39.0,78.0,0.0023928226,1114658,520,-538,-2052,8192
81628674,4247,0,-0.2879149,-0.51642615,-9.75881,0.024303084,0.013051476,-0.05411342,39.0,78.0,0.0023928226,1114658,-882,552,-5033,4
81729542,4315,0,-0.9062196,2.2145479,-9.6652355,0.01751205,0.010743119,-0.050071582,38.875,78.0,0.0023928226,1114658,2083,4705,-1224,6122
81831297,4133,0,-0.75834674,0.72952104,-9.589699,-0.017401353,-0.004180222,-0.027042259,39.0,78.0,0.0023928226,1114658,9,3347,-1681,6127
81932078,4119,0,1.8663088,-0.8300168,-10.223315,0.021635197,-0.021245137,-0.037701808,39.0,78.0,0.0023928226,1114658,-644,-2650,1526,6127
82032878,4127,0,-1.5436455,-1.5704243,-10.30003,0.011959091,0.00058288977,-0.01847887,38.875,78.0,0.0023928226,1114658,-1742,5672,-665,0
82135778,4162,0,-1.4423383,0.56767184,-8.976149,-0.01017466,0.01606972,-0.04090215,38.75,78.0,0.0023928226,1114658,-892,3079,-5144,6137
82237628,5250,0,1.0306623,1.764068,-10.026449,-0.018288959,0.006251075,-0.059983026,39.0,78.0,0.0023928226,1114658,632,-3048,-127,8267
82338427,4107,0,2.2285886,0.7289317,-9.01223,0.01987386,-0.011874826,-0.037021615,39.25,78.0,0.0023928226,1114658,2445,-2619,-5228,8269
82439228,4109,0,0.123660274,-0.46212158,-10.145145,0.031282682,-0.004356259,-0.072494164,38.75,78.0,0.0023928226,1114658,1940,2697,-9275,6121
82540028,4107,0,-0.8667645,-1.3411528,-10.612251,-0.033913407,-0.01399808,-0.01724839,38.875,78.0,0.0023928226,1114658,1027,1300,-1099,6128
82641878,5150,0,0.26277825,-0.2858643,-11.004717,-0.025044845,0.019475626,-0.06825535,38.875,78.0,0.0023928226,1114658,-1952,-3237,-248,6126
82741627,4099,0,-0.5356394,1.2347916,-8.827659,0.05382251,0.0027200254,-0.02031234,38.875,78.0,0.0023928226,1114658,389,3344,-5650,6132
82843483,4205,0,-0.8059125,1.8718433,-10.093283,-0.042231984,0.008485738,-0.03694995,38.875,78.0,0.0023928226,1114658,2502,1814,-1087,8193
82944278,4200,0,0.8451868,0.44359857,-9.023372,0.032514863,-0.020730779,-0.059956066,38.875,78.0,0.0023928226,1114658,3589,173,-9417,8192
83050328,4174,0,-0.94200504,-1.4004401,-9.324507,0.034265965,0.007028271,-0.037136927,38.875,78.0,0.0023928226,1114658,-193,2492,-9541,2049
83151157,4204,0,0.72481006,0.469044,-10.469646,0.007962547,0.014418198,-0.056028772,38.875,78.0,0.0023928226,1114658,-430,-4340,-2138,8192
83251949,4186,0,-0.54186064,1.6760451,-9.428869,-0.042230755,0.005380449,-0.011993553,39.0,78.0,0.0023928226,1114658,889,-330,-2066,6138
83352778,4251,0,-0.4157315,1.3487706,-9.315567,0.043348037,-0.004305766,-0.058572486,38.875,78.0,0.0023928226,1114658,2669,6475,-6192,0
83456727,5299,0,-0.4527851,-0.4713005,-10.138075,-0.048841264,-0.0057741245,-0.040479783,39.0,78.0,0.0023928226,1114658,680,-58,-3522,6149
83561678,4164,0,0.722022,0.07933322,-9.89662,-0.036118574,0.003996934,-0.021281878,39.0,78.0,0.0023928226,1114658,-1266,-4524,-1341,4
83662481,4145,0,-1.5089117,1.9158294,-8.5760355,0.018658493,0.012788545,-0.03903288,39.0,78.0,0.0023928226,1114658,355,5015,-6905,4
83759146,5318,0,-1.108738,1.6042424,-8.205373,0.033352807,0.009557328,-0.049494572,39.0,78.0,0.0023928226,1114658,-681,5549,-7080,6139
83865159,4231,0,-1.6014028,0.008376863,-9.346255,0.0040917145,-0.004078643,-0.014568113,39.0,78.0,0.0023928226,1114658,873,4792,-4746,6136
83965927,4199,0,1.0709276,-1.4956999,-10.171398,-0.03733547,0.0036190283,-0.041214544,39.0,78.0,0.0023928226,1114658,-291,-5706,-6005,6147
84064725,4298,0,-1.7695442,-1.3648045,-10.208369,0.008700639,0.0047477335,-0.054561056,39.0,78.0,0.0023928226,1114658,-656,6209,-5263,6152
84169628,4101,0,-1.8342727,1.500701,-8.9161625,0.02287567,0.00030109455,-0.0028072747,39.0,78.0,0.0023928226,1114658,-502,6430,-3941,6143
84271478,4176,0,1.4910051,1.5156019,-9.145318,-0.04367618,0.002576032,-0.05008367,39.0,78.0,0.0023928226,1114658,-115,-5955,-6580,8193
84372278,4200,0,-1.0529592,0.47329524,-10.184314,0.022154763,-0.006476372,-0.045536183,39.0,78.0,0.0023928226,1114658,2405,8182,-2316,8192
84470979,4179,0,1.9098587,-0.21968411,-10.799268,0.012689452,-0.0072678803,-0.059075844,39.0,78.0,0.0023928226,1114658,2804,-1900,-2177,8193
84573878,4191,0,-2.5723855,-0.98407555,-10.131732,-0.022519585,0.008830957,-0.0062541347,39.0,78.0,0.0023928226,1114658,-804,5551,-164,2048
84673637,4095,0,0.16319239,-0.052097425,-7.765368,0.043146487,0.0074364967,-0.05454004,39.125,78.0,0.0023928226,1114658,-160,1971,-10043,6158
84778628,4200,0,-1.6325288,1.6563253,-8.65077,0.03696431,0.0032099048,-0.017576724,38.875,78.0,0.0023928226,1114658,385,6273,-4168,6145
84875228,4131,0,-0.52641326,1.5993589,-9.254194,0.06107357,-0.0033160436,-0.02275342,39.0,78.0,0.0023928226,1114658,1472,5408,-5934,6156
84978158,4231,0,-1.7565509,-0.8761865,-10.609464,-0.01730819,-0.004180731,-0.06361628,39.125,78.0,0.0023928226,1114658,-302,5613,-382,0
85080009,5282,0,1.1937579,-0.9353339,-10.219306,-0.020385334,-0.009406289,-0.037313323,39.125,78.0,0.0023928226,1114658,371,-5124,-3041,6167
85180781,4204,0,-1.6900818,0.474311,-9.02202,-0.0064267763,0.011486142,-0.031789202,38.875,78.0,0.0023928226,1114658,-1483,4911,-6421,6164
85285777,4199,0,0.968823,1.1920526,-9.328649,-0.04857399,0.004662006,-0.021491999,39.0,78.0,0.0023928226,1114658,1429,-4411,-1468,8365
85384499,4222,0,-1.4488682,0.6373126,-9.115447,-0.00863823,0.0052525746,-0.043321148,38.875,78.0,0.0023928226,1114658,-1457,5110,-5507,2049
85485321,4244,0,1.4791816,-0.5580575,-10.873349,0.037417363,-0.019599417,-0.07852793,39.0,78.0,0.0023928226,1114658,1827,-1273,-3107,2049
85587146,5269,0,-0.6477105,-0.85877776,-10.113554,-0.053211417,-0.006680074,-0.015214033,39.125,78.0,0.0023928226,1114658,683,-903,-3682,6158
85690027,4192,0,0.0028743583,0.59374493,-10.146476,0.037341148,6.344801e-05,-0.06815341,39.0,78.0,0.0023928226,1114658,612,155,-4722,8192
85792936,4202,0,-0.2558706,1.6900508,-9.23807,-0.024027793,0.0018548914,-0.030750036,39.0,78.0,0.0023928226,1114658,-391,1941,-4391,0
85894777,5229,0,1.2679265,0.50836396,-10.051842,0.044213347,-0.021194592,-0.06915876,39.0,78.0,0.0023928226,1114658,2700,-407,-3201,8385
85995581,4203,0,0.00446153,-0.99288005,-10.770331,-0.04199429,0.0023403661,-0.05269541,39.0,78.0,0.0023928226,1114658,-582,-3576,-1858,6160
86096378,4200,0,-2.038248,0.22267787,-10.045887,-0.04521439,0.004906671,0.0010423287,39.125,78.0,0.0023928226,1114658,806,2913,-451,8192
86199295,4184,0,-0.25241807,1.854441,-8.850579,0.042504497,0.0051387064,-0.03166737,39.0,78.0,0.0023928226,1114658,1993,1089,-3786,4
86300118,4146,0,0.66078675,1.5309403,-10.041532,0.018643424,-0.015847113,-0.07595153,39.0,78.0,0.0023928226,1114658,2391,-1658,-5383,4
86398781,4204,0,0.9101235,0.15867238,-9.5970955,0.037337,-0.010644125,-0.06695984,39.125,78.0,0.0023928226,1114658,-953,-3880,-7340,8193
86504828,5229,0,-0.98699147,-0.77597994,-8.786819,0.045862492,0.007839435,-0.06044479,39.125,78.0,0.0023928226,1114658,-1728,2721,-10571,6181
86605628,4107,0,2.4668756,-0.20098053,-10.30409,0.008023418,-0.00435064,-0.028176568,39.0,78.0,0.0023928226,1114658,-2409,-4815,-4858,6177
86706428,4100,0,-1.0288765,1.474948,-9.626697,-0.03674269,0.009601658,-0.051519554,39.0,78.0,0.0023928226,1114658,-1180,881,-3178,6169
86807228,4155,0,1.1877809,0.43491384,-8.52695,0.0366533,-0.0075344765,-0.04872625,39.125,78.0,0.0023928226,1114658,-154,-1040,-7364,2049
86910143,4215,0,-1.5605619,-0.7758938,-10.468744,0.03158876,-0.01193963,-0.022966085,39.125,78.0,0.0023928226,1114658,3101,6229,-1502,4
87011980,5237,0,-0.46799096,-0.86038226,-10.311682,-0.0350877,0.015444901,-0.053880155,39.0,78.0,0.0023928226,1114658,-1648,-108,-2377,8406
87110677,4199,0,0.024981834,0.24412417,-10.298435,0.039814282,0.0005636805,-0.05485586,39.0,78.0,0.0023928226,1114658,111,376,-2840,8192
87211478,4200,0,-1.7381253,1.594231,-9.587652,-0.0117080435,0.00709379,-0.022661103,39.125,78.0,0.0023928226,1114658,-2784,3394,-13,8193
87312278,4200,0,-1.5610472,0.9005712,-9.505127,-0.027986672,0.0075921714,-0.047396045,39.25,78.0,0.0023928226,1114658,-1734,3400,-4502,8193
87416236,5255,0,-1.8367765,-0.42459878,-10.75902,0.017579554,0.003408443,-0.05746639,39.125,78.0,0.0023928226,1114658,2424,6859,-1801,8421
87517028,4185,0,-1.0763385,-0.038617272,-10.359687,0.007087613,0.006258822,-0.06429525,38.875,78.0,0.0023928226,1114658,458,4801,-1402,8424
87619967,4193,0,0.8367196,1.0415382,-10.209091,0.010180362,0.002956512,-0.06861339,39.0,78.0,0.0023928226,1114658,-619,-2476,-3164,4
87718659,4231,0,0.50707585,1.4205152,-9.477191,-0.013929748,-0.01168121,-0.035265874,39.0,78.0,0.0023928226,1114658,25,-4105,-4009,6186
87821570,4242,0,-0.09360933,1.2637683,-10.143299,0.029996157,0.010066868,-0.017064046,39.125,78.0,0.0023928226,1114658,3018,3246,-3978,2048
87923377,4146,0,0.38775778,-0.9487844,-10.686891,-0.02237525,-0.010157702,-0.02987103,39.0,78.0,0.0023928226,1114658,-1611,-1910,-824,6196
88024178,4185,0,-0.4929847,-0.13947214,-9.680702,0.01680435,0.00728252,-0.053009477,39.125,78.0,0.0023928226,1114658,1085,1167,-6971,8193
88124987,4209,0,0.118391424,0.5329185,-9.920432,-0.012865023,0.009282082,-0.04117742,39.0,78.0,0.0023928226,1114658,449,-2357,-506,8193
88228928,4176,0,0.43578744,0.13084738,-8.950637,-0.007141969,-0.019134814,-0.04809976,39.0,78.0,0.0023928226,1114658,-570,-1283,-5277,6196
88329728,4180,0,-0.60415006,-0.26083004,-10.638306,-0.010203213,0.020275218,-0.051015273,39.125,78.0,0.0023928226,1114658,-370,4243,-1179,8465
88430528,4186,0,0.02067153,-0.8821123,-9.677662,-0.004416985,-0.015110296,-0.021514181,39.0,78.0,0.0023928226,1114658,2081,-2065,-3432,2048
88533510,6364,0,-1.0863366,0.7603219,-9.882684,0.01952678,0.02860969,-0.06839464,39.125,78.0,0.0023928226,1114658,771,4133,1176,8456
88632159,4202,0,0.9391306,2.0039382,-8.854563,0.0054758703,-0.0057440596,-0.028328843,39.25,78.0,0.0023928226,1114658,2690,-2890,-5906,6193
88733978,4201,0,-0.8689788,1.110158,-10.348234,-0.021273524,0.0027149264,-0.027143847,39.125,78.0,0.0023928226,1114658,981,4798,-945,4
88834785,5257,0,0.11098397,-0.118651025,-10.375529,0.029966954,-0.0045445673,-0.08977504,39.0,78.0,0.0023928226,1114658,1981,1157,-5546,4
88939781,4167,0,-1.5902708,0.7517856,-9.966967,-0.003112319,0.027641539,-0.037935913,39.125,78.0,0.0023928226,1114658,1502,4982,-1613,8193
89041628,4100,0,-0.34273407,1.873323,-10.170603,0.023657313,0.0068441303,-0.07836986,39.125,78.0,0.0023928226,1114658,1784,634,-2702,8192
89142428,4131,0,1.4958848,1.631348,-10.171326,0.00963138,-0.00578442,-0.05912048,39.125,78.0,0.0023928226,1114658,2625,-648,-1521,8471
89250578,5251,0,0.22441483,-1.2718395,-10.972307,0.020382207,-0.00021347651,-0.07132316,39.25,78.0,0.0023928226,1114658,-30,2967,-7845,16925
89351378,4179,0,-0.23624866,-0.05859621,-10.873251,0.022201056,0.0047819465,-0.061370626,39.0,78.0,0.0023928226,1114658,449,-13,73,8192
89452178,4168,0,0.35144383,1.2272356,-10.286333,0.00705463,0.003912292,-0.018160399,39.125,78.0,0.0023928226,1114658,336,-2152,-1102,6204
89556175,4189,0,-0.7935676,1.0336571,-9.995519,-0.029715158,0.0011886889,-0.044891387,39.125,78.0,0.0023928226,1114658,2445,2258,-2973,8192
89654831,5238,0,0.6820137,-0.467542,-11.275418,-0.028073534,-0.012155905,-0.056853935,39.125,78.0,0.0023928226,1114658,624,-3106,1221,8192
89755642,4215,0,-0.28315377,-1.7772222,-10.381717,-0.034789704,0.0047270423,-0.035713673,39.125,78.0,0.0023928226,1114658,-2165,-558,-3362,8192
89860721,4293,0,-1.3318745,0.9884679,-9.614338,0.034430914,0.008345252,-0.01700374,39.125,78.0,0.0023928226,1114658,1282,5262,-4301,6215
89959328,4174,0,-1.0890518,1.4082121,-8.602849,-0.008176234,0.02645653,-0.035740405,39.125,78.0,0.0023928226,1114658,141,1848,-7160,8192
90061184,4206,0,-1.3318939,1.0401305,-9.895186,0.0022838768,0.0032022821,-0.0617321,39.125,78.0,0.0023928226,1114658,-422,5380,-385,8193
90164078,4180,0,-0.9919814,-1.0033336,-10.03449,0.013917234,-0.0024266683,-0.034262374,39.125,78.0,0.0023928226,1114658,1986,4509,-2566,3
90264889,4170,0,-0.06537102,-1.0414966,-9.478285,0.0035761166,-0.0013297497,-0.06899777,39.25,78.0,0.0023928226,1114658,1560,-1072,-7245,3
90366727,5200,0,-0.2685115,-0.04148307,-9.560933,-0.008871699,0.0021105972,-0.06959178,39.125,78.0,0.0023928226,1114658,-511,-2329,-6243,6206
90469628,5251,0,-0.60021377,1.3315568,-10.002611,-0.018937763,-0.00092008186,-0.07026702,39.25,78.0,0.0023928226,1114658,958,3152,-4523,6212
90570428,4107,0,0.49485388,0.11277623,-10.527042,0.021229744,-0.017865775,-0.055108275,39.25,78.0,0.0023928226,1114658,2037,-506,-141,6215
90671228,4099,0,1.1106681,-0.998378,-10.87851,-0.016436372,-0.010280767,-0.0456041,39.125,78.0,0.0023928226,1114658,1585,-4737,-3070,6218
90772028,4094,0,-1.0325452,-0.49018055,-10.224096,-0.011706979,0.022372993,-0.06861715,39.25,78.0,0.0023928226,1114658,284,2410,-6037,6226
90875978,4169,0,-0.24075986,0.98642766,-9.757791,-0.02526959,0.015664304,-0.04535371,39.125,78.0,0.0023928226,1114658,1927,-2747,-2690,6223
90976778,4156,0,-0.12900601,1.3062813,-9.413685,0.015688002,0.005152209,-0.0606515,39.125,78.0,0.0023928226,1114658,-3,4546,-4768,8532
91078628,5242,0,0.58584464,-1.0129735,-9.576073,-0.008282876,-0.02586725,-0.054672044,39.125,78.0,0.0023928226,1114658,1384,-2087,-6791,2048
91176281,6297,0,0.39922544,-0.6399069,-11.250841,-0.003562075,-0.018513713,-0.0360442,39.125,78.0,0.0023928226,1114658,1125,-1666,-356,8192
91280227,4199,0,0.42489284,-0.450562,-10.209703,-0.0016015441,-0.010019457,-0.034908246,39.25,78.0,0.0023928226,1114658,-2031,-3909,-967,4
91383164,4236,0,-0.8701293,1.290639,-9.444679,0.0056382143,0.009244501,-0.024161752,39.125,78.0,0.0023928226,1114658,1336,2535,-2274,8192
91483940,4212,0,0.68992835,0.59596306,-10.390503,0.032641947,-0.00074916804,-0.03955999,39.125,78.0,0.0023928226,1114658,3973,-393,-2810,6229
91587924,4246,0,-1.158108,-1.2622945,-10.235387,-0.02169993,-0.007466634,-0.011543502,39.125,78.0,0.0023928226,1114658,917,1832,-1636,6235
91688728,5300,0,-1.2996458,-0.11193648,-9.645052,-0.006171776,0.0126630245,-0.040579546,39.375,78.0,0.0023928226,1114658,1590,2350,-5535,6236
91791583,4205,0,-0.4043207,1.3754935,-9.291026,0.016376369,0.0011321654,-0.05464684,39.25,78.0,0.0023928226,1114658,-1002,-666,-5608,4
91893473,5295,0,0.7437127,0.72288007,-10.517733,-0.013320685,-0.015430477,-0.048032235,39.25,78.0,0.0023928226,1114658,1247,-2984,-1789,2049
91996328,4169,0,0.19776094,-1.8529044,-10.068949,-0.02871371,0.007954797,-0.043427665,39.125,78.0,0.0023928226,1114658,-2836,86,-2444,6237
92097163,4235,0,-1.1955926,-0.72123325,-10.569306,-0.02571324,0.009435265,-0.059433244,39.25,78.0,0.0023928226,1114658,704,582,-3743,8192
92194777,5237,0,-0.36468822,-0.616294,-10.29888,-0.01880448,0.01904032,-0.06450048,39.375,78.0,0.0023928226,1114658,-3172,-818,-2158,8567
92299778,4200,0,-0.66016614,1.7016468,-9.265539,0.007343964,-0.007965277,-0.036707312,39.25,78.0,0.0023928226,1114658,666,2793,-692,8193
92400578,4200,0,-0.9033022,0.6673993,-9.728412,0.0301139,-0.017183127,-0.021975055,39.25,78.0,0.0023928226,1114658,1570,4496,-1427,8192
92503477,4200,0,0.35921994,-1.3480321,-9.784224,-0.016274568,-0.002758973,-0.02167416,39.125,78.0,0.0023928226,1114658,629,-2274,-6619,2048
92603231,4134,0,-0.4114654,-0.9191631,-9.267359,-0.013572471,-0.0010184956,-0.014975209,39.25,78.0,0.0023928226,1114658,-2603,1055,-2824,8192
92704028,4085,0,0.24712117,0.752245,-10.29686,0.007817247,0.01013888,-0.053511098,39.25,78.0,0.0023928226,1114658,2629,-790,-4006,6246
92804828,4107,0,-0.92000216,1.0199568,-9.693177,-0.011255182,0.010020205,-0.043058164,39.25,78.0,0.0023928226,1114658,-2721,359,-6027,6250
92906710,5173,0,0.20780809,0.94485027,-9.611975,0.031092554,-0.015596657,-0.053077262,39.25,78.0,0.0023928226,1114658,4406,465,-5115,4
93010627,4199,0,0.49924827,-0.8115777,-11.201423,0.010244169,-0.009725637,-0.04396507,39.25,78.0,0.0023928226,1114658,2294,-178,-1291,16925
93112478,4175,0,-0.3060123,-0.012665623,-9.953843,0.0010233283,0.0039185104,-0.03571227,39.125,78.0,0.0023928226,1114658,-569,-221,-5770,8193
93213278,4172,0,0.33845577,0.944706,-8.9858055,0.014998422,-0.00080957724,-0.055035397,39.25,78.0,0.0023928226,1114658,-119,-159,-4850,8193
93311978,6300,0,-0.6874746,0.295751,-9.3646755,-0.023683747,0.0020568627,-0.038304143,39.375,78.0,0.0023928226,1114658,-3044,3494,-3019,8597
93414878,4195,0,-0.047065,0.42032525,-9.477538,-0.0020029424,0.0042539616,-0.08575572,39.25,78.0,0.0023928226,1114658,1186,103,-9387,6249
93514627,4199,0,-0.5064335,-0.4906681,-9.240456,-0.00767062,0.013661502,-0.066729374,39.25,78.0,0.0023928226,1114658,-302,985,-8592,4
93619627,4193,0,-0.32283682,1.0126352,-10.97281,-0.008862715,0.018983027,-0.025631402,39.375,78.0,0.0023928226,1114658,-818,547,2864,4
93722535,6308,0,-0.29151288,0.8122939,-10.009683,-0.001460648,0.010332696,-0.04199563,39.375,78.0,0.0023928226,1114658,-2819,-350,-5558,2048
93819137,6307,0,0.42188248,1.1191487,-10.610982,-0.014146466,0.00022100835,-0.07270782,39.375,78.0,0.0023928226,1114658,-899,-946,3366,6259
93920990,5221,0,0.3937419,0.17940976,-9.7593975,-0.013918145,-0.0036192317,-0.00916161,39.25,78.0,0.0023928226,1114658,1153,-1586,-6296,8193
94025978,4200,0,-0.27911904,0.40457767,-11.387043,-0.015207737,-0.015565039,-0.06730707,39.375,78.0,0.0023928226,1114658,185,-1175,716,8193
94124697,4188,0,1.0708495,2.4614937,-11.961043,-0.004090248,0.011794751,-0.048514728,39.375,78.0,0.0023928226,1114658,3793,-2535,429,8606
94225519,4242,0,0.9683895,0.6777715,-9.394691,-0.0034849513,-0.02463458,-0.04957252,39.25,78.0,0.0023928226,1114658,-1234,-2485,-2118,6271
94328377,4196,0,0.37467322,0.023892593,-9.721138,-0.04427185,0.005750537,-0.053152762,39.375,78.0,0.0023928226,1114658,1933,-2766,-2740,3
94429177,4199,0,-1.5107679,-0.6784723,-9.878466,-0.046148818,-0.015396097,-0.0064261407,39.375,78.0,0.0023928226,1114658,3738,648,225,8192
94531121,5343,0,-0.0720453,-0.8278987,-10.039005,-0.01029395,0.009963956,-0.029671893,39.25,78.0,0.0023928226,1114658,-3454,307,-3416,6266
94631935,4283,0,0.03679713,0.6243804,-10.165705,-0.019370256,0.0021669196,-0.047911394,39.375,78.0,0.0023928226,1114658,-458,-485,-1781,6262
94732697,4269,0,-0.16650859,1.061083,-11.218856,-0.041458283,-0.0008220901,-0.06194517,39.375,78.0,0.0023928226,1114658,-242,-4805,-730,6277
94833505,4277,0,-1.0399922,0.2726926,-10.297817,0.021058988,-0.0072845416,-0.024128703,39.25,78.0,0.0023928226,1114658,-806,3552,-1479,8629
94938428,4086,0,-1.2411373,-0.7424278,-10.857544,0.0037875907,0.02525072,-0.041864395,39.25,78.0,0.0023928226,1114658,853,3713,-969,6265
95040278,4200,0,0.48877633,-0.17904353,-9.032028,-0.007664479,-0.007916034,-0.03974525,39.375,78.0,0.0023928226,1114658,-2143,-2202,-2192,3
95138990,4213,0,0.049717482,1.429674,-10.41163,-0.0219607,0.007432159,-0.043630302,39.375,78.0,0.0023928226,1114658,1730,-1195,-1941,8193
95241904,4227,0,-0.9125731,0.9810774,-10.246446,0.010963153,0.009867815,-0.06065738,39.375,78.0,0.0023928226,1114658,3026,4588,-2543,4
95342715,4237,0,0.3583612,-0.527107,-9.775437,0.027548151,0.0004266277,-0.061716266,39.375,78.0,0.0023928226,1114658,2085,449,-8328,4
95443480,4202,0,-0.08826292,-1.1523584,-10.254774,0.021471834,-0.0040585767,-0.061459128,39.375,78.0,0.0023928226,1114658,238,1278,-4670,4
95751132,6304,0,1.1603092,-0.22132896,-10.551755,-0.014297556,-0.02920057,-0.056382228,39.375,78.0,0.0023928226,1114658,-1681,-3390,-3636,8192
96361179,4201,0,-0.93386346,-1.4796954,-10.882747,-0.03690116,0.00076041016,-0.029778652,39.375,78.0,0.0023928226,1114658,1342,812,-319,8192
