timestamp,integral_dt,error_count,x,y,z,x_integral,y_integral,z_integral,temperature,range_m_s2,scaling,device_id,x_raw,y_raw,z_raw,temperature_raw
36656627,4004,0,-0.07379404,0.38093057,-9.6618395,0.0029551391,0.004364073,-0.04021711,46.786705,156.9064,0.0047884034,1442850,36,-22,-2103,4255
36760623,4001,0,-0.805169,0.18775317,-9.852745,-0.003071694,0.0093137715,-0.043156452,46.819942,156.9064,0.0047884034,1442850,107,-125,-2614,4267
36860629,4007,0,-0.13871938,0.7617953,-9.628134,-0.0014801011,0.00070361525,-0.03341109,46.806095,156.9064,0.0047884034,1442850,254,149,-1950,4262
36960623,3994,0,-0.6040149,-1.8148822,-9.946493,-0.0006569921,-0.010388938,-0.042890575,46.828255,156.9064,0.0047884034,1442850,60,-47,-1709,4270
37061423,4001,0,0.15333617,1.5479163,-9.567814,0.0020087827,-0.011404156,-0.05336569,46.806095,156.9064,0.0047884034,1442850,44,376,-3253,4262
37165428,3999,0,0.49260244,2.3632572,-10.082594,-0.008780297,-0.0153884385,-0.042877465,46.795013,156.9064,0.0047884034,1442850,761,1258,-2547,4258
37265422,4000,0,0.31109783,2.2769856,-9.97994,-0.00945099,-0.006725581,-0.035552673,46.819942,156.9064,0.0047884034,1442850,417,944,-1298,4267
37369422,4000,0,-0.5676297,-0.78885406,-9.241659,-0.003492619,-0.011034449,-0.041678667,46.822716,156.9064,0.0047884034,1442850,479,293,-2820,4268
37470222,4000,0,-0.9793411,-1.4080906,-9.445828,-0.003918726,0.005882365,-0.03838043,46.831024,156.9064,0.0047884034,1442850,8,-525,-2673,4271
37570229,3979,0,-0.03324485,-0.34072384,-10.041451,0.010371009,0.0052471664,-0.03994315,46.817173,156.9064,0.0047884034,1442850,-406,-1186,-2597,4266
37670231,3969,0,0.9952055,1.1657859,-9.708671,-0.0018491698,0.0011001988,-0.035365693,46.858727,156.9064,0.0047884034,1442850,661,33,-2128,4281
37774270,4048,0,-1.1813325,-0.7592555,-9.702321,-0.0015850987,-0.0035072414,-0.04478449,46.842106,156.9064,0.0047884034,1442850,-132,399,-1617,4275
37875059,4036,0,-0.24400137,0.19458245,-10.065486,0.0049333554,0.009148087,-0.03857582,46.836563,156.9064,0.0047884034,1442850,-310,-114,-1078,4273
37975029,4006,0,0.15705468,1.2673934,-9.997752,-0.0038991533,-0.008980164,-0.036194842,46.811634,156.9064,0.0047884034,1442850,138,229,-1004,4264
38079022,3993,0,-0.67530334,-1.1375971,-9.690901,0.000516811,0.004233524,-0.04223735,46.836563,156.9064,0.0047884034,1442850,0,-119,-2211,4273
38179823,4001,0,0.09144553,1.0062442,-9.80194,0.0065774606,0.0017619045,-0.03295679,46.847645,156.9064,0.0047884034,1442850,66,-76,-1735,4277
38279823,4001,0,-0.1438542,0.42415732,-9.692567,-0.010756994,-0.00902143,-0.03141786,46.844875,156.9064,0.0047884034,1442850,735,164,-2108,4276
38483822,4000,0,0.711051,0.95819664,-9.973097,-0.009030288,-0.013751131,-0.030639064,46.839336,156.9064,0.0047884034,1442850,944,551,-1603,4274
38584623,3993,0,-1.5924481,-0.6268971,-9.65501,0.0020634956,0.015448869,-0.051142093,46.897507,156.9064,0.0047884034,1442850,-633,-824,-2218,4295
38688622,4000,0,-0.63060874,-0.6448839,-9.838847,-0.011956455,-0.011455851,-0.032559823,46.903046,156.9064,0.0047884034,1442850,701,794,-31,4297
38788631,4008,0,0.74457395,0.30144942,-9.879594,-0.018108059,-0.010788787,-0.012823945,46.872578,156.9064,0.0047884034,1442850,1406,782,-1632,4286
38888629,3999,0,0.25357196,0.8048744,-9.86051,-0.009887924,-0.004496892,-0.04797885,46.869804,156.9064,0.0047884034,1442850,455,780,-2345,4285
38992624,4002,0,-0.89182687,-0.3725602,-9.927672,-0.0079651,-0.017416567,-0.03594635,46.933517,156.9064,0.0047884034,1442850,275,1284,-1376,4308
39093423,4001,0,-1.2055637,-1.1810871,-9.87112,-0.000646771,-0.0061385883,-0.040269107,46.886425,156.9064,0.0047884034,1442850,111,-774,-848,4291
39193463,4040,0,-1.814593,-0.7990396,-9.83074,0.007688284,0.013647746,-0.050488416,46.916897,156.9064,0.0047884034,1442850,-896,-872,-2032,4302
39297422,3986,0,0.68457013,0.73806953,-9.603113,0.004222695,0.013482133,-0.04536221,46.883656,156.9064,0.0047884034,1442850,-150,-1063,-3055,4290
39397466,4037,0,0.8602629,0.899845,-9.946185,-0.005180935,-0.005817977,-0.055571787,46.92798,156.9064,0.0047884034,1442850,169,843,-1905,4306
39498227,4005,0,-0.58403116,-0.12884331,-9.812563,-0.011306325,-0.00866046,-0.037822306,46.891968,156.9064,0.0047884034,1442850,564,250,-1024,4293
39602224,4002,0,-1.0080634,0.00744204,-9.787969,0.008183233,0.014410711,-0.042522,46.936287,156.9064,0.0047884034,1442850,-458,235,-951,4309
39702222,3973,0,0.40191743,0.7673854,-9.906193,0.0076430216,-0.002631068,-0.018120283,46.916897,156.9064,0.0047884034,1442850,-79,124,-947,4302
39802222,3994,0,0.79651874,1.2854242,-9.796084,-0.012245804,-0.005788743,-0.040965423,46.916897,156.9064,0.0047884034,1442850,1037,276,-2726,4302
39907060,4037,0,-0.5285742,-0.33370274,-9.751127,0.012546584,0.012063756,-0.042008698,46.90859,156.9064,0.0047884034,1442850,-445,-351,-904,4299
40007029,4006,0,0.76591647,1.9293722,-10.231903,-0.009042385,-0.014221481,-0.040413674,46.930748,156.9064,0.0047884034,1442850,763,2141,-1108,4307
40107023,3983,0,-1.4182738,-1.1283056,-9.682726,0.0069804154,0.00030376716,-0.03363797,46.952908,156.9064,0.0047884034,1442850,-314,-706,-1343,4315
40211022,3990,0,-0.58094347,0.6422008,-10.049152,-0.02317409,-0.015692199,-0.041637734,46.930748,156.9064,0.0047884034,1442850,777,1608,-1391,4307
40311822,3994,0,0.36364982,0.60503244,-9.666375,0.0018881869,0.0060446686,-0.046721663,46.96122,156.9064,0.0047884034,1442850,539,-802,-3845,4318
40411829,4006,0,-1.0060917,-0.65666866,-9.610154,0.015226318,0.008076323,-0.038623057,46.96399,156.9064,0.0047884034,1442850,-671,-902,-3210,4319
40515822,3993,0,-0.44480103,-0.17227209,-9.505862,0.009785745,0.0024838909,-0.04386769,46.9446,156.9064,0.0047884034,1442850,-247,198,-3276,4312
40615823,4001,0,-0.9771179,-0.026205856,-9.863731,0.01118613,0.002414013,-0.0497272,46.952908,156.9064,0.0047884034,1442850,-517,-491,-2335,4315
40716622,4000,0,-0.17279685,-0.8057435,-9.818215,0.01939087,0.012004987,-0.04305593,46.972298,156.9064,0.0047884034,1442850,-548,-1512,-2670,4322
40816622,3999,0,0.21088889,-0.43989733,-10.167395,0.0067805443,0.0041767,-0.05241199,46.975067,156.9064,0.0047884034,1442850,71,-485,-2413,4323
40920629,3961,0,-0.9243263,0.5958285,-9.751258,-0.008370381,-0.01262652,-0.019976463,46.97784,156.9064,0.0047884034,1442850,-210,591,-1216,4324
41020622,3992,0,-0.37341866,-0.594244,-8.56963,0.021918064,-0.00336528,-0.041785136,46.99446,156.9064,0.0047884034,1442850,-435,-919,-2484,4330
41121422,3999,0,0.09993617,0.5385206,-10.481732,-0.020537177,0.0048689563,-0.042074934,46.97784,156.9064,0.0047884034,1442850,1201,510,-3234,4324
41225422,3999,0,1.4393215,-0.3865175,-9.562458,-0.0017942092,-0.00015866151,-0.04767515,47.00831,156.9064,0.0047884034,1442850,1499,-1358,-3278,4335
41325422,3999,0,-0.63654625,-0.3085119,-9.042412,0.008760882,0.0011642491,-0.02470698,46.98061,156.9064,0.0047884034,1442850,133,-399,-2837,4325
41429423,4001,0,-1.4185745,-0.2130203,-9.359785,0.015482342,-0.0042299493,-0.05162198,47.00831,156.9064,0.0047884034,1442850,-1232,-603,-2342,4335
41530222,3999,0,-1.4538045,-0.97646976,-8.114948,0.00848614,0.0063213864,-0.05751848,46.99446,156.9064,0.0047884034,1442850,-1259,-1555,-2845,4330
41630267,4045,0,-1.8571434,-0.2522697,-8.4897,0.0054174787,-0.010758731,-0.0055756094,47.03878,156.9064,0.0047884034,1442850,-1362,-544,-2426,4346
41730229,4007,0,-1.3856047,0.119308054,-8.871636,0.032303024,-0.0005712821,-0.026406048,47.0,156.9064,0.0047884034,1442850,-2516,-487,-2770,4332
41834238,4016,0,-1.5164273,-0.10814032,-8.927523,-0.017310128,-0.011698604,0.012473664,46.99446,156.9064,0.0047884034,1442850,-539,-166,-352,4330
41935023,4000,0,3.3825698,-0.56988335,-9.918237,0.007974818,0.013099099,-0.09218036,47.049862,156.9064,0.0047884034,1442850,3269,-1364,-3329,4350
42035053,4030,0,0.4944525,0.20986533,-9.746476,0.04483391,-0.003116374,-0.050757468,47.01662,156.9064,0.0047884034,1442850,-793,-72,-1881,4338
42139028,3999,0,0.700346,-0.14064999,-9.740442,-0.034204096,0.00044277552,-0.049139448,47.03601,156.9064,0.0047884034,1442850,2292,-76,-2532,4345
42239023,3994,0,0.85604787,-0.0703924,-10.947369,-0.053360976,0.005850858,-0.022893243,47.0554,156.9064,0.0047884034,1442850,2271,580,695,4352
42339822,3999,0,-1.5030978,0.23405011,-9.94021,-0.01265922,0.0014596366,-0.026802499,47.01108,156.9064,0.0047884034,1442850,-117,-365,-2825,4336
42443837,4014,0,1.1731299,0.2219646,-9.822531,-0.006171217,0.001120467,-0.042044,47.04432,156.9064,0.0047884034,1442850,2257,-473,-342,4348
42543822,3999,0,-0.7972004,0.38882872,-9.730858,-0.011140056,0.0012564427,-0.018170029,47.05263,156.9064,0.0047884034,1442850,-949,73,11,4351
42647823,4001,0,-0.030040756,0.15674835,-10.594279,-0.034590956,-0.004293951,-0.026393436,47.063713,156.9064,0.0047884034,1442850,826,579,33,4355
42748643,4018,0,-0.8083901,0.66833776,-8.960505,0.04367049,0.0059427232,-0.047394127,47.04155,156.9064,0.0047884034,1442850,-2333,-176,-2708,4347
42848629,3989,0,0.35483205,0.2843317,-10.672187,-0.03562336,0.0010524652,-0.023338627,47.049862,156.9064,0.0047884034,1442850,1474,-278,-191,4350
42948643,4021,0,-0.59753436,0.66732204,-10.663124,0.023966607,-0.009287454,-0.013212696,47.05817,156.9064,0.0047884034,1442850,-1698,1259,-871,4353
43052622,4000,0,-1.246135,-0.44295546,-9.431294,0.01795481,-0.00016362162,-0.037085004,47.06094,156.9064,0.0047884034,1442850,-1899,-460,-2604,4354
43153423,4000,0,-0.6720336,0.29599437,-9.999639,-0.027024163,0.011799007,-0.031593,47.06094,156.9064,0.0047884034,1442850,-298,-193,-2275,4354
43253429,4007,0,0.45296094,0.8215878,-10.007218,0.0148007125,-0.0022333707,-0.04463642,47.07479,156.9064,0.0047884034,1442850,676,-443,-3346,4359
43357422,3993,0,-0.3104455,1.5771495,-10.309341,-0.016029868,0.0025493726,-0.037569292,47.05817,156.9064,0.0047884034,1442850,-145,-332,-1304,4353
43457422,3989,0,0.7952199,0.4633387,-10.879808,-0.001320566,-0.009201938,-0.047280114,47.085873,156.9064,0.0047884034,1442850,1585,455,-1696,4363
43558223,3979,0,1.1351334,-1.2209486,-10.037141,0.013106634,-0.022454869,-0.021678813,47.09418,156.9064,0.0047884034,1442850,617,1002,-2967,4366
43662223,4001,0,-0.95119554,-1.2998267,-10.358642,-0.018001957,0.016374134,-0.017385263,47.09418,156.9064,0.0047884034,1442850,-100,-564,-820,4366
43762222,3993,0,-1.4426365,0.2372318,-10.749909,-0.0049084015,0.010686183,-0.03606026,47.085873,156.9064,0.0047884034,1442850,-661,-567,-1235,4363
43862223,3991,0,-0.48817536,1.010305,-9.782266,0.020883925,-0.00060712453,-0.05225928,47.102493,156.9064,0.0047884034,1442850,-956,772,-3894,4369
43966228,4006,0,0.97136617,0.75411874,-9.71588,-0.009339545,0.0033459007,-0.048981816,47.11357,156.9064,0.0047884034,1442850,1521,-208,-2539,4373
44067023,4001,0,0.59649575,-0.48994243,-10.121415,-0.02192172,-0.008351432,-0.034682047,47.07479,156.9064,0.0047884034,1442850,1572,-394,-1067,4359
44167051,4023,0,-0.14953014,-0.6740584,-9.667147,-0.023650693,0.0035973373,-0.0572291,47.132965,156.9064,0.0047884034,1442850,800,142,-4082,4380
44271022,3999,0,-0.57454526,-0.20751499,-9.838839,0.01723512,0.002311649,-0.04541406,47.124653,156.9064,0.0047884034,1442850,-318,-393,-3506,4377
44375835,4013,0,-0.42339566,1.0803453,-9.503877,-0.010044628,0.0060549215,-0.024391873,47.116344,156.9064,0.0047884034,1442850,-576,152,-1667,4374
44479822,4000,0,0.6319676,-0.28132668,-10.108771,-0.00065559207,-0.00392389,-0.05381644,47.127422,156.9064,0.0047884034,1442850,127,409,-2864,4378
44579822,4000,0,0.28885463,-1.0502634,-10.378578,-0.021454588,-0.0075851073,-0.050469764,47.116344,156.9064,0.0047884034,1442850,1691,286,-3021,4374
44683823,3994,0,-0.71305364,-0.2673856,-9.536003,0.0035705362,0.01212716,-0.049176782,47.127422,156.9064,0.0047884034,1442850,-1140,-564,-3205,4378
44784623,3994,0,0.0690566,1.337252,-9.908779,0.02005788,0.010378733,-0.047853187,47.141273,156.9064,0.0047884034,1442850,-101,452,-3313,4383
44884622,3979,0,0.5165991,1.2744888,-10.358723,-0.005802202,-0.0021666288,-0.034719113,47.149586,156.9064,0.0047884034,1442850,1428,-763,-1592,4386
44988622,3999,0,0.05471343,0.1900174,-9.458444,0.017798383,-0.013767282,-0.046307195,47.119114,156.9064,0.0047884034,1442850,-394,945,-3548,4375
45088634,4012,0,0.6422795,-1.1458675,-9.810517,-0.012658057,-0.008634832,-0.03446627,47.171745,156.9064,0.0047884034,1442850,1531,-250,-1684,4394
45188623,3995,0,-0.25987396,-0.109705724,-9.385947,-0.015909865,-0.002254789,-0.026326338,47.166206,156.9064,0.0047884034,1442850,515,506,-4598,4392
45293429,4007,0,-0.37874678,1.6714593,-9.521462,-0.011712435,0.01215289,-0.04735267,47.135735,156.9064,0.0047884034,1442850,103,-50,-4174,4381
45393429,4007,0,-0.40368253,1.8807632,-9.158186,0.01651185,0.0023011174,-0.0504597,47.163433,156.9064,0.0047884034,1442850,-1502,1052,-2994,4391
45493423,4001,0,0.67231196,0.49247083,-9.61495,0.012949758,-0.017887717,-0.04016614,47.152355,156.9064,0.0047884034,1442850,514,1123,-2752,4387
45593464,4042,0,0.69895625,-1.0186247,-9.453529,-0.016087405,-0.009449277,-0.050673984,47.188366,156.9064,0.0047884034,1442850,1749,467,-3260,4400
45698222,3996,0,-0.520148,-0.06281033,-8.714559,-0.00022160867,0.006424078,-0.020205576,47.177284,156.9064,0.0047884034,1442850,-389,183,-3196,4396
45798236,4014,0,-0.1437903,0.72927284,-9.000245,-0.026966613,0.017955896,-0.027753413,47.204987,156.9064,0.0047884034,1442850,904,-1026,-1853,4406
45902224,3995,0,-0.25519937,0.7992091,-9.519967,-0.0052345907,0.00041757245,-0.046877805,47.202217,156.9064,0.0047884034,1442850,-471,-900,-856,4405
46002222,3999,0,0.76987666,-0.1835545,-9.574738,-0.017356195,-0.0033180974,-0.032412607,47.196674,156.9064,0.0047884034,1442850,2249,652,-4,4403
46103022,3993,0,0.048364393,-0.9293825,-9.437476,0.01827991,-0.006800282,-0.02015237,47.168976,156.9064,0.0047884034,1442850,-481,645,-104,4393
46207028,4005,0,0.052693553,0.46614787,-8.9406395,0.0343206,0.00430276,-0.049845405,47.218838,156.9064,0.0047884034,1442850,-783,96,-3016,4411
46307046,4017,0,-0.2983287,1.0244733,-9.60664,-0.02090534,0.011274685,-0.043112613,47.221607,156.9064,0.0047884034,1442850,822,-647,297,4412
46407023,3952,0,0.809225,1.036138,-8.632407,0.03199613,-0.01072577,-0.027380308,47.218838,156.9064,0.0047884034,1442850,148,780,-3070,4411
46507029,4006,0,0.019291893,-0.017430197,-7.9857183,0.019452536,-0.0036444524,-0.02126583,47.227146,156.9064,0.0047884034,1442850,-1180,270,-4322,4414
46611821,3998,0,-1.7407905,-1.3769361,-8.863481,0.0155480085,0.008100694,-0.032140892,47.199444,156.9064,0.0047884034,1442850,-1198,-748,-1623,4404
46711824,4002,0,0.005869087,-0.011472487,-9.209991,-0.025716566,0.016240394,-0.039381027,47.193905,156.9064,0.0047884034,1442850,1287,10,-2821,4402
46815823,3983,0,0.92919713,1.0677646,-8.702356,0.0100754425,-0.007395002,-0.04361711,47.243767,156.9064,0.0047884034,1442850,1192,-125,-4953,4420
46916629,3978,0,-0.23284799,0.88906866,-9.919785,0.014627892,-0.004789432,-0.04170071,47.25208,156.9064,0.0047884034,1442850,-195,-497,528,4423
47016628,4006,0,-0.7451564,0.14027502,-10.056983,-0.0019050834,-0.01081188,-0.06306547,47.25485,156.9064,0.0047884034,1442850,-998,738,15,4424
47116622,4000,0,-0.43371856,-1.4192903,-9.7280445,-0.020409567,0.0011176919,-0.03410673,47.243767,156.9064,0.0047884034,1442850,-845,357,-2042,4420
47220664,4042,0,-0.21593401,-0.64739263,-9.508513,-0.0029520765,-0.00915898,-0.037942477,47.216064,156.9064,0.0047884034,1442850,89,359,-3731,4410
47321423,4000,0,-1.2677149,0.30460176,-9.87606,-0.02185574,0.009030162,-0.026294785,47.229916,156.9064,0.0047884034,1442850,-741,-869,1,4415
47421422,3979,0,-2.9293753e-05,1.3282571,-8.930412,0.016766839,-0.0012850126,-0.05625376,47.27424,156.9064,0.0047884034,1442850,-324,86,-5484,4431
47525455,4026,0,0.13627474,-0.67163044,-9.061692,-0.019512802,-0.003558402,-0.043975763,47.27147,156.9064,0.0047884034,1442850,1074,186,-4288,4430
47625458,4029,0,-0.5176633,-0.8421875,-10.23678,0.006507343,-0.0065017496,-0.06328031,47.265926,156.9064,0.0047884034,1442850,-1238,891,-744,4428
47729429,4007,0,-0.4739709,-0.53867006,-9.6488905,-0.015344054,0.0034161059,-0.02215517,47.29086,156.9064,0.0047884034,1442850,222,622,-2995,4437
47830222,4000,0,-1.1775818,0.80298024,-10.028934,0.009751026,0.010192056,-0.046627507,47.282547,156.9064,0.0047884034,1442850,-1622,-560,578,4434
47930222,4000,0,0.5841204,1.1624144,-9.849205,0.0048131263,0.0024662237,-0.06217653,47.27424,156.9064,0.0047884034,1442850,1275,-831,-3165,4431
48030222,3993,0,-0.48180047,0.49764773,-9.845047,-0.008421277,0.00026465766,-0.06647484,47.2964,156.9064,0.0047884034,1442850,-190,-121,-2666,4439
48134222,3991,0,-0.058152024,-1.184039,-10.554261,-0.019832328,-0.005542199,-0.023930311,47.285316,156.9064,0.0047884034,1442850,1424,-1316,-1741,4435
48235028,3981,0,-0.60630274,0.45730072,-10.86577,0.004605936,0.0018656715,-0.040543873,47.282547,156.9064,0.0047884034,1442850,-1026,-118,1240,4434
48335066,4043,0,-0.07165761,0.9978133,-9.980642,-0.0023187408,0.022209335,-0.019493239,47.31302,156.9064,0.0047884034,1442850,2,102,-1432,4445
48439023,4000,0,0.12843266,0.68298537,-9.865007,-0.00930306,0.010059195,-0.021863453,47.318558,156.9064,0.0047884034,1442850,-46,310,-2429,4447
48539023,4001,0,0.46393824,-0.3194325,-10.770701,0.004007369,-0.012043304,-0.048980735,47.29086,156.9064,0.0047884034,1442850,908,-335,-415,4437
48639829,4007,0,-0.05961512,-0.11121029,-9.54268,0.014920901,-0.0026860242,-0.058436543,47.30471,156.9064,0.0047884034,1442850,-180,1219,-4785,4442
48743823,3995,0,-0.64786255,1.0474935,-9.77864,0.0059072627,0.012107888,-0.071766146,47.33241,156.9064,0.0047884034,1442850,-675,-928,-3114,4452
48843870,4048,0,0.46641847,1.290283,-9.381944,0.00817161,-0.0090395715,-0.026583008,47.32133,156.9064,0.0047884034,1442850,137,1477,-1920,4448
48943822,3995,0,-0.15848516,0.19520739,-9.83813,-0.018864455,-0.000573138,-0.028183011,47.34349,156.9064,0.0047884034,1442850,436,-677,-1322,4456
49048622,4000,0,-0.19213143,-0.72607195,-9.837599,-0.020134822,0.00568952,-0.034070812,47.33795,156.9064,0.0047884034,1442850,745,118,-1786,4454
49148622,3987,0,-0.4818883,0.035682097,-10.151845,-0.008553124,0.0012939768,-0.023391975,47.299168,156.9064,0.0047884034,1442850,637,517,-3458,4440
49248631,4002,0,-0.17607194,1.3270688,-10.387983,0.008828428,0.012836698,-0.06578504,47.35734,156.9064,0.0047884034,1442850,-331,473,-792,4461
49352629,3985,0,-0.057263993,0.8657728,-10.037435,-0.008701322,0.0016720811,-0.037829705,47.318558,156.9064,0.0047884034,1442850,397,-5,-2469,4447
49453423,3965,0,-0.035981804,0.104550764,-10.837892,0.0009411361,-0.0013684363,-0.07513696,47.35457,156.9064,0.0047884034,1442850,-448,111,-564,4460
49553422,4000,0,0.5412103,-1.3154551,-10.071376,0.002345481,-0.0014836024,-0.06497343,47.37673,156.9064,0.0047884034,1442850,1070,-1540,-2245,4468
49657422,3999,0,-0.5511153,1.2513728,-10.509535,0.01179972,-0.0007773475,-0.032228224,47.36842,156.9064,0.0047884034,1442850,-1790,718,-1240,4465
49757423,4000,0,-0.24966243,2.3111694,-10.762734,0.0068687615,0.00072783045,-0.038054235,47.37119,156.9064,0.0047884034,1442850,-1223,1856,1405,4466
49858229,4001,0,1.1381457,0.5599629,-10.071643,-0.01463767,-0.009686153,-0.03319109,47.37673,156.9064,0.0047884034,1442850,2255,294,-1292,4468
49962222,3993,0,-1.2554146,-1.0314411,-9.662786,-0.0027096514,0.011767818,-0.03287382,47.390583,156.9064,0.0047884034,1442850,-1965,-282,-823,4473
50066229,4007,0,-1.2409669,0.70545954,-9.711912,0.023576593,0.008348106,-0.040384557,47.36842,156.9064,0.0047884034,1442850,-2402,622,-326,4465
50166237,4015,0,-0.5090433,1.24588,-8.725359,-0.008269434,0.01462543,-0.029245095,47.3795,156.9064,0.0047884034,1442850,-460,7,-1466,4469
50270246,4023,0,-0.24130963,1.0520093,-10.154529,-0.011685321,0.004498304,-0.05029267,47.396122,156.9064,0.0047884034,1442850,-708,-351,2304,4475
50371055,4032,0,0.5435602,-0.52973384,-9.529444,-0.024583057,-0.0010295304,-0.052062813,47.3795,156.9064,0.0047884034,1442850,1449,130,-3884,4469
50471023,4001,0,-0.3912296,-0.6807643,-8.673917,0.027792778,-0.005217988,-0.05501305,47.40443,156.9064,0.0047884034,1442850,-330,-126,-3689,4478
50575028,3999,0,-1.3944529,0.8152172,-8.376482,0.031028714,-0.0031620257,-0.031432927,47.40166,156.9064,0.0047884034,1442850,-2138,69,-2843,4477
50675823,4001,0,-0.5943622,1.1053991,-9.377264,-0.018504653,0.019142736,-0.018889202,47.42382,156.9064,0.0047884034,1442850,-150,-293,-1208,4485
50775823,4001,0,0.48120522,0.8290528,-9.50168,-0.021148795,-0.0044408967,-0.051901575,47.412743,156.9064,0.0047884034,1442850,2006,1468,-1549,4481
50875848,4021,0,0.012327885,-0.23106249,-8.607895,0.023964364,-0.011081519,-0.041660074,47.42105,156.9064,0.0047884034,1442850,-589,1272,-5588,4484
50979822,3994,0,0.5236767,-0.9409039,-9.180002,0.00056224084,-0.0024108076,-0.044945702,47.40166,156.9064,0.0047884034,1442850,519,-125,-2093,4477
51079823,3987,0,-0.2517845,0.57509696,-9.705727,0.0065001957,-0.0021127674,-0.011111737,47.396122,156.9064,0.0047884034,1442850,-221,862,-2569,4475
51180623,4001,0,0.18382011,0.80704945,-9.794693,0.017606318,-0.0048205345,-0.04973626,47.40166,156.9064,0.0047884034,1442850,-120,-241,-1250,4477
51284629,4007,0,1.3298737,-0.46373102,-10.084001,0.0069438294,-0.0048364582,-0.054218277,47.42382,156.9064,0.0047884034,1442850,429,-824,-131,4485
51384622,3985,0,-0.034493033,-0.8843686,-9.132348,0.011907779,-0.007932687,-0.023521861,47.43767,156.9064,0.0047884034,1442850,72,1490,-2944,4490
51484622,4000,0,-1.6905286,-0.40830052,-9.793081,0.01698702,-0.004890377,-0.020573312,47.432133,156.9064,0.0047884034,1442850,-2379,-576,2283,4488
51589453,4031,0,0.43699005,0.5262629,-9.233234,0.0022374475,0.0069467793,-0.027673319,47.443214,156.9064,0.0047884034,1442850,1588,-264,-2326,4492
51693422,3993,0,0.96571726,0.117183276,-8.928655,-0.009096254,0.0071949703,-0.03564303,47.43767,156.9064,0.0047884034,1442850,1689,492,-719,4490
51793422,3993,0,0.9138636,-0.97774816,-9.7887125,0.010139035,-0.0010938197,-0.041096967,47.429363,156.9064,0.0047884034,1442850,1,-1904,509,4487
51897429,4007,0,0.23891553,-1.2661018,-8.900514,-0.009548403,0.015667947,-0.037456393,47.459835,156.9064,0.0047884034,1442850,1348,-684,-2572,4498
51998222,3999,0,0.030817492,-0.032734193,-9.154828,-0.020168744,0.002257268,-0.051775385,47.451523,156.9064,0.0047884034,1442850,1239,-1753,-2502,4495
52098266,4037,0,0.10011175,1.0723107,-9.446483,-0.009712698,0.011922822,-0.037011676,47.476456,156.9064,0.0047884034,1442850,1568,-313,-2516,4504
52202260,4038,0,0.2777079,-0.016956322,-9.266561,-0.01800265,0.00437648,-0.043486092,47.487534,156.9064,0.0047884034,1442850,78,370,-551,4508
52302222,4000,0,1.2401441,-0.6051876,-10.761947,-0.012960161,-0.00725492,-0.023645531,47.459835,156.9064,0.0047884034,1442850,2503,803,-608,4498
52403023,4000,0,-0.20482673,-1.4504501,-10.917501,0.002823792,-0.0056289295,-0.057522118,47.44044,156.9064,0.0047884034,1442850,114,1072,-276,4491
52507028,4006,0,0.03681835,-0.31666452,-9.379122,0.019097377,0.0076058838,-0.053210802,47.476456,156.9064,0.0047884034,1442850,-433,-1367,-2706,4504
52607023,4001,0,-1.0564538,1.1688763,-9.991631,0.009590581,0.0037337262,-0.019856151,47.484764,156.9064,0.0047884034,1442850,-973,-529,-1016,4507
52707023,3969,0,0.2525079,0.3823686,-10.134176,-0.0069986796,0.011699593,-0.06573045,47.473682,156.9064,0.0047884034,1442850,-287,-1623,-494,4503
52807829,4002,0,1.3808074,-0.32381094,-10.07795,-0.016882986,-0.013518552,-0.016367156,47.531857,156.9064,0.0047884034,1442850,2047,-1343,-215,4524
52911822,3984,0,0.9995847,-1.5651747,-11.169962,-0.016064275,0.002497797,-0.057959665,47.493076,156.9064,0.0047884034,1442850,2798,-912,2160,4510
53011822,3994,0,-0.6182013,-0.91063964,-9.728015,0.010662268,0.010127006,-0.05516064,47.479225,156.9064,0.0047884034,1442850,383,-331,-6721,4505
53115829,4006,0,-0.19587857,0.91623455,-9.793448,-0.009566501,0.006956688,-0.06262547,47.484764,156.9064,0.0047884034,1442850,614,-1291,-558,4507
53216623,4000,0,0.6553691,2.0534272,-9.411538,-0.012016345,-0.0005035037,-0.03372001,47.506924,156.9064,0.0047884034,1442850,1399,1689,-3921,4515
53316622,4000,0,-0.6894434,1.1799824,-9.443144,0.008628942,-0.0026499429,-0.05585727,47.487534,156.9064,0.0047884034,1442850,-1211,1650,-1767,4508
53420623,4001,0,-0.20017862,-0.7858742,-10.344939,-0.024074202,-0.002864732,-0.026865613,47.518005,156.9064,0.0047884034,1442850,928,-148,-2374,4519
53520670,4047,0,-0.6395903,-0.4233687,-11.001475,0.0032678968,-0.0051743463,-0.057891503,47.529087,156.9064,0.0047884034,1442850,-1205,-428,2613,4523
53620629,4006,0,-0.22471797,-0.6520064,-9.782391,-0.012699796,0.006866601,-0.0486265,47.529087,156.9064,0.0047884034,1442850,1444,271,-3817,4523
53721422,3999,0,0.2694779,0.75429547,-10.343517,-0.005467147,-0.0023045149,-0.03846174,47.537395,156.9064,0.0047884034,1442850,686,-1192,397,4526
53825423,4000,0,0.7946467,1.6134413,-10.495137,0.006964464,-0.0011285061,-0.038247142,47.542934,156.9064,0.0047884034,1442850,245,-213,1444,4528
53925422,4000,0,0.28217414,0.3067596,-9.3713045,-0.009437269,-0.0008413531,-0.05277759,47.559555,156.9064,0.0047884034,1442850,315,1221,-3808,4534
54029423,3965,0,0.63253605,-1.4827642,-10.086687,-0.011537779,0.0017010011,-0.018085532,47.534626,156.9064,0.0047884034,1442850,1324,-1856,-275,4525
54130223,4001,0,-0.6223397,0.037814803,-8.785786,-0.00710569,0.021306831,-0.026289824,47.576176,156.9064,0.0047884034,1442850,720,-34,-7426,4540
54234232,4010,0,0.35891038,1.7783741,-9.698,0.027314216,-0.010138225,-0.007070279,47.545708,156.9064,0.0047884034,1442850,-355,1393,-3322,4529
54334228,4006,0,0.013317865,1.1969653,-9.58064,0.016542425,-0.0010487246,-0.06641138,47.603878,156.9064,0.0047884034,1442850,-543,721,-5481,4550
54438238,4016,0,0.6375393,-0.8344563,-9.294787,-0.023863973,0.009275609,-0.035636805,47.565098,156.9064,0.0047884034,1442850,1210,423,-2228,4536
54539023,4797,0,-0.3649804,-0.8753113,-10.289003,-0.0065290835,0.006511678,-0.053611066,47.554016,156.9064,0.0047884034,1442850,-455,40,-943,4532
54639023,3958,0,-0.9140996,-0.037271302,-9.65207,-0.02239184,-4.530608e-05,-0.03993568,47.565098,156.9064,0.0047884034,1442850,-506,-464,1623,4536
54743022,3949,0,0.15925208,0.63028544,-8.926782,-0.02149003,-0.004140895,-0.015540039,47.576176,156.9064,0.0047884034,1442850,1203,2042,816,4540
54843023,3994,0,0.16595522,-0.32527906,-7.816876,-0.00021620048,-0.0050704973,-0.021535564,47.551247,156.9064,0.0047884034,1442850,549,-967,-2167,4531
54943823,4000,0,0.21685146,-0.45330587,-8.651565,-0.005339168,0.009189137,-0.042164017,47.565098,156.9064,0.0047884034,1442850,675,770,-4075,4536
55047823,4001,0,-0.031722933,0.23970531,-9.606089,0.012108997,-0.017748287,-0.04813793,47.590027,156.9064,0.0047884034,1442850,-74,-490,-2049,4545
55147822,4000,0,-0.56368303,1.2162323,-10.054647,-0.008260112,0.022462891,-0.036417365,47.61496,156.9064,0.0047884034,1442850,-118,636,-1333,4554
55247822,3993,0,-0.64458174,1.0392082,-8.901996,-0.006838794,-0.008607344,-0.016321825,47.645428,156.9064,0.0047884034,1442850,-754,631,-3085,4565
55352644,4822,0,0.13070826,-0.59999216,-10.499848,0.0064913807,-0.011302987,-0.05240268,47.59834,156.9064,0.0047884034,1442850,297,1644,-2393,4548
55452638,4016,0,0.092527315,-0.3523188,-11.148056,-0.004998951,-0.0020282036,-0.065148026,47.606647,156.9064,0.0047884034,1442850,1228,1696,-1501,4551
55552663,4039,0,-0.84111196,0.17346016,-10.157003,0.0011478511,0.0048210965,-0.075283416,47.628807,156.9064,0.0047884034,1442850,-933,-910,-1474,4559
55656622,4000,0,0.45035806,1.2666523,-10.083319,0.011126373,-0.011185209,-0.04614157,47.63712,156.9064,0.0047884034,1442850,174,-508,-83,4562
55756622,4000,0,0.8438324,1.5294225,-9.874264,-0.0023013405,-0.01355677,-0.03309094,47.63435,156.9064,0.0047884034,1442850,1245,1154,-3283,4561
55857429,4007,0,0.24595395,0.884969,-10.415747,0.019343834,-0.022138242,-0.030995673,47.6205,156.9064,0.0047884034,1442850,284,1542,-2536,4556
55961423,3994,0,-0.43585902,-0.6252252,-11.206777,0.01268064,-0.0025091702,-0.035070013,47.61773,156.9064,0.0047884034,1442850,-777,381,-733,4555
56061422,3986,0,-0.36650506,-0.45768133,-10.486925,-0.017482216,0.016498892,-0.060087994,47.63158,156.9064,0.0047884034,1442850,173,481,-2563,4560
56161422,4000,0,-0.54493433,-0.1416108,-9.967143,0.004263815,-0.00012534345,-0.023509452,47.645428,156.9064,0.0047884034,1442850,314,-295,-1910,4565
56262223,4000,0,0.5520785,1.5976009,-9.800841,0.0040009096,0.010860796,-0.032341614,47.628807,156.9064,0.0047884034,1442850,726,-130,-1386,4559
56366236,4014,0,0.02333525,1.2645936,-9.515253,0.024990106,-0.009476719,-0.04754544,47.67036,156.9064,0.0047884034,1442850,-751,650,-2892,4574
56466266,4038,0,0.5656961,-0.4933204,-10.910942,-0.016648307,-0.0008873157,-0.014035627,47.66759,156.9064,0.0047884034,1442850,1384,-1282,670,4573
56570235,4013,0,-0.053133506,-0.79339975,-10.947293,0.0007923129,-0.011088293,-0.02729874,47.65374,156.9064,0.0047884034,1442850,521,297,-894,4568
56670279,4057,0,0.17796843,-0.71336484,-9.398606,-0.013854564,0.009295069,-0.05157811,47.63989,156.9064,0.0047884034,1442850,1231,-1735,-3507,4563
56771071,4049,0,-1.0160766,1.4457546,-9.033535,0.001108116,0.008171631,-0.029645743,47.65928,156.9064,0.0047884034,1442850,-1055,631,-3714,4570
56875028,4006,0,0.5384902,1.083048,-9.885756,-0.0032284164,-0.010935244,-0.022109825,47.664818,156.9064,0.0047884034,1442850,805,570,92,4572
56975022,4000,0,0.105144344,-0.3473416,-10.892661,-0.016749706,0.0021245747,-0.029094458,47.6482,156.9064,0.0047884034,1442850,221,-914,-617,4566
57075023,3971,0,-0.012934777,-0.9674106,-9.955183,0.018681323,-0.012697812,-0.058000203,47.65928,156.9064,0.0047884034,1442850,-1067,432,-1638,4570
57175829,4003,0,-0.24507257,-0.9855513,-9.517652,-0.029714325,0.019032454,-0.016489372,47.65374,156.9064,0.0047884034,1442850,1925,14,-5564,4568
57279822,3965,0,0.072985604,1.493622,-10.791437,0.010739341,0.0060274904,-0.030929934,47.68975,156.9064,0.0047884034,1442850,-847,-729,1442,4581
57379823,4001,0,0.4315319,2.8184757,-10.327026,-0.0059260493,-0.01349576,-0.06733293,47.69252,156.9064,0.0047884034,1442850,1682,1327,-1172,4582
57483822,4000,0,-0.43772802,0.54949355,-8.460759,0.0027087794,0.015032701,-0.058944955,47.68421,156.9064,0.0047884034,1442850,473,105,-5819,4579
57584622,3993,0,0.3846318,0.17465007,-10.366649,0.001986185,-0.0070174932,-0.08161805,47.70914,156.9064,0.0047884034,1442850,615,1303,-2808,4588
57684622,3993,0,-0.1451827,-1.0724591,-10.5173645,-0.014009096,-0.0074688876,-0.025288709,47.720222,156.9064,0.0047884034,1442850,205,-383,-1096,4592
57788629,4007,0,-1.1390674,1.3753804,-11.125986,0.008654297,-0.00057295803,-0.042203665,47.71468,156.9064,0.0047884034,1442850,-14,1891,532,4590
57888676,4054,0,-0.32665932,-0.082123324,-9.139286,-0.01305489,-0.0043906746,-0.014443734,47.7036,156.9064,0.0047884034,1442850,-244,-1096,97,4586
57988623,4000,0,0.2788156,0.9753592,-10.741901,0.0051125768,-0.006560445,-0.034992903,47.69529,156.9064,0.0047884034,1442850,1056,1749,-40,4583
58089424,3995,0,0.44413117,-0.27550045,-11.415787,-0.016570238,0.0027021905,-0.04985223,47.7036,156.9064,0.0047884034,1442850,843,-1123,1329,4586
58193422,4000,0,-0.76880014,-2.0305014,-9.558926,-0.012641726,0.013184812,-0.052470423,47.72576,156.9064,0.0047884034,1442850,-360,-2287,-4552,4594
58293429,4007,0,-0.6988909,-0.27244326,-10.110521,-0.017752483,-0.008882132,-0.007418352,47.73407,156.9064,0.0047884034,1442850,-143,-1213,660,4597
58394227,4004,0,-0.47701326,0.48773527,-8.626414,-0.0027198615,0.018833889,-0.044282183,47.739613,156.9064,0.0047884034,1442850,-752,-516,-4818,4599
58498222,3992,0,-0.48483616,0.6369338,-9.806948,0.0071045747,-0.01240321,-0.020371802,47.74515,156.9064,0.0047884034,1442850,-734,-102,-645,4601
58598222,4000,0,-0.37140122,0.5079777,-9.455396,0.013159587,-0.017564323,-0.058317207,47.770084,156.9064,0.0047884034,1442850,-266,1584,-3506,4610
58698222,4000,0,-0.16322178,-0.73525655,-9.785171,-0.022561125,-0.020279858,-0.004640827,47.775623,156.9064,0.0047884034,1442850,-125,-568,-1349,4612
58803053,4824,0,-0.27874714,0.67123276,-9.453345,0.027882233,0.02466011,-0.06965025,47.74515,156.9064,0.0047884034,1442850,-1278,-385,-2685,4601
58903022,3999,0,-1.0075082,0.3908426,-9.854348,-0.0049993536,-0.020335395,-0.020049494,47.736843,156.9064,0.0047884034,1442850,197,618,-1497,4598
59003066,4043,0,-1.0581878,0.49168175,-10.052676,-0.012099659,0.0035637566,0.003124523,47.775623,156.9064,0.0047884034,1442850,-952,-954,-818,4612
59107064,4041,0,-1.0155015,-1.0599163,-9.568707,-0.018784646,-0.008901435,-0.0016078958,47.742382,156.9064,0.0047884034,1442850,-516,-1423,-2718,4600
59207063,4041,0,-0.013730319,0.45167872,-10.571287,-0.015855305,-0.00960429,-0.0032370081,47.742382,156.9064,0.0047884034,1442850,853,-402,723,4600
59307839,4010,0,-0.13329048,0.20427294,-10.230103,0.01671787,0.015250575,-0.05179903,47.800552,156.9064,0.0047884034,1442850,-897,1506,-1143,4621
59411828,4006,0,-0.81678355,0.70080256,-9.004305,0.011076886,0.024831343,-0.07274635,47.772854,156.9064,0.0047884034,1442850,-651,-1174,-4850,4611
59515822,3993,0,-0.17734371,0.91002804,-9.18785,0.0013696181,-0.0018874379,-0.042256553,47.778393,156.9064,0.0047884034,1442850,341,863,-5423,4613
59615822,3999,0,-0.3084421,0.030663067,-10.168293,-0.004726243,-0.019655457,-0.036210574,47.797783,156.9064,0.0047884034,1442850,1378,875,-1458,4620
59716630,4007,0,-0.17343818,-0.102644496,-8.707667,0.0013841954,0.016551808,-0.043105274,47.819942,156.9064,0.0047884034,1442850,-454,-1849,-4657,4628
59820623,4001,0,0.21677518,0.50768036,-10.47291,-0.020080041,-0.004945862,-0.03175483,47.814404,156.9064,0.0047884034,1442850,1517,516,-1291,4626
59920651,4028,0,-0.4774577,0.3695049,-8.8103285,-0.0022697924,0.011255607,-0.05375594,47.789474,156.9064,0.0047884034,1442850,-57,-1822,-4460,4617
60024622,4000,0,0.22130354,0.08127055,-11.05219,-0.0013597428,-0.02221483,-0.038668696,47.831024,156.9064,0.0047884034,1442850,594,1594,1644,4632
60124622,4000,0,-0.37230727,-0.9898274,-8.788871,-0.011070781,-0.0006627068,-0.049212094,47.836563,156.9064,0.0047884034,1442850,65,-1924,-6043,4634
61039029,4006,0,-0.79273546,1.8793153,-11.233528,-0.008980403,-0.008630572,-0.042966742,47.875347,156.9064,0.0047884034,1442850,1041,767,68,4648
61139023,3994,0,0.09116935,0.9192073,-11.879092,-0.012276212,-0.019680372,-0.022588827,47.878117,156.9064,0.0047884034,1442850,1630,231,1177,4649
61243028,3974,0,-0.6392907,-0.24563459,-10.312812,-0.0012772023,0.011177819,-0.032373853,47.864265,156.9064,0.0047884034,1442850,-1056,108,-2120,4644
61343028,4006,0,0.28943387,0.3431004,-9.696446,0.012914275,0.013604417,-0.0613905,47.853184,156.9064,0.0047884034,1442850,-93,1097,-2284,4640
61443822,4753,0,-0.66396415,1.6709136,-11.56572,0.004501919,-0.024338951,-0.027888924,47.886425,156.9064,0.0047884034,1442850,383,2535,2414,4652
61543823,3993,0,0.025195597,0.49656484,-10.124437,-0.013967781,-0.014337204,-0.03453913,47.889194,156.9064,0.0047884034,1442850,940,212,957,4653
61647870,4037,0,0.30920333,0.17602733,-10.083975,0.0016881009,0.017487256,-0.06779313,47.858727,156.9064,0.0047884034,1442850,-298,607,-1967,4642
61751823,4000,0,-0.039871145,-0.44062924,-9.229816,-0.0035549384,-0.017200058,-0.011526439,47.897507,156.9064,0.0047884034,1442850,156,23,-703,4656
61851848,4019,0,0.3402645,1.0443931,-9.000847,0.023590473,0.0011002035,-0.062238865,47.900276,156.9064,0.0047884034,1442850,214,826,-3090,4657
61956628,3964,0,-0.51566523,0.2318019,-9.742943,-0.018672192,-0.00045817252,-0.00085766194,47.889194,156.9064,0.0047884034,1442850,-168,-1274,345,4653
62056629,4006,0,-0.8258681,-1.2874446,-7.9769077,-0.00043577544,0.007965546,-0.056879345,47.916897,156.9064,0.0047884034,1442850,476,-863,-5225,4663
62156622,4000,0,-0.60002035,-0.01729882,-8.559851,0.0069923997,0.025425233,-0.07773398,47.903046,156.9064,0.0047884034,1442850,-54,-918,-6289,4658
62260622,4000,0,0.28874123,-0.23402528,-9.26688,-0.0048908954,-0.008501992,0.0023989538,47.916897,156.9064,0.0047884034,1442850,-53,-2181,-2565,4663
62360622,3971,0,-0.29093203,0.8593803,-7.582525,0.011719203,0.022301823,-0.03106472,47.92798,156.9064,0.0047884034,1442850,-779,65,-3277,4667
62461422,3956,0,-0.33524337,1.4421016,-10.775928,-0.0049235336,-0.027504183,-0.002125145,47.936287,156.9064,0.0047884034,1442850,122,1511,1458,4670
62565431,4002,0,-0.036016986,-0.8717827,-9.419282,-0.01006444,-0.01676902,0.013148799,47.916897,156.9064,0.0047884034,1442850,-427,-710,-1670,4663
62665426,3997,0,-0.33128068,-0.25476903,-11.4669,-0.014148703,-0.026713196,-0.02464464,47.930748,156.9064,0.0047884034,1442850,1007,1375,3032,4668
62766227,4004,0,0.41314894,0.011308699,-10.89245,0.0047651753,0.02074615,-0.08365622,47.930748,156.9064,0.0047884034,1442850,708,660,673,4668
62870272,4050,0,-0.019581988,0.5640785,-9.871414,-0.01988195,-0.016023466,-0.020116271,47.939056,156.9064,0.0047884034,1442850,1231,-869,846,4671
62974232,4010,0,-0.5768244,0.13199383,-9.740988,-0.0075742435,0.0019320038,-0.033735882,47.919666,156.9064,0.0047884034,1442850,-1118,-575,-1644,4664
63074222,3999,0,0.5755244,-0.40330696,-10.516425,-0.009774238,-0.027320469,0.004935139,47.96399,156.9064,0.0047884034,1442850,1221,884,544,4680
63178228,4006,0,-0.48756486,-1.5726628,-9.456248,-0.015159315,-0.0005979426,-0.018696811,47.96399,156.9064,0.0047884034,1442850,127,-2138,-1828,4680
63279023,3994,0,-0.52413064,0.8976071,-11.071803,0.0070153275,-0.005648654,-0.057096895,47.94737,156.9064,0.0047884034,1442850,-191,1779,-1317,4674
63379049,4026,0,-0.18439828,0.92173463,-9.816701,-0.0031306683,0.033870324,-0.0650509,47.98061,156.9064,0.0047884034,1442850,-687,-2314,-2626,4686
63483034,4012,0,0.57603127,1.2937096,-9.320658,-0.006788032,0.00048735295,-0.015860217,47.96399,156.9064,0.0047884034,1442850,-518,319,-4131,4680
63587023,4000,0,-0.6730645,0.1248818,-9.562565,0.0046481644,0.019415444,-0.06464059,47.952908,156.9064,0.0047884034,1442850,-1429,-244,-3235,4676
63687822,4000,0,0.29448554,0.26150337,-9.946249,0.0031973564,0.008593863,-0.05469738,47.98338,156.9064,0.0047884034,1442850,-97,-804,-3066,4687
63787822,3999,0,-0.3829312,-0.60536575,-8.998925,0.0011361965,0.007853686,-0.026530413,47.975067,156.9064,0.0047884034,1442850,-485,-1466,-5335,4684
63891827,3999,0,-0.63308305,0.46220747,-8.774378,0.00047329487,0.019269317,-0.055640787,47.952908,156.9064,0.0047884034,1442850,-990,-1366,-4316,4676
63991860,4031,0,-0.48522115,0.1467546,-9.129512,-0.015599942,-0.013761511,-0.021763343,47.99723,156.9064,0.0047884034,1442850,170,-1535,-3021,4692
64091822,3999,0,1.0097916,0.4175141,-12.212787,-0.021246549,-0.009487508,-0.044970952,47.98338,156.9064,0.0047884034,1442850,1704,601,3058,4687
64196622,4000,0,-1.180711,0.2140696,-8.848906,0.014350382,0.017006144,-0.05756542,47.98338,156.9064,0.0047884034,1442850,-1822,-118,-2969,4687
64296622,4000,0,-0.6505771,-0.2086446,-8.857762,0.010599629,0.016366597,-0.0401249,48.03047,156.9064,0.0047884034,1442850,-1643,-1705,-1373,4704
64396623,3995,0,0.9487225,0.52590007,-9.352939,-0.011795381,0.002201172,-0.023208328,48.00831,156.9064,0.0047884034,1442850,436,-993,-1427,4696
64500633,3998,0,-0.07774714,-0.9343269,-9.322143,-0.0073640076,0.00698202,-0.017309114,48.02216,156.9064,0.0047884034,1442850,-275,-1012,-381,4701
64601429,3979,0,0.17741482,-0.30057603,-10.402354,-0.012037331,-0.014589791,-0.009343529,48.01385,156.9064,0.0047884034,1442850,1613,-423,918,4698
64701428,4005,0,-0.70225376,-0.07043596,-9.520303,0.0119067505,0.02772695,-0.0858841,48.00831,156.9064,0.0047884034,1442850,-1283,-1680,-5544,4696
64805423,4000,0,0.2738034,0.7626153,-8.9352455,0.016617918,0.025461884,-0.09527409,48.03047,156.9064,0.0047884034,1442850,-285,-1481,-6241,4704
64905422,3999,0,0.35925576,-0.2837243,-8.987788,-0.0105964355,-0.023858018,-0.020646188,47.98892,156.9064,0.0047884034,1442850,25,499,-1015,4689
65006229,4006,0,-0.0069214767,-0.1465244,-10.322556,-0.0016370837,-0.02101236,-0.019572113,48.047092,156.9064,0.0047884034,1442850,1057,1343,-445,4710
65110222,3993,0,-0.15654287,0.55475736,-9.753864,0.007967975,-0.0077261077,-0.043769628,48.03047,156.9064,0.0047884034,1442850,-104,729,-2666,4704
65214246,4024,0,0.41307816,0.5625846,-8.684299,0.0077594747,0.018730339,-0.08574873,48.04155,156.9064,0.0047884034,1442850,293,298,-2279,4708
65314229,4007,0,-1.0937587,0.99873245,-8.230943,0.006172841,0.0062713493,-0.037529223,48.049862,156.9064,0.0047884034,1442850,-1776,-788,-3075,4711
65418273,4051,0,-0.09797683,-0.1426,-8.783282,0.0020406004,0.012184527,-0.06512144,48.03324,156.9064,0.0047884034,1442850,-1368,-1435,-6265,4705
65519031,4008,0,0.0026694208,0.57412,-11.299121,-0.008672816,-0.0039560334,-0.06410229,48.0554,156.9064,0.0047884034,1442850,499,2071,469,4713
65619022,3999,0,-0.10052918,-0.43177646,-10.841102,-0.016395416,0.009717965,-0.038652904,48.102493,156.9064,0.0047884034,1442850,484,-874,1438,4730
65723031,4009,0,-0.51646537,1.0715215,-8.834057,0.0076327864,0.019211568,-0.009917051,48.096954,156.9064,0.0047884034,1442850,-1376,-1049,-3622,4728
65823022,3993,0,-0.098078854,1.153145,-8.262708,0.013717663,0.009254625,-0.052610807,48.083103,156.9064,0.0047884034,1442850,-829,-410,-6458,4723
65923058,4024,0,0.16272624,1.221357,-9.459754,0.018665552,0.0034801625,-0.053530093,48.1108,156.9064,0.0047884034,1442850,-1174,2141,-911,4733
66023822,3999,0,0.39101887,-0.5662288,-9.614273,-0.02641027,0.0033377707,-0.027400164,48.116344,156.9064,0.0047884034,1442850,602,-1636,-2273,4735
66127822,4000,0,-0.39310902,0.6402038,-9.61388,0.010191787,-0.002976966,-0.050810687,48.138504,156.9064,0.0047884034,1442850,-270,1050,-1057,4743
66227823,4001,0,0.25680402,0.38696626,-10.046673,-0.0056376164,-0.0076419627,-0.04140107,48.09418,156.9064,0.0047884034,1442850,470,-586,-1912,4727
66328623,4000,0,-0.39256534,-0.05477558,-9.429538,-0.008107552,-0.0160007,-0.013398609,48.1108,156.9064,0.0047884034,1442850,-432,-1645,-2256,4733
66432629,3963,0,-0.20075789,0.45113298,-10.748513,0.0030712613,-0.008845539,-0.06427385,48.124653,156.9064,0.0047884034,1442850,-224,1449,-288,4738
66536622,3978,0,0.33416334,0.9775063,-10.31754,-0.006690794,0.0010308824,-0.034472305,48.11357,156.9064,0.0047884034,1442850,106,32,-1072,4734
66636656,4034,0,-0.38616905,0.44653398,-9.232494,-0.005211036,-0.0062133567,-0.018097505,48.157894,156.9064,0.0047884034,1442850,-513,-1327,-2390,4750
66741423,3967,0,0.568031,0.7673743,-10.986886,0.013097381,-0.0096074045,-0.0780197,48.180054,156.9064,0.0047884034,1442850,-480,1825,-1141,4758
66841423,4001,0,0.2544663,-0.31026104,-11.343617,-0.0025424317,-0.016511075,-0.057153657,48.108032,156.9064,0.0047884034,1442850,1154,1216,-203,4732
66941423,3994,0,0.14207014,-0.13291465,-10.86105,0.0058533885,-0.003062628,-0.053385694,48.102493,156.9064,0.0047884034,1442850,534,796,-1729,4730
67045422,4000,0,0.34281558,1.1461327,-9.955092,-0.015765911,0.013177217,-0.0086461175,48.144043,156.9064,0.0047884034,1442850,168,-967,-147,4745
67145428,4005,0,-0.08315559,1.2949973,-9.781539,-5.3866068e-05,0.0033401058,-0.026707096,48.185596,156.9064,0.0047884034,1442850,-257,-509,-1423,4760
67246223,3962,0,0.1840491,-0.10814105,-10.147442,-0.014985779,0.0010607983,-0.030283097,48.163433,156.9064,0.0047884034,1442850,347,-680,37,4752
67350228,4006,0,-0.63331205,-0.35678333,-9.406723,-0.005247414,0.02145971,-0.026187463,48.218838,156.9064,0.0047884034,1442850,-255,124,-4303,4772
67450259,4037,0,-0.056580957,0.006739774,-9.454229,-0.0034569134,0.027842494,-0.015860127,48.182827,156.9064,0.0047884034,1442850,-209,-1957,-3140,4759
67550223,4001,0,-0.01245835,1.1638851,-9.908078,-0.0013711718,0.020314503,-0.007014563,48.199444,156.9064,0.0047884034,1442850,-548,-1884,-849,4765
67654223,3995,0,0.4079928,1.7674307,-9.129665,0.0179013,0.0009948397,-0.056320198,48.171745,156.9064,0.0047884034,1442850,-353,2062,-3092,4755
67755023,4001,0,-0.029444428,-0.33750686,-9.160045,0.009292506,-0.0011112303,-0.06708258,48.160664,156.9064,0.0047884034,1442850,-615,1170,-3317,4751
67855023,3995,0,-0.58815044,-0.639154,-8.889356,-0.00575664,0.008996999,-0.030423546,48.177284,156.9064,0.0047884034,1442850,-985,-1088,-2609,4757
67959023,3987,0,-0.11877186,0.47382453,-8.650882,0.012530266,0.025711883,-0.052388124,48.210526,156.9064,0.0047884034,1442850,-513,-377,-3693,4769
68059022,4000,0,0.18243618,1.1088004,-8.992511,-0.018706376,0.0112119,-0.023731485,48.199444,156.9064,0.0047884034,1442850,1348,-217,-1692,4765
68159822,3993,0,0.270366,0.69604254,-9.689331,0.014444346,-0.012459832,-0.049429797,48.188366,156.9064,0.0047884034,1442850,-664,-243,-1830,4761
68263829,4002,0,0.04044424,-1.0583704,-10.1758795,0.005424419,-0.013950738,-0.04139518,48.213295,156.9064,0.0047884034,1442850,321,-821,-1139,4770
68363829,4006,0,-0.33248582,-0.77364284,-9.440192,-0.015285032,0.018213013,-0.040722083,48.202217,156.9064,0.0047884034,1442850,1122,-141,-4943,4766
68463822,3983,0,-1.201396,0.11077325,-9.985185,0.005302678,0.015198231,-0.026201598,48.232685,156.9064,0.0047884034,1442850,-1513,-809,-1063,4777
68567856,4034,0,-0.14202984,1.8277975,-9.94812,-0.022046871,0.012022903,-0.02347216,48.210526,156.9064,0.0047884034,1442850,512,-1282,-1679,4769
68668671,4049,0,0.0066831755,2.5178366,-10.2037525,0.013261895,-0.016346714,-0.034411415,48.240997,156.9064,0.0047884034,1442850,-574,1729,183,4780
68768622,4000,0,0.6261781,0.7642755,-10.169075,-0.015699731,0.0057018474,-0.059820123,48.204987,156.9064,0.0047884034,1442850,1422,-260,-2876,4767
68872622,3993,0,0.60272384,-1.4551395,-10.8085985,0.0031991415,-0.010067968,-0.065252766,48.25485,156.9064,0.0047884034,1442850,759,-316,-909,4785
68972622,3993,0,-0.3871913,-1.3777075,-9.5074,-0.02020615,0.011833585,-0.01892035,48.224377,156.9064,0.0047884034,1442850,420,-1097,-1690,4774
69073423,3995,0,-0.7506179,0.45491633,-9.70683,0.010109279,0.0029101386,-0.043972947,48.25208,156.9064,0.0047884034,1442850,-1018,-916,-1775,4784
69177422,3963,0,-0.21772064,1.9047064,-9.431709,-0.01787376,0.015244396,-0.009039043,48.28809,156.9064,0.0047884034,1442850,-287,-664,-295,4797
69277423,4001,0,-0.026078152,2.3129156,-9.6177025,0.019101536,-0.012382999,-0.037206035,48.268696,156.9064,0.0047884034,1442850,-1178,1287,-2149,4790
69377423,3994,0,1.270021,0.82429457,-9.944732,-0.0060690143,-0.00883438,-0.047114447,48.268696,156.9064,0.0047884034,1442850,1209,348,-2646,4790
69478223,4000,0,-0.56766605,-0.76885307,-9.379581,0.0004235783,-0.0040220562,-0.06146732,48.249306,156.9064,0.0047884034,1442850,-922,285,-3699,4783
69582244,4022,0,-0.010391629,-1.8007052,-10.346586,-0.007325762,0.0030318834,-0.045734227,48.260387,156.9064,0.0047884034,1442850,727,-1075,-1061,4787
69686222,4000,0,-0.40492183,1.7359704,-10.203591,0.015611745,0.0015051672,-0.054515764,48.27147,156.9064,0.0047884034,1442850,-963,1165,-1462,4791
69786222,4000,0,0.5155672,1.3866115,-9.635633,0.0051842704,0.010781335,-0.022748964,48.27147,156.9064,0.0047884034,1442850,855,-734,-635,4791
69890253,4031,0,-0.34858957,0.67816406,-9.870234,0.005491947,-0.00941311,-0.049965575,48.282547,156.9064,0.0047884034,1442850,-1267,522,-968,4795
69991022,3993,0,0.539221,-0.26341233,-10.206991,-0.0104683135,0.0034962057,-0.021990431,48.30471,156.9064,0.0047884034,1442850,616,597,-281,4803
70091066,4037,0,0.32914338,-1.0270337,-9.085867,0.015983202,-0.012245586,-0.052434377,48.30748,156.9064,0.0047884034,1442850,-88,95,-2955,4804
70195042,4019,0,-0.763492,0.8629039,-9.756308,0.014398742,-0.0026115524,-0.035135265,48.301937,156.9064,0.0047884034,1442850,-1388,439,-1053,4802
70295029,4006,0,0.42037684,1.1269504,-10.268723,-0.010787889,0.016927345,-0.044682454,48.36288,156.9064,0.0047884034,1442850,568,-1639,-22,4824
70395823,4000,0,0.05931221,1.4912565,-9.195755,0.019830506,-0.012183176,-0.04049339,48.32133,156.9064,0.0047884034,1442850,-830,1361,-2415,4809
70499822,4000,0,-0.36332253,-0.82907885,-9.371586,0.00025996007,-0.0025504304,-0.042456668,48.34072,156.9064,0.0047884034,1442850,-559,1064,-2957,4816
70599834,4012,0,0.24870983,-1.6651963,-10.952546,-0.0058545573,-0.018380633,-0.034516137,48.33518,156.9064,0.0047884034,1442850,837,380,123,4814
70699829,4002,0,-0.71500826,-1.1321914,-9.60532,0.001545473,0.023083821,-0.048866153,48.318558,156.9064,0.0047884034,1442850,-395,-1608,-2941,4808
70803863,4028,0,0.6844315,1.748043,-9.925155,-0.0049511055,-0.0007504436,-0.05272355,48.34072,156.9064,0.0047884034,1442850,985,63,-1061,4816
70904627,3999,0,0.2532388,1.2365462,-9.514603,-0.015101127,0.006983921,-0.051184073,48.34903,156.9064,0.0047884034,1442850,606,-369,-2847,4819
71004635,4013,0,-0.48655817,0.17355871,-9.169717,-0.018371569,0.004149346,-0.062553264,48.37673,156.9064,0.0047884034,1442850,-660,-518,-3174,4829
71108622,3997,0,-0.020431848,-0.8652952,-10.258069,0.0130899735,-0.0008931246,-0.06523959,48.36011,156.9064,0.0047884034,1442850,-98,580,-2671,4823
71208622,3984,0,-0.054494683,-0.534606,-10.460252,0.014572832,0.0011237855,-0.051625177,48.3518,156.9064,0.0047884034,1442850,323,246,-229,4820
71309423,4000,0,0.4907411,0.99829185,-10.535942,-0.006537224,0.008047595,-0.018146824,48.36842,156.9064,0.0047884034,1442850,1261,-325,264,4826
71413429,4006,0,-0.47594982,1.9409589,-9.065969,-0.0037245369,0.00422162,-0.043383688,48.373962,156.9064,0.0047884034,1442850,-1120,644,-3138,4828
71513422,3999,0,-0.31360525,0.9091078,-10.318728,-0.0043930258,-0.0021385357,-0.04122375,48.32964,156.9064,0.0047884034,1442850,-629,858,-1051,4812
71613422,3967,0,-0.51637197,-0.54219425,-10.404441,-0.0069283266,-0.009562696,-0.024363205,48.42382,156.9064,0.0047884034,1442850,-653,986,-1176,4846
71718223,4000,0,-0.16687603,-1.7106943,-9.866428,0.018206622,-0.003985722,-0.052280236,48.34072,156.9064,0.0047884034,1442850,251,-268,-4101,4816
72731828,4006,0,-0.7425591,-0.905437,-9.637151,0.010618024,0.0065579554,-0.047158137,48.412743,156.9064,0.0047884034,1442850,-1247,306,-3017,4842
72831822,3966,0,-0.3609833,-1.3966086,-9.840764,0.0065638646,-0.012361268,-0.022266531,48.432133,156.9064,0.0047884034,1442850,166,-58,-1913,4849
72935822,4000,0,-0.57572055,0.6588281,-9.381202,0.0029517072,0.0070261913,-0.05042033,48.407204,156.9064,0.0047884034,1442850,-1690,-941,-1987,4840
73035845,4023,0,0.29065806,1.3801286,-10.526679,-0.00073978165,0.00017031468,-0.030609902,48.429363,156.9064,0.0047884034,1442850,675,1145,-429,4848
73136658,4036,0,-0.26831204,0.38551775,-9.068022,0.009919931,0.0009497751,-0.050335094,48.443214,156.9064,0.0047884034,1442850,-1199,-59,-2677,4853
73240623,4000,0,-0.08273017,-1.2562541,-9.6061325,-0.034361657,0.005539052,-0.02924037,48.445984,156.9064,0.0047884034,1442850,1319,-1024,-2553,4854
73340622,3993,0,-0.53468716,0.5181822,-10.38387,0.009354128,0.008916134,-0.067797765,48.470913,156.9064,0.0047884034,1442850,-524,-580,-1880,4863
73440661,4038,0,0.023447767,0.8027408,-9.348732,-0.017757267,0.008495465,-0.008463856,48.470913,156.9064,0.0047884034,1442850,958,-457,-2310,4863
73544623,3989,0,0.74258983,0.3321371,-9.878982,-0.0039037971,-0.009242174,-0.00772898,48.465374,156.9064,0.0047884034,1442850,1122,-441,-742,4861
73645422,3991,0,0.49968943,-0.6959191,-10.579517,0.0050387746,-0.023990147,-0.046685204,48.495846,156.9064,0.0047884034,1442850,436,1864,-1224,4872
73745422,4000,0,-0.025281912,-2.3364303,-10.863364,-0.008357501,-0.005167514,-0.057232227,48.490303,156.9064,0.0047884034,1442850,848,-487,-1079,4870
73849422,3999,0,-0.4059553,0.70384055,-10.146594,0.010307066,-0.0005567218,-0.029801862,48.462605,156.9064,0.0047884034,1442850,-904,168,-768,4860
73949422,3993,0,0.22608949,1.6222866,-9.855907,0.014434397,-0.0003852971,-0.007019091,48.45706,156.9064,0.0047884034,1442850,285,230,-1485,4858
74050223,4001,0,1.1206987,1.9385388,-8.979242,-0.011914957,0.0068531423,-0.032980517,48.481995,156.9064,0.0047884034,1442850,1499,-683,-2825,4867
74154228,4006,0,-0.15045448,0.84275246,-9.915402,0.021560097,-0.010815319,-0.030009508,48.476456,156.9064,0.0047884034,1442850,-874,520,-1356,4865
74254226,4004,0,-0.8484071,-0.5961733,-10.138154,0.015603417,-0.012312422,-0.022335917,48.506924,156.9064,0.0047884034,1442850,-1430,335,-1238,4876
74354222,4000,0,-0.46904826,-1.1829515,-10.426083,-0.004490979,-0.007332264,-0.033869874,48.495846,156.9064,0.0047884034,1442850,-976,-213,-514,4872
74459074,4051,0,-0.062480927,0.6426195,-9.1308565,0.023773262,0.0005248507,-0.05707258,48.509693,156.9064,0.0047884034,1442850,-28,-779,-5415,4877
74559028,4006,0,0.3215861,2.0026731,-9.164947,0.021903267,0.0020846128,-0.056912236,48.523544,156.9064,0.0047884034,1442850,-503,262,-4786,4882
74659023,3995,0,-0.097645134,1.7133744,-9.242303,0.020734675,0.004479419,-0.051185936,48.515236,156.9064,0.0047884034,1442850,-899,154,-2297,4879
74763022,3981,0,-0.17403649,-0.27754283,-9.953315,0.015708871,-0.0064196773,-0.034559883,48.512466,156.9064,0.0047884034,1442850,-775,-324,-1965,4878
74863023,4001,0,-1.065662,-1.3573028,-9.521859,-0.0062129702,-0.0008994237,-0.03152062,48.534626,156.9064,0.0047884034,1442850,-1398,-174,-2473,4886
74963829,4006,0,-0.7709399,-0.5866755,-9.612395,-0.018851573,0.015876247,-0.049057003,48.506924,156.9064,0.0047884034,1442850,-316,-813,-3402,4876
75067822,3989,0,-0.6155881,1.8012922,-9.485487,0.010579208,0.007224815,-0.013444129,48.495846,156.9064,0.0047884034,1442850,-843,-318,-2784,4872
75167828,4005,0,-0.60876095,1.6338592,-9.650153,-0.0058293296,0.016494337,-0.021329205,48.545708,156.9064,0.0047884034,1442850,-969,-407,-117,4890
75267822,3998,0,-0.90146077,0.507195,-9.520911,-0.015379808,0.004731495,-0.03503196,48.523544,156.9064,0.0047884034,1442850,-1049,-575,-1862,4882
75372623,4000,0,-0.342967,-1.0615761,-10.553445,0.014927339,-0.0032991772,-0.040697824,48.545708,156.9064,0.0047884034,1442850,-1499,1193,-747,4890
75472623,3995,0,-1.2370944,-1.067839,-10.601597,0.0014741435,0.0013548402,-0.026211593,48.529087,156.9064,0.0047884034,1442850,-883,35,-1442,4884
75572659,4037,0,-1.0964783,0.04327615,-10.288918,-0.008009657,0.015226832,-0.018868076,48.556786,156.9064,0.0047884034,1442850,-688,-810,-1857,4894
75676629,4007,0,-0.6810911,2.3667133,-9.293033,0.022824142,0.004902992,-0.047479477,48.567867,156.9064,0.0047884034,1442850,-1902,416,-1991,4898
75776637,4008,0,-0.22757645,1.4824897,-9.125083,0.024823666,-0.00079889153,-0.05408066,48.556786,156.9064,0.0047884034,1442850,-1312,368,-2970,4894
75877423,3989,0,-0.3884247,0.4920229,-9.707203,0.022320198,-0.005953867,-0.062412336,48.573406,156.9064,0.0047884034,1442850,-1658,636,-1404,4900
75981422,3999,0,0.7867479,-1.6712383,-10.413701,-0.007114305,-0.013958562,-0.0255943,48.551247,156.9064,0.0047884034,1442850,2017,-99,-2680,4892
76081429,3992,0,0.5015559,-0.9457114,-10.122364,-0.0173186,-0.0042447844,-0.027011575,48.578945,156.9064,0.0047884034,1442850,2050,-500,-2074,4902
76181429,4007,0,0.7744624,0.2731286,-10.233499,-0.00975673,0.0049456162,-0.025086336,48.567867,156.9064,0.0047884034,1442850,1677,-983,-308,4898
76285422,3999,0,-0.724939,1.4913588,-8.990833,-0.007534121,0.010267224,-0.03857862,48.573406,156.9064,0.0047884034,1442850,-615,36,-3127,4900
76386222,4000,0,-0.43433815,0.24660559,-9.4661875,-0.0018415544,0.0042022537,-0.054485366,48.587257,156.9064,0.0047884034,1442850,-1058,-41,-3666,4905
76490222,3993,0,-0.48459134,-1.2671422,-10.326709,0.013156008,-0.012283986,-0.035694502,48.584488,156.9064,0.0047884034,1442850,-330,58,-1717,4904
76590222,3993,0,-1.1274732,-0.0292971,-10.296826,0.0017793109,0.007478812,-0.01670679,48.59834,156.9064,0.0047884034,1442850,-1292,521,147,4909
76694229,3999,0,0.097118214,1.8400398,-8.732766,0.025328007,-7.064204e-05,-0.027415354,48.576176,156.9064,0.0047884034,1442850,-681,43,-3365,4901
76795023,3952,0,0.6672381,1.953046,-9.0811615,0.022195533,-0.007588924,-0.029110493,48.584488,156.9064,0.0047884034,1442850,365,737,-4171,4904
76895070,4047,0,0.45297143,0.19913867,-9.247829,0.016198305,-0.016357161,-0.048209965,48.60111,156.9064,0.0047884034,1442850,107,230,-2458,4910
76999028,4006,0,0.2091696,-1.111839,-9.424135,-0.022282444,0.010765834,-0.052527726,48.612186,156.9064,0.0047884034,1442850,1498,-630,-4863,4914
77099023,4000,0,-0.7711956,-0.41862342,-9.220835,-0.0048164045,0.014702031,-0.035580076,48.62327,156.9064,0.0047884034,1442850,-863,-344,-3219,4918
77203028,3999,0,-0.03387429,1.5679692,-9.3934,0.016411508,-0.0024354644,-0.042119462,48.603878,156.9064,0.0047884034,1442850,89,-242,-3222,4911
77303823,4001,0,0.34404308,1.0667311,-9.088262,-0.017846923,0.011055946,-0.035051886,48.609417,156.9064,0.0047884034,1442850,977,-1257,-1639,4913
77403823,4001,0,-0.3883179,0.44849077,-10.170238,-0.009598622,-0.0017822194,-0.038405858,48.64266,156.9064,0.0047884034,1442850,-619,-907,-1697,4925
77503822,3992,0,-0.42942315,-0.27647626,-10.334505,0.021794526,0.00018407032,-0.05481401,48.612186,156.9064,0.0047884034,1442850,-1268,977,-1296,4914
77607822,3988,0,-0.7362529,-0.53915155,-9.097149,-0.016341329,0.016131192,-0.05058219,48.66759,156.9064,0.0047884034,1442850,33,-368,-4039,4934
77708623,4000,0,-0.33792174,1.0445989,-10.665355,0.017597431,0.0029391255,-0.021976545,48.628807,156.9064,0.0047884034,1442850,-758,-337,-1368,4920
77808623,4001,0,0.066821344,1.8602052,-9.282429,-0.007329765,0.010056851,-0.04008895,48.648197,156.9064,0.0047884034,1442850,747,-201,-3079,4927
77912622,3999,0,1.0705583,0.87736744,-10.062598,0.007600818,-0.005672898,-0.054996446,48.626038,156.9064,0.0047884034,1442850,1021,556,-1022,4919
78012622,3999,0,0.12227676,-0.36561185,-9.098232,-0.027694846,-0.0053889686,-0.019669466,48.62327,156.9064,0.0047884034,1442850,1049,1531,-2968,4918
78116669,4047,0,-0.4970214,-1.3810148,-10.169349,0.0024391033,-0.009494174,-0.004946884,48.645428,156.9064,0.0047884034,1442850,-40,691,-356,4926
78217437,4015,0,-0.52433074,-0.07531435,-9.739216,-0.0071068583,0.012378443,-0.05379259,48.664818,156.9064,0.0047884034,1442850,-81,-1151,-2359,4933
78317429,4006,0,0.10664647,1.0120442,-9.015959,0.02153726,0.012089711,-0.061187238,48.63435,156.9064,0.0047884034,1442850,-777,-1105,-3219,4922
78417422,3998,0,0.885896,0.94610447,-9.684026,-0.014052591,-0.005658161,-0.024616852,48.68975,156.9064,0.0047884034,1442850,2325,58,-1520,4942
78521422,4000,0,-0.40640622,-0.055099837,-10.272794,0.016391367,-0.010926884,-0.044542663,48.6759,156.9064,0.0047884034,1442850,-1027,1302,-2444,4937
78621423,4001,0,-0.06130553,-1.464556,-9.503692,0.01151178,-0.009884762,-0.041324995,48.66759,156.9064,0.0047884034,1442850,108,-1019,-2635,4934
78722227,4005,0,-0.4127337,-0.83334744,-9.806973,-0.022625346,0.016291052,-0.031469643,48.68975,156.9064,0.0047884034,1442850,719,-1032,-1406,4942
78826222,4000,0,0.61082315,1.4652418,-9.444925,0.009519841,-0.0050971583,-0.044190176,48.69252,156.9064,0.0047884034,1442850,937,-1026,-1733,4943
78926222,4000,0,0.32131657,1.1343458,-9.076176,-0.023762973,0.0110290395,-0.042901345,48.69529,156.9064,0.0047884034,1442850,1364,-1054,-1761,4944
79026222,4000,0,-0.562747,0.95798594,-10.284025,-0.01762957,0.014018254,-0.02530601,48.68144,156.9064,0.0047884034,1442850,-309,-801,-272,4939
79131022,3993,0,1.1133758,-0.7766571,-9.603489,-0.011655062,-0.010752145,-0.03218903,48.700832,156.9064,0.0047884034,1442850,1781,274,-1646,4946
79231023,3993,0,0.33324072,-1.0965042,-10.062065,-0.011072015,0.0039754827,-0.010312472,48.67036,156.9064,0.0047884034,1442850,1193,-340,-92,4935
79331052,4030,0,0.30296904,-0.08036786,-9.992956,-0.004806429,0.014264209,-0.048031446,48.67867,156.9064,0.0047884034,1442850,857,-1591,-1578,4938
79435034,4012,0,-0.7681686,1.5214465,-9.844456,0.01667616,0.002833451,-0.038596816,48.720222,156.9064,0.0047884034,1442850,-1617,837,-1512,4953
79535828,4006,0,-0.38097188,0.9359887,-9.839448,0.012076247,-0.0052569928,-0.0683877,48.722992,156.9064,0.0047884034,1442850,-690,1064,-3185,4954
79635822,3992,0,-0.5437487,-0.008941459,-8.978072,0.006589923,-0.008674115,-0.053754896,48.70637,156.9064,0.0047884034,1442850,-1340,823,-4512,4948
79739829,4007,0,-0.33314005,-1.2239242,-10.867479,0.005293579,-0.014902873,-0.03506054,48.68698,156.9064,0.0047884034,1442850,789,941,-1700,4941
79839829,4007,0,0.42248163,-0.6634894,-9.5596895,-0.003444202,0.0029804078,-0.0101642795,48.67036,156.9064,0.0047884034,1442850,1412,-110,-2387,4935
79939822,3956,0,-0.22283126,0.36859044,-9.285149,-0.002287326,0.011419968,-0.037689485,48.722992,156.9064,0.0047884034,1442850,330,56,-1922,4954
