timestamp,integral_dt,error_count,x,y,z,x_integral,y_integral,z_integral,temperature,range_m_s2,scaling,device_id,x_raw,y_raw,z_raw,temperature_raw
35518885,4011,0,0.56224984,-0.4676967,-9.728043,0.0029988976,-0.0034642736,-0.037745357,64.33241,156.9064,0.0047884034,1442826,272,-69,2092,10589
35620518,3962,0,0.40092695,0.042351577,-10.141954,0.0031292483,-0.002822851,-0.03894267,64.36565,156.9064,0.0047884034,1442826,166,9,2013,10601
35720534,4010,0,0.18331182,0.7001607,-9.597971,-0.00012351226,0.0032765241,-0.040216953,64.3518,156.9064,0.0047884034,1442826,-169,-12,1753,10596
35824525,4007,0,-0.07438202,0.38522968,-9.513337,0.003203955,0.009858962,-0.03428582,64.33241,156.9064,0.0047884034,1442826,-528,-203,1996,10589
35924518,3991,0,-0.1734545,-1.4840117,-10.207675,-0.0048128874,0.003697537,-0.036067497,64.37673,156.9064,0.0047884034,1442826,-398,-37,1575,10605
36024518,4000,0,-0.0043937108,-1.0131769,-10.139145,-0.0011477987,0.0037574174,-0.03794375,64.38227,156.9064,0.0047884034,1442826,-295,-132,1999,10607
36128518,3994,0,0.18961222,0.4702167,-9.584812,0.004299474,0.009115455,-0.034007058,64.37673,156.9064,0.0047884034,1442826,-418,-181,1989,10605
36228524,3967,0,0.5075253,0.99307144,-9.6556835,0.0028664644,0.0048070108,-0.03870449,64.41828,156.9064,0.0047884034,1442826,5,140,2249,10620
36328521,4003,0,0.37124208,0.7075226,-9.825028,-0.0007188076,-0.0037614168,-0.04013183,64.39889,156.9064,0.0047884034,1442826,280,40,1863,10613
36432524,4006,0,-0.26267755,-0.48807177,-9.973198,0.00024964876,-0.0007916167,-0.039044615,64.40997,156.9064,0.0047884034,1442826,-58,-239,2239,10617
36534166,4059,0,0.580009,-0.055371564,-9.789126,0.003506768,0.008064769,-0.038006283,64.42105,156.9064,0.0047884034,1442826,-162,-23,2175,10621
36638098,3984,0,0.13889258,0.38481605,-9.651217,-0.0026414178,-0.0032623638,-0.03902071,64.42659,156.9064,0.0047884034,1442826,172,117,2033,10623
36738140,4020,0,-0.07324052,-0.5450519,-10.063562,0.0011288282,-0.001510964,-0.04031363,64.443214,156.9064,0.0047884034,1442826,-172,-94,2119,10629
36838077,3944,0,0.119631566,-0.049498152,-9.918522,0.0033122727,0.006887458,-0.034259588,64.45152,156.9064,0.0047884034,1442826,-571,-169,1927,10632
37455698,3990,0,0.5990051,0.5610028,-9.710596,-0.0050047017,-0.005532217,-0.04034409,64.484764,156.9064,0.0047884034,1442826,254,377,1861,10644
37555698,3998,0,-0.66002035,-0.5576631,-9.987275,0.001580124,-0.0009501028,-0.03655776,64.53462,156.9064,0.0047884034,1442826,-244,-184,1901,10662
37655707,3979,0,0.54543906,0.21012951,-9.914791,0.0060049966,0.0085765645,-0.036260985,64.476456,156.9064,0.0047884034,1442826,-383,-231,1716,10641
37759715,4011,0,0.11743117,0.09903575,-9.760543,-0.002442234,-0.007524765,-0.03965022,64.520775,156.9064,0.0047884034,1442826,368,292,2220,10657
37859741,4044,0,-0.2538619,-0.8954994,-10.134668,0.0018908475,-0.00072124985,-0.039136805,64.52631,156.9064,0.0047884034,1442826,-445,-206,1937,10659
37959698,4000,0,0.53729033,0.49002326,-9.5573435,0.0052027465,0.0117615685,-0.03307925,64.52908,156.9064,0.0047884034,1442826,-460,-143,2166,10660
38063711,4007,0,0.1824078,0.0018268499,-9.841991,-0.0014383334,-0.00986615,-0.04212918,64.554016,156.9064,0.0047884034,1442826,444,249,2089,10669
38163697,3990,0,-0.17716989,-0.9771471,-10.005765,0.0015859944,0.0015264014,-0.03736923,64.562325,156.9064,0.0047884034,1442826,-430,-132,1947,10672
38265297,4765,0,0.63463277,0.7186251,-9.540724,0.00615525,0.00988977,-0.046774827,64.58172,156.9064,0.0047884034,1442826,-34,-147,2212,10679
38369298,3959,0,-0.07733062,-0.057188373,-9.934921,-0.0080732405,-0.0053590336,-0.039371382,64.57895,156.9064,0.0047884034,1442826,192,304,2447,10678
38469298,3958,0,-0.58230567,-0.52910054,-9.989232,0.006544401,0.007370731,-0.03669878,64.58726,156.9064,0.0047884034,1442826,-127,-437,2298,10681
38569298,4001,0,1.1168239,0.6256164,-9.6135845,0.0063030445,0.0082279695,-0.035276864,64.60942,156.9064,0.0047884034,1442826,173,-106,2197,10689
38673298,4000,0,-0.5003264,-0.21204084,-9.841005,-0.003029037,-0.003713471,-0.03765557,64.634346,156.9064,0.0047884034,1442826,177,112,2468,10698
38773274,4000,0,-0.010653116,-0.383786,-10.058413,0.006400007,0.005831141,-0.03856493,64.58726,156.9064,0.0047884034,1442826,-325,-463,1945,10681
38877284,4010,0,0.44946203,0.75267255,-9.658241,-0.0032385094,-0.0033784122,-0.04211603,64.66482,156.9064,0.0047884034,1442826,296,254,1956,10709
38981274,3937,0,-0.07308308,-0.86867976,-10.093466,0.00019200108,-0.0007545244,-0.038722534,64.62881,156.9064,0.0047884034,1442826,9,-182,2072,10696
39081274,3962,0,0.40199444,0.54589576,-9.617764,0.0014891292,0.008613168,-0.038521774,64.62327,156.9064,0.0047884034,1442826,-204,-65,2009,10694
39182904,3972,0,0.37799877,0.78667533,-9.677343,-0.0034600315,-0.0063314456,-0.038992964,64.64543,156.9064,0.0047884034,1442826,253,175,2319,10702
39282897,3962,0,-0.35750744,-0.5628129,-10.007614,0.00042498065,-0.006196912,-0.03881192,64.64543,156.9064,0.0047884034,1442826,-111,-250,2116,10702
39386898,3956,0,0.72518057,0.62730694,-9.5322275,0.001962459,0.003361615,-0.043844566,64.65651,156.9064,0.0047884034,1442826,147,-62,2057,10706
39486914,4006,0,0.39832425,0.3639543,-9.792507,-0.005552173,-0.006741356,-0.042246543,64.675896,156.9064,0.0047884034,1442826,215,397,2054,10713
39586897,3955,0,-0.665408,-0.4698398,-9.99667,0.0029995996,-0.0040029455,-0.036491957,64.69529,156.9064,0.0047884034,1442826,-204,-266,1966,10720
39690920,4021,0,1.0720793,0.77099204,-9.654229,-0.00090093503,0.0043908968,-0.04176836,64.69529,156.9064,0.0047884034,1442826,282,200,2104,10720
39790897,4000,0,-0.119899176,0.08378241,-9.770638,-0.004945863,-0.0051772306,-0.042172004,64.71468,156.9064,0.0047884034,1442826,549,325,2338,10727
39894897,3999,0,0.59962535,-0.10086859,-9.885566,0.0071954923,0.008245281,-0.038173016,64.69252,156.9064,0.0047884034,1442826,-570,-274,1762,10719
39994898,3988,0,0.6602406,1.0445026,-9.48255,-0.0053905877,0.0015740022,-0.03830067,64.72299,156.9064,0.0047884034,1442826,265,360,2399,10730
40100557,4039,0,-0.21499607,-0.7898448,-10.142919,0.010343969,0.00085272116,-0.03638795,64.747925,156.9064,0.0047884034,1442826,-406,-546,1747,10739
40200518,3987,0,0.9954882,0.29995254,-9.418198,0.0014645408,0.008303799,-0.035733968,64.72853,156.9064,0.0047884034,1442826,-390,178,2396,10732
40304560,4042,0,-0.28260797,0.017561141,-9.95863,-0.00046786203,-0.0064222105,-0.04437391,64.77285,156.9064,0.0047884034,1442826,526,44,1965,10748
40408518,3973,0,0.5673364,0.28571025,-9.51071,0.0053334096,0.0088861585,-0.036011457,64.75346,156.9064,0.0047884034,1442826,-130,-143,2158,10741
40508520,3959,0,0.51621056,0.67785037,-9.521115,-0.0017420681,-0.0025429442,-0.04078809,64.789474,156.9064,0.0047884034,1442826,514,33,2140,10754
40612533,4059,0,-0.19942681,-0.48369765,-9.953685,0.0007334131,0.0054731783,-0.0380456,64.81163,156.9064,0.0047884034,1442826,-514,-232,2014,10762
40712474,4000,0,0.4989146,0.65920997,-9.575014,0.0029951285,0.007688009,-0.03737919,64.80332,156.9064,0.0047884034,1442826,-41,28,2486,10759
40812474,4000,0,0.3731064,0.4858781,-9.822377,-0.0032393606,-0.0020197881,-0.041245677,64.81163,156.9064,0.0047884034,1442826,512,228,2375,10762
40914127,3960,0,-0.34264028,-0.5804209,-9.811637,0.001954873,-0.003687863,-0.03677173,64.81718,156.9064,0.0047884034,1442826,-134,-121,2016,10764
41018118,3994,0,1.0987,0.82796425,-9.532305,-0.0011021489,0.0035777409,-0.040126182,64.8421,156.9064,0.0047884034,1442826,414,379,2330,10773
41118118,4000,0,-0.40796307,0.18519196,-9.975175,-0.0060066185,-0.0059363996,-0.04348608,64.825485,156.9064,0.0047884034,1442826,445,173,1997,10767
41218130,4006,0,-0.15717159,-0.6436665,-10.109546,0.006986945,-9.7804e-06,-0.03954069,64.85319,156.9064,0.0047884034,1442826,-369,-453,1901,10777
41322118,3992,0,0.49332675,0.8832495,-9.544004,-0.0020123404,-0.0013791921,-0.041461695,64.864265,156.9064,0.0047884034,1442826,376,180,1934,10781
41422118,4000,0,0.028229825,-0.10986593,-9.983086,0.00200483,-0.0069382307,-0.039436042,64.85319,156.9064,0.0047884034,1442826,353,-44,2054,10777
41526175,4052,0,0.2066053,0.15729068,-9.810091,0.0015077476,0.005382629,-0.03959345,64.89197,156.9064,0.0047884034,1442826,-99,-96,1766,10791
41630121,4003,0,0.2141467,0.14721087,-9.83541,5.7212193e-05,-0.0033711798,-0.04009171,64.89197,156.9064,0.0047884034,1442826,99,-160,2054,10791
41730120,4002,0,0.13244425,-0.43241894,-9.817718,-0.00070729695,0.0026885201,-0.038968574,64.89474,156.9064,0.0047884034,1442826,-63,-49,2104,10792
41831705,3967,0,0.33336416,0.46360254,-9.759178,0.0053272797,0.0034617358,-0.038869143,64.89751,156.9064,0.0047884034,1442826,-115,-95,1877,10793
41935732,4002,0,-0.026603298,0.06733236,-9.86564,0.00014608781,-0.00051754044,-0.03819172,64.92244,156.9064,0.0047884034,1442826,368,7,2063,10802
42035698,4000,0,-0.031807143,-0.4247144,-9.968251,0.0061191996,0.0022159908,-0.041402083,64.93075,156.9064,0.0047884034,1442826,-34,-276,1889,10805
42135698,4000,0,0.71556044,0.29806593,-9.767456,0.0008002432,0.003921584,-0.0390536,64.93629,156.9064,0.0047884034,1442826,-166,94,1936,10807
42239699,3976,0,-0.06876115,0.08421786,-9.88699,-5.2914e-05,-0.0038119676,-0.040856328,64.947365,156.9064,0.0047884034,1442826,457,30,1956,10811
42339700,3995,0,0.039835505,-0.37553513,-10.068079,0.0022628554,0.001944239,-0.037155796,64.93352,156.9064,0.0047884034,1442826,-67,-239,1762,10806
42443727,4022,0,0.3486954,0.65167034,-9.573974,0.00050477724,0.0011303159,-0.04104999,64.944595,156.9064,0.0047884034,1442826,164,-93,2277,10810
42543683,4009,0,0.34405848,-0.1948323,-9.932401,0.0005284937,-0.003212703,-0.039564744,64.95845,156.9064,0.0047884034,1442826,316,116,2151,10815
42645339,4042,0,-0.16851144,-0.106981084,-9.760584,0.0036397292,0.00328471,-0.03793381,64.98892,156.9064,0.0047884034,1442826,117,-182,2124,10826
42749297,3973,0,0.50449973,0.54365283,-9.6933155,0.0010616961,-0.00016417325,-0.03941851,64.983376,156.9064,0.0047884034,1442826,271,-21,2146,10824
42849302,3998,0,0.015483236,-0.31533954,-9.833827,-0.002191891,6.528663e-05,-0.041398548,64.99169,156.9064,0.0047884034,1442826,51,8,2193,10827
42953304,4007,0,0.6464733,0.37678808,-9.672532,0.005327283,0.004324548,-0.037047405,65.00554,156.9064,0.0047884034,1442826,-244,-13,2129,10832
43053298,4001,0,0.49852717,0.50697595,-9.8442545,-0.0038753583,-0.0007152458,-0.039207797,65.03601,156.9064,0.0047884034,1442826,205,196,2280,10843
43153297,3976,0,-0.6964822,-0.40873143,-9.937249,-0.0043735816,-0.0005961254,-0.039971296,65.03601,156.9064,0.0047884034,1442826,-67,-236,2208,10843
43257301,3997,0,1.1993674,0.52962464,-9.649402,0.004221582,0.0021649653,-0.036736302,65.04709,156.9064,0.0047884034,1442826,-21,168,2064,10847
43357297,3986,0,0.22224471,0.53150356,-9.68491,-0.0066861575,-0.0050474373,-0.0390815,65.03601,156.9064,0.0047884034,1442826,289,354,2360,10843
43461304,4006,0,0.015573909,-0.4161392,-10.069173,0.008240937,0.0056396443,-0.037151042,65.04986,156.9064,0.0047884034,1442826,-51,-289,1988,10848
43562927,4029,0,0.82339984,0.9139012,-9.516486,0.0010151205,0.000908134,-0.041514717,65.03047,156.9064,0.0047884034,1442826,175,79,2128,10841
43662904,4006,0,0.34799692,0.36242336,-9.838377,-0.0029651588,-0.008780752,-0.041320212,65.04986,156.9064,0.0047884034,1442826,411,203,2068,10848
43766898,4000,0,-0.1444471,-0.35264516,-9.824036,0.0071598343,0.007653783,-0.034253694,65.10526,156.9064,0.0047884034,1442826,-133,-300,2094,10868
43870898,4000,0,0.5830593,0.8536808,-9.62107,-0.00048024056,-0.0048929765,-0.039193533,65.096954,156.9064,0.0047884034,1442826,88,140,2256,10865
43970910,4012,0,-0.090653256,-0.7185235,-9.917689,-0.0074295746,-0.007332987,-0.03894814,65.096954,156.9064,0.0047884034,1442826,-44,288,2278,10865
44074898,3974,0,0.44255263,0.58244616,-9.752143,0.006438291,0.008706352,-0.038495485,65.12188,156.9064,0.0047884034,1442826,-33,-300,1924,10874
44174898,3999,0,0.6571,0.7731761,-9.727308,-0.0035011875,-0.0031057482,-0.041867,65.138504,156.9064,0.0047884034,1442826,340,310,1967,10880
44274901,4003,0,-0.5694,-0.29233906,-9.823635,-0.0045197965,-0.0060125208,-0.0403322,65.11634,156.9064,0.0047884034,1442826,395,-46,2217,10872
44376498,3960,0,0.50694054,-0.14986362,-9.804004,0.009543655,0.0020217043,-0.036430646,65.14404,156.9064,0.0047884034,1442826,-426,-285,1792,10882
44476506,4008,0,0.9620536,0.52101165,-9.585786,-0.004841471,-0.0035725853,-0.039496727,65.14958,156.9064,0.0047884034,1442826,-32,305,1862,10884
44580555,3990,0,-0.76823163,-0.26283732,-10.071533,0.0039979657,0.001683775,-0.04033634,65.135735,156.9064,0.0047884034,1442826,-50,-534,1920,10879
44680497,3967,0,0.8033528,0.27249286,-9.738049,0.005504008,0.004800969,-0.036775425,65.15789,156.9064,0.0047884034,1442826,109,-151,1934,10887
44784522,4025,0,0.026072003,0.07739768,-9.703194,-0.0024311927,-0.002696279,-0.042214073,65.14127,156.9064,0.0047884034,1442826,231,239,2271,10881
44884498,4001,0,0.043363273,-0.59017783,-10.084822,0.0018249217,0.006634344,-0.03903108,65.210526,156.9064,0.0047884034,1442826,-22,-157,2104,10906
44988502,4004,0,0.28771836,0.9335335,-9.486859,0.0013867645,-0.0022156204,-0.038674958,65.171745,156.9064,0.0047884034,1442826,81,92,2200,10892
45092497,4000,0,0.12878752,-0.7586769,-9.968411,-5.6371155e-06,-0.00046177162,-0.039000474,65.18836,156.9064,0.0047884034,1442826,-124,48,1977,10898
45192539,3995,0,0.18588322,0.5062572,-9.628501,0.0027360816,0.0058621047,-0.038234398,65.20499,156.9064,0.0047884034,1442826,-335,2,2080,10904
45294118,4000,0,0.40169337,0.46093756,-9.795234,0.002216122,-0.0056832805,-0.03940107,65.210526,156.9064,0.0047884034,1442826,218,19,2339,10906
45394156,3956,0,-0.040751133,-0.65339303,-10.042972,-0.00083253556,1.3602199e-05,-0.036203906,65.22437,156.9064,0.0047884034,1442826,-337,-146,1956,10911
45498156,4031,0,0.43404293,0.77242815,-9.620942,0.0025473335,0.00218709,-0.04001387,65.218834,156.9064,0.0047884034,1442826,240,-3,1967,10909
45598118,3988,0,0.3791716,0.005065722,-9.871819,-0.0022743521,-0.0068254736,-0.039500277,65.249306,156.9064,0.0047884034,1442826,215,269,2022,10920
45698161,4043,0,-0.38641328,-0.4058667,-9.911488,0.003169896,0.0011319042,-0.035443384,65.241,156.9064,0.0047884034,1442826,-258,-274,1736,10917
45802118,3993,0,0.6803886,0.7485785,-9.613127,0.0003192534,-0.0012977686,-0.041083578,65.2687,156.9064,0.0047884034,1442826,503,166,2102,10927
45902145,4002,0,0.008307293,-0.1815707,-9.819673,-0.0011029525,-0.0051167076,-0.04257234,65.30748,156.9064,0.0047884034,1442826,492,319,2395,10941
46006161,4041,0,0.69826204,0.43797296,-9.753936,0.0035172359,0.009960784,-0.0374879,65.29917,156.9064,0.0047884034,1442826,-198,86,2055,10938
47229298,3957,0,-0.55603,-0.5048563,-9.966938,-0.00062114984,-0.0045247045,-0.03893315,65.37396,156.9064,0.0047884034,1442826,29,-195,1914,10965
47329313,4015,0,0.9152437,0.09701902,-9.744303,0.008591942,0.0025108252,-0.03647153,65.41274,156.9064,0.0047884034,1442826,-502,-138,2109,10979
47433328,4015,0,-0.54479456,0.15161264,-9.946818,-0.0055973935,-0.0027130204,-0.041832943,65.42659,156.9064,0.0047884034,1442826,555,15,1898,10984
47533298,4000,0,-0.14042537,-0.43380055,-9.968059,0.007211251,0.0035427844,-0.040520716,65.404434,156.9064,0.0047884034,1442826,-103,-408,1739,10976
47633300,4003,0,0.9842644,0.74338174,-9.5792465,0.001248452,0.004422451,-0.037864156,65.39889,156.9064,0.0047884034,1442826,-261,246,1860,10974
47737334,4035,0,-0.41356376,-0.4567932,-9.965398,0.00067878823,-0.0059770336,-0.043901805,65.45152,156.9064,0.0047884034,1442826,363,-135,1830,10993
47838897,4000,0,0.67543155,-0.1886007,-9.812891,0.0023132786,0.008188618,-0.034839302,65.45983,156.9064,0.0047884034,1442826,-597,142,1979,10996
47938903,3999,0,0.29064727,1.0876572,-9.675731,-0.0034573055,-0.0008732553,-0.038469132,65.45152,156.9064,0.0047884034,1442826,300,99,1973,10993
48042897,3999,0,-0.07775896,-0.7503202,-10.083264,0.0030051041,-0.0018911995,-0.041991293,65.49307,156.9064,0.0047884034,1442826,-280,-325,1655,11008
48142923,4021,0,0.63454396,0.25846547,-9.505864,0.004694573,0.0046900883,-0.037127964,65.484764,156.9064,0.0047884034,1442826,-348,72,2046,11005
48242897,4000,0,0.27954346,0.5123926,-9.736395,-0.0015346286,-0.006468725,-0.040000908,65.46537,156.9064,0.0047884034,1442826,131,33,2073,10998
48346897,4000,0,-0.2830168,-0.27759427,-9.917095,0.0051909396,0.0067353556,-0.038445804,65.45983,156.9064,0.0047884034,1442826,17,-411,1938,10996
48446904,3991,0,0.8724188,0.6642672,-9.584779,0.0012538191,-0.0016936797,-0.036645006,65.50693,156.9064,0.0047884034,1442826,196,143,2177,11013
48546898,4001,0,-0.77250135,-0.59032667,-10.211355,0.0061855903,0.0045034327,-0.03966487,65.51247,156.9064,0.0047884034,1442826,-120,-696,1633,11015
48652497,3999,0,-0.48082072,-0.36757606,-10.002133,0.0053701615,0.004592175,-0.044292822,65.5097,156.9064,0.0047884034,1442826,-114,-533,1961,11014
48752510,3984,0,-0.48907116,-0.6327567,-10.100925,-0.006181029,-0.010499279,-0.043081746,65.54017,156.9064,0.0047884034,1442826,-169,34,1824,11025
48852498,4001,0,0.20578013,-0.06448411,-9.783815,-0.007844632,-0.006803072,-0.04659273,65.52631,156.9064,0.0047884034,1442826,445,42,2254,11020
48956537,4039,0,-0.09235201,-0.42001283,-10.102162,-0.010336242,-0.004318838,-0.04946676,65.562325,156.9064,0.0047884034,1442826,308,391,1958,11033
49056540,4042,0,1.109815,0.58447695,-9.432914,-0.003170014,-0.0124304155,-0.044588335,65.54017,156.9064,0.0047884034,1442826,-14,485,2227,11025
49160500,3996,0,0.79048026,0.7541377,-9.470919,0.0036173211,0.010474674,-0.03650368,65.58726,156.9064,0.0047884034,1442826,92,12,2276,11042
49264507,4008,0,-0.2929823,-0.3682739,-9.904373,0.006927799,0.005188095,-0.041477863,65.57341,156.9064,0.0047884034,1442826,-41,-427,1807,11037
49465274,3962,0,-0.7912025,-0.6182791,-10.008437,0.008330169,0.004755739,-0.03843396,65.603874,156.9064,0.0047884034,1442826,-104,-554,2121,11048
49566097,3921,0,1.4332404,0.8856705,-9.544065,-0.0018258615,-0.0012293393,-0.0385466,65.63158,156.9064,0.0047884034,1442826,81,456,1880,11058
49670110,4007,0,-0.83843744,-0.7322607,-10.126974,0.003639942,0.0013465931,-0.04190886,65.65651,156.9064,0.0047884034,1442826,-479,-492,1792,11067
49770097,3994,0,1.1063094,0.6511999,-9.589082,0.0039284783,0.008810538,-0.03502858,65.637115,156.9064,0.0047884034,1442826,-210,11,1978,11060
49870138,4036,0,0.3690126,0.5704085,-9.672997,-0.0037821375,-0.00080334337,-0.039734915,65.61496,156.9064,0.0047884034,1442826,445,191,2183,11052
49974119,4003,0,0.05749452,-0.4504562,-10.074392,0.00574831,0.005221837,-0.03780347,65.65651,156.9064,0.0047884034,1442826,-516,-304,1713,11067
50074131,4034,0,0.55844665,0.9290948,-9.582805,7.4169104e-05,0.0058399746,-0.03886161,65.67036,156.9064,0.0047884034,1442826,-62,109,2045,11072
50178117,4020,0,-0.035739467,-0.6791176,-9.977859,2.2241853e-05,-0.0071772467,-0.03869865,65.67313,156.9064,0.0047884034,1442826,-99,41,2243,11073
50278108,4010,0,0.25659323,-0.33933595,-9.7559,0.0021609447,0.0062674126,-0.034793828,65.66205,156.9064,0.0047884034,1442826,-759,-68,2061,11069
50383794,4076,0,0.2712187,0.29730663,-9.667746,-0.00012362309,-0.007084824,-0.040357336,65.675896,156.9064,0.0047884034,1442826,259,92,2080,11074
50483718,3994,0,-0.15116096,-0.7486147,-9.997197,0.0011468384,0.0012889601,-0.03875322,65.68421,156.9064,0.0047884034,1442826,-573,-393,1700,11077
50587724,3999,0,0.46035594,0.97729635,-9.525675,0.00088631164,-0.0026538267,-0.0416779,65.69806,156.9064,0.0047884034,1442826,268,14,2027,11082
50687718,4000,0,0.30201212,-0.13755317,-9.976864,-0.0042920727,-0.008274754,-0.041551966,65.72576,156.9064,0.0047884034,1442826,262,349,1758,11092
50787737,4016,0,-0.65330046,-0.5213601,-10.028672,0.0049822773,0.005010819,-0.035769254,65.69252,156.9064,0.0047884034,1442826,-270,-377,1686,11080
50891720,3963,0,1.1470122,0.8661622,-9.531434,-0.00070339587,-0.003064484,-0.040535185,65.73961,156.9064,0.0047884034,1442826,291,338,2095,11097
50991720,3996,0,-0.16502109,-0.2923657,-9.953771,-0.006765024,-0.008583672,-0.04222743,65.759,156.9064,0.0047884034,1442826,284,536,2193,11104
51091721,4001,0,-0.19783589,-0.7034849,-10.052269,0.0065255156,0.0037902473,-0.034779787,65.75346,156.9064,0.0047884034,1442826,-395,-388,1861,11102
51193347,4050,0,0.5415489,1.0362147,-9.466415,-0.00073420536,0.005147647,-0.042907313,65.72853,156.9064,0.0047884034,1442826,127,42,2123,11093
51297324,3999,0,0.17088404,-0.6160551,-9.967004,-0.0028317336,-0.0043605263,-0.042678617,65.75623,156.9064,0.0047884034,1442826,111,206,2371,11103
51397304,3954,0,0.07086937,-0.34546408,-9.911858,0.0022999162,0.0064112674,-0.035398953,65.781166,156.9064,0.0047884034,1442826,-276,-95,2044,11112
51497297,3993,0,0.3518894,0.9272628,-9.6527815,0.0020990195,0.002468328,-0.042224526,65.783936,156.9064,0.0047884034,1442826,234,-156,1937,11113
51601331,4034,0,-0.12666646,-0.54186547,-9.913369,-0.0041480497,-0.0005772965,-0.040121622,65.786705,156.9064,0.0047884034,1442826,-214,-52,2192,11114
51701324,3997,0,0.16276225,0.16911842,-9.670599,0.007534205,0.005746316,-0.03608691,65.789474,156.9064,0.0047884034,1442826,-288,-311,2262,11115
51805318,3955,0,0.28845248,0.07759969,-9.891301,-0.0035847866,-0.005459625,-0.036740713,65.783936,156.9064,0.0047884034,1442826,145,281,2210,11113
51905318,4000,0,-0.37842688,-0.6398638,-10.022439,0.00049665314,0.00089795934,-0.039964516,65.80886,156.9064,0.0047884034,1442826,-455,-358,1754,11122
52006097,4000,0,0.4890891,0.40632278,-9.703011,0.0036960524,0.009000631,-0.037442688,65.861496,156.9064,0.0047884034,1442826,-351,-124,1967,11141
52106942,4044,0,0.40053424,0.9284784,-9.6328,2.5249392e-07,-0.005546257,-0.040553875,65.792244,156.9064,0.0047884034,1442826,544,50,1984,11116
52210909,3979,0,0.0736689,-0.8602704,-10.132407,0.0030025232,0.0053628534,-0.039511636,65.869804,156.9064,0.0047884034,1442826,-477,-140,1860,11144
52310899,4001,0,0.42404604,0.6888696,-9.474151,-0.00022421239,0.011039675,-0.03719227,65.85319,156.9064,0.0047884034,1442826,-66,39,2030,11138
52410936,4032,0,0.17222275,0.9293959,-9.714185,0.001378621,-0.003079452,-0.040761247,65.867035,156.9064,0.0047884034,1442826,557,-186,2001,11143
52514905,4008,0,0.1384484,-0.64082664,-9.955431,0.0009230251,0.0030797292,-0.037229646,65.8421,156.9064,0.0047884034,1442826,-492,-76,2138,11134
52618899,4001,0,0.36793306,0.73999774,-9.777623,0.0007848947,-0.0019555553,-0.042535417,65.88088,156.9064,0.0047884034,1442826,223,65,2183,11148
52718964,4066,0,-0.011066538,-0.31563404,-10.059593,-0.0013210825,-0.0061904537,-0.039543543,65.864265,156.9064,0.0047884034,1442826,91,43,1923,11142
52819739,4066,0,0.20960133,-0.047135755,-9.643395,0.0022981586,0.0034102513,-0.038073137,65.88643,156.9064,0.0047884034,1442826,-285,-64,1983,11150
52920538,4041,0,0.7709577,0.66826785,-9.735728,-0.0011283809,0.0007506073,-0.039089154,65.903046,156.9064,0.0047884034,1442826,331,163,1870,11156
53020497,3993,0,-0.0697429,-0.21694425,-9.741811,-0.0035014094,-0.0021210648,-0.04058907,65.900276,156.9064,0.0047884034,1442826,210,200,2244,11155
53124497,3994,0,0.59896445,0.21345425,-9.811143,0.0070710666,0.005938594,-0.03546089,65.947365,156.9064,0.0047884034,1442826,-415,-117,2111,11172
53224497,3993,0,0.84181744,1.0245105,-9.584055,-0.0034460546,-0.00069953146,-0.03890317,65.89197,156.9064,0.0047884034,1442826,117,403,2007,11152
53324526,4022,0,-0.61627465,-0.23557918,-9.947177,-0.003228296,-0.0085920375,-0.040091947,65.911354,156.9064,0.0047884034,1442826,348,-104,2193,11159
53428503,3968,0,1.0020204,-0.05630722,-9.837845,0.0046582106,0.0076969275,-0.036774363,65.96399,156.9064,0.0047884034,1442826,-369,92,1874,11178
53528509,4011,0,0.46771434,1.0981797,-9.435636,-0.005012316,-0.0010528773,-0.04097175,65.93352,156.9064,0.0047884034,1442826,169,390,2044,11167
53629365,4868,0,-0.4111887,-0.24764572,-10.095169,7.841012e-05,-0.009521966,-0.049435697,65.95568,156.9064,0.0047884034,1442826,187,2,2148,11175
53734133,4033,0,0.7733548,0.6314395,-9.58015,0.0034726749,0.0043324037,-0.038281817,65.96953,156.9064,0.0047884034,1442826,14,-89,1926,11180
53834104,4006,0,0.28200826,0.32795423,-9.66686,-0.0020413743,-0.008280096,-0.041125603,65.95291,156.9064,0.0047884034,1442826,523,224,2182,11174
53934104,3964,0,-0.37718335,-0.8168553,-10.145424,-0.00046912237,-0.0014249149,-0.038258284,66.00277,156.9064,0.0047884034,1442826,-252,-170,1916,11192
54038112,4008,0,0.7097405,1.1522291,-9.514119,0.0009122435,0.004323398,-0.040177576,65.99169,156.9064,0.0047884034,1442826,348,3,2118,11188
54138124,4026,0,0.22734474,0.16127197,-9.8479395,-0.005466371,-0.009179716,-0.044474736,66.02493,156.9064,0.0047884034,1442826,702,398,2070,11200
54242097,3958,0,0.2677007,-0.16942205,-9.7075,0.006492566,0.008615076,-0.035602655,66.00831,156.9064,0.0047884034,1442826,-562,-284,2129,11194
54342097,4000,0,1.2335126,0.9739199,-9.590596,-7.751456e-05,0.0049829213,-0.038423896,65.98892,156.9064,0.0047884034,1442826,328,279,2185,11187
54442104,4007,0,-0.33314005,0.24794382,-9.817685,-0.008582245,-0.0035311698,-0.042681437,66.06094,156.9064,0.0047884034,1442826,521,182,1913,11213
54543703,4004,0,-0.30937928,-0.609507,-9.959174,0.0091806175,0.0042771315,-0.040577378,66.04432,156.9064,0.0047884034,1442826,-18,-445,2102,11207
54647697,3970,0,0.81365526,0.94387823,-9.449042,-0.004251346,0.00034217685,-0.03656291,66.01939,156.9064,0.0047884034,1442826,-24,354,2397,11198
54747705,3982,0,-0.57766926,-0.3915574,-9.972038,-0.0023062488,-0.005245805,-0.039237328,66.06648,156.9064,0.0047884034,1442826,170,-47,2071,11215
54847697,4000,0,0.08947934,-0.5674532,-10.034427,0.0071740495,0.006580329,-0.03812453,66.05263,156.9064,0.0047884034,1442826,-409,-350,1932,11210
54951715,4006,0,0.25030985,1.0483112,-9.556364,-0.005741414,-0.0035742342,-0.040747013,66.07202,156.9064,0.0047884034,1442826,302,239,1880,11217
55051697,3992,0,-0.4299345,-0.58292216,-9.940389,-0.001216553,-0.008595322,-0.042436972,66.06094,156.9064,0.0047884034,1442826,181,-211,2255,11213
55151697,3953,0,0.35661897,-0.4961945,-9.9403715,0.004805079,0.006019501,-0.035464257,66.0831,156.9064,0.0047884034,1442826,-533,-157,1707,11221
55255751,4054,0,0.32577804,0.92635417,-9.564931,-0.0038232938,-0.0033053232,-0.044163615,66.10526,156.9064,0.0047884034,1442826,672,121,2251,11229
55357318,4000,0,-0.38860378,-0.6879212,-10.136229,-5.5616518e-05,-0.0072384803,-0.040342692,66.094185,156.9064,0.0047884034,1442826,-12,-161,1832,11225
55457382,4037,0,0.3526612,-0.18832326,-9.785381,0.0049312753,0.0065792073,-0.037131738,66.130196,156.9064,0.0047884034,1442826,-437,-118,1717,11238
55557318,4000,0,0.7871309,1.0814097,-9.5149555,0.0005155217,-0.0004210561,-0.04016509,66.094185,156.9064,0.0047884034,1442826,189,294,2211,11225
55661323,4005,0,-0.41498482,-0.70985436,-10.144457,-0.0006974065,-0.00259456,-0.041312873,66.127426,156.9064,0.0047884034,1442826,144,-102,1980,11237
55761331,4010,0,0.33342764,0.08012785,-9.730369,0.008402912,0.007541785,-0.03887043,66.14127,156.9064,0.0047884034,1442826,69,-254,2035,11242
55865328,3996,0,0.32232204,0.446144,-9.468889,-0.004922428,-0.0051463223,-0.039465178,66.138504,156.9064,0.0047884034,1442826,207,260,2280,11241
55969371,4053,0,0.08693663,-0.5799531,-10.095091,0.0066847885,0.0033886,-0.038516313,66.171745,156.9064,0.0047884034,1442826,-458,-338,1766,11253
56069318,3995,0,0.92670417,0.84065634,-9.726375,-0.002028341,0.005335144,-0.038573664,66.14404,156.9064,0.0047884034,1442826,-83,292,1795,11243
56170907,4010,0,-0.4760557,0.20719804,-9.826909,-0.0018187638,-0.0047353655,-0.041337773,66.15512,156.9064,0.0047884034,1442826,415,57,2197,11247
56274897,4000,0,0.8613407,-0.18200487,-9.748745,0.0035867565,0.007367357,-0.03610351,66.16621,156.9064,0.0047884034,1442826,-726,3,2034,11251
56374897,3993,0,0.46932852,1.070314,-9.390446,-0.0052004484,0.0011753511,-0.039118875,66.18282,156.9064,0.0047884034,1442826,235,259,2472,11257
56474897,4000,0,-0.1947423,-0.26344305,-10.020874,-0.0014675431,-0.0050941836,-0.040510707,66.20222,156.9064,0.0047884034,1442826,480,67,2019,11264
56578897,3968,0,0.47215834,0.2122641,-9.661615,0.0049427506,0.006317606,-0.034809142,66.18836,156.9064,0.0047884034,1442826,-560,-252,1910,11259
56678901,3998,0,0.7192444,0.8899237,-9.662614,-0.0017266441,-0.0034898664,-0.039350912,66.19113,156.9064,0.0047884034,1442826,291,361,2349,11260
56778897,3994,0,-0.28434905,-0.6203499,-9.945313,-0.0044799526,-0.0038883057,-0.039337073,66.22992,156.9064,0.0047884034,1442826,129,161,2163,11274
56882910,4006,0,0.77977747,0.6405631,-9.553896,0.0064816037,0.0053002834,-0.03718926,66.252075,156.9064,0.0047884034,1442826,-408,-151,2040,11282
56984497,3965,0,-0.045605976,0.4982346,-9.685729,-0.009171989,-0.0026307905,-0.040210243,66.23269,156.9064,0.0047884034,1442826,423,201,2196,11275
57088537,4031,0,0.3482481,-0.42647374,-9.911682,0.0046302136,0.003998302,-0.037457407,66.241,156.9064,0.0047884034,1442826,-222,-101,1900,11278
57188498,4000,0,0.68600005,0.698011,-9.718503,-0.004274211,0.0037199827,-0.0377493,66.24654,156.9064,0.0047884034,1442826,-110,169,1708,11280
57288538,4040,0,-0.3516946,0.381203,-9.598317,-0.0045339223,-0.005207182,-0.04075112,66.288086,156.9064,0.0047884034,1442826,187,121,2200,11295
57388536,4038,0,-0.0444856,-0.6683613,-9.978335,0.0059505138,0.0010664305,-0.040763706,66.26593,156.9064,0.0047884034,1442826,-365,-434,1913,11287
57492497,3987,0,0.5137135,0.6780808,-9.476749,-0.0018544937,-0.0003234225,-0.03785325,66.26038,156.9064,0.0047884034,1442826,221,266,2022,11285
57592542,4044,0,-0.016155237,-0.034355443,-9.995444,0.00081638107,-0.0068024294,-0.041113988,66.27978,156.9064,0.0047884034,1442826,95,2,2081,11292
57692498,3994,0,-0.09645502,-0.62657166,-9.99489,0.00037862782,0.0057229265,-0.03718185,66.27147,156.9064,0.0047884034,1442826,-273,-140,1982,11289
57794103,4006,0,0.41941446,0.9998218,-9.581657,0.0028135814,0.0062678168,-0.04026619,66.296394,156.9064,0.0047884034,1442826,341,-33,2234,11298
57898097,4000,0,0.059302658,-0.59705347,-9.921731,-0.0013737127,-0.0043557137,-0.03738804,66.3518,156.9064,0.0047884034,1442826,-89,126,2121,11318
57998097,3946,0,0.095409624,-0.26998627,-9.767814,0.0023865565,0.0075316085,-0.038028084,66.34072,156.9064,0.0047884034,1442826,-345,-179,2134,11314
58102128,4025,0,0.22059,0.6170642,-9.573954,-0.0057107285,-0.0030054157,-0.037796617,66.34072,156.9064,0.0047884034,1442826,61,184,2163,11314
58202100,4003,0,-0.44409126,-0.5373093,-9.959048,0.0026424783,-0.0004550775,-0.038480118,66.31856,156.9064,0.0047884034,1442826,-157,-428,2071,11306
58302097,3960,0,0.8367495,0.14735748,-9.774525,0.007756981,0.007508035,-0.037231077,66.31579,156.9064,0.0047884034,1442826,-127,-267,1976,11305
58406097,3994,0,-0.45412445,0.13619757,-9.90946,-0.0040096557,-0.005119324,-0.040578984,66.34349,156.9064,0.0047884034,1442826,134,-114,1985,11315
58506144,4040,0,0.10304707,-0.71076137,-10.089667,0.0046142433,0.005352431,-0.038967345,66.33241,156.9064,0.0047884034,1442826,-170,-275,1847,11311
58607697,3999,0,0.45681173,0.9334734,-9.577991,0.00064894644,0.006237266,-0.037613586,66.38504,156.9064,0.0047884034,1442826,143,27,1970,11330
58711698,3975,0,0.047095243,-0.4570386,-10.079893,-0.0012382811,-0.00593264,-0.040152326,66.36288,156.9064,0.0047884034,1442826,370,103,2191,11322
58811698,3994,0,0.050258838,-0.5635813,-9.879882,0.0042814664,0.00711561,-0.036947567,66.3795,156.9064,0.0047884034,1442826,-167,-195,1884,11328
58911698,3993,0,0.578008,1.0389568,-9.473289,0.0031901186,0.0066768397,-0.041895393,66.38504,156.9064,0.0047884034,1442826,285,103,1982,11330
59015698,4000,0,-0.28183734,-0.4541187,-9.890858,-0.0021044158,-0.004354234,-0.038786765,66.42105,156.9064,0.0047884034,1442826,149,-116,2306,11343
59115698,4000,0,0.3559568,-0.1561928,-9.762337,0.0085451165,0.008054984,-0.03707521,66.37673,156.9064,0.0047884034,1442826,-234,-287,2065,11327
59215707,4009,0,1.0559694,0.8115629,-9.564791,-0.0026322505,0.003532479,-0.039579526,66.40997,156.9064,0.0047884034,1442826,407,426,2430,11339
59319724,4019,0,-0.8582882,-0.7844922,-10.004186,-0.00084586325,-0.002895467,-0.040151812,66.42659,156.9064,0.0047884034,1442826,-311,-391,1988,11345
59421345,4043,0,1.0111723,0.4601621,-9.639784,0.0067472016,0.010492294,-0.03695264,66.4626,156.9064,0.0047884034,1442826,-376,-78,2056,11358
59521297,3994,0,0.61482537,1.1156594,-9.485367,-0.005731791,-0.003912661,-0.044319987,66.38781,156.9064,0.0047884034,1442826,634,348,2271,11331
59621297,3991,0,-0.5422473,-0.48479897,-10.014382,-0.0002250784,-0.009231064,-0.043934144,66.44875,156.9064,0.0047884034,1442826,386,-136,2140,11353
59725297,3944,0,0.71042687,0.35669848,-9.640485,0.0036025057,0.012174907,-0.03260557,66.445984,156.9064,0.0047884034,1442826,-523,-113,2013,11352
59825325,4026,0,0.17772305,0.9954905,-9.517184,-0.0027325873,-0.001781926,-0.03842757,66.47369,156.9064,0.0047884034,1442826,456,82,2130,11362
59929299,4002,0,-0.096500136,-0.7442363,-10.134477,0.006540128,-6.733555e-05,-0.035668086,66.48753,156.9064,0.0047884034,1442826,-445,-422,1941,11367
60029307,4010,0,0.77722347,0.59988433,-9.585822,0.0028796538,0.006726113,-0.036961548,66.47369,156.9064,0.0047884034,1442826,-222,77,2138,11362
60133313,4009,0,-0.13411309,-0.2587505,-10.087699,-0.002567049,-0.0063165566,-0.040600184,66.476456,156.9064,0.0047884034,1442826,443,181,2193,11363
60230918,3993,0,-0.45296285,-0.92756224,-9.99057,0.00054167863,0.003507953,-0.038173437,66.520775,156.9064,0.0047884034,1442826,-299,-158,2260,11379
60330918,4000,0,0.40690294,0.37540132,-9.553792,0.0073639844,0.010606508,-0.035894196,66.51247,156.9064,0.0047884034,1442826,-456,-232,2034,11376
60434918,3986,0,0.30183858,0.09703543,-9.778563,-0.0047814576,-0.010779299,-0.042348072,66.518005,156.9064,0.0047884034,1442826,434,366,2048,11378
60534918,3958,0,-0.57817024,-0.9725007,-10.014839,0.0012083184,-0.00193475,-0.039842248,66.554016,156.9064,0.0047884034,1442826,-328,-200,2085,11391
60638961,4041,0,0.9220467,1.1336975,-9.485267,-0.0010532755,0.0025718915,-0.03959381,66.54848,156.9064,0.0047884034,1442826,284,325,2069,11389
60738942,4018,0,-0.34498957,0.21357161,-9.800816,-0.00513678,-0.0033932668,-0.04221133,66.559555,156.9064,0.0047884034,1442826,614,169,2232,11393
60838918,4000,0,-0.29226914,-0.6961579,-9.941618,0.008557142,0.0034476062,-0.03864452,66.559555,156.9064,0.0047884034,1442826,-191,-592,1883,11393
60942932,4014,0,0.85631377,0.8709811,-9.559608,-0.0062952098,-0.00090304564,-0.03975811,66.51247,156.9064,0.0047884034,1442826,122,427,2056,11376
61044511,4014,0,-0.9969761,-0.5688713,-10.010066,-0.0013257142,-0.0041986955,-0.041580368,66.57063,156.9064,0.0047884034,1442826,151,-230,2372,11397
61148497,3994,0,1.216038,0.6742428,-9.467763,0.003591891,0.007278263,-0.03451829,66.556786,156.9064,0.0047884034,1442826,-248,-25,1892,11392
61252504,4006,0,-0.43709594,-0.27965355,-9.934362,-0.0033580072,-0.010322414,-0.042784683,66.58449,156.9064,0.0047884034,1442826,562,144,2120,11402
61352508,4011,0,-0.039096262,-0.7209801,-10.20409,0.0056988136,0.006007281,-0.038998216,66.57063,156.9064,0.0047884034,1442826,-323,-279,1362,11397
61452497,4000,0,0.612455,0.986817,-9.370798,-0.00028839547,0.004640878,-0.038025644,66.58726,156.9064,0.0047884034,1442826,-129,214,1995,11403
61556498,4000,0,-0.07903351,-0.6463844,-10.004021,-0.0006239427,-0.006203724,-0.041219983,66.57895,156.9064,0.0047884034,1442826,335,130,2359,11400
61656546,4049,0,0.039743423,-0.22363117,-9.785733,0.0056178723,0.0065865777,-0.035973206,66.62327,156.9064,0.0047884034,1442826,-406,-170,1973,11416
61760504,3982,0,0.3863818,0.47816637,-9.822521,-0.0028237253,-0.0045163576,-0.04097253,66.62327,156.9064,0.0047884034,1442826,717,197,2224,11416
61858139,4002,0,-0.50589865,-0.5546709,-9.983839,-0.007189802,-0.0033330098,-0.038242552,66.634346,156.9064,0.0047884034,1442826,24,175,2156,11420
61962103,3976,0,1.0719036,0.70048326,-9.501023,0.009378368,0.004511831,-0.036664832,66.66759,156.9064,0.0047884034,1442826,-258,-126,1873,11432
62062098,3994,0,0.7140323,0.44155836,-9.646846,-0.006025448,-0.00676785,-0.039093852,66.64543,156.9064,0.0047884034,1442826,283,497,2279,11424
62166104,3965,0,-0.21184419,-0.4217482,-10.122294,0.00966618,0.0054244483,-0.040528044,66.68144,156.9064,0.0047884034,1442826,-227,-475,1595,11437
62266098,4000,0,1.0715632,0.85332996,-9.4588995,0.0016878113,0.0007241614,-0.034966215,66.67036,156.9064,0.0047884034,1442826,42,420,2264,11433
62366098,3934,0,-0.2307518,0.17871894,-9.792457,-0.004284736,-0.0063563315,-0.038891755,66.66205,156.9064,0.0047884034,1442826,295,68,2150,11430
62470107,4007,0,0.59144413,-0.102709986,-9.815149,0.0044598198,0.005702622,-0.035196956,66.65374,156.9064,0.0047884034,1442826,-327,-67,1823,11427
62570145,4047,0,0.49099556,0.946642,-9.453561,-0.0031995142,-0.0013499333,-0.038492043,66.639885,156.9064,0.0047884034,1442826,83,200,2082,11422
62671744,4033,0,-0.2015491,-0.5767959,-10.107265,-0.0017724436,-0.0045009144,-0.03997158,66.68975,156.9064,0.0047884034,1442826,228,-97,2110,11440
62771707,4003,0,-0.11237783,-0.15672866,-9.83164,0.0051229913,0.008163006,-0.036695566,66.70637,156.9064,0.0047884034,1442826,-289,-316,1889,11446
62875704,4007,0,0.69559515,0.56858087,-9.602424,-0.00055833056,-0.0044578128,-0.039906185,66.68144,156.9064,0.0047884034,1442826,94,139,2295,11437
62975698,4001,0,-0.13800906,-0.8532444,-10.059681,-0.0042595244,-0.002582645,-0.040361993,66.68698,156.9064,0.0047884034,1442826,-203,95,2336,11439
63075715,4018,0,-0.047288455,0.12382612,-9.665712,0.005597508,0.009380089,-0.036559284,66.67313,156.9064,0.0047884034,1442826,-281,-367,2048,11434
63179697,3961,0,0.30294847,0.28458807,-9.676064,-0.0025749723,-0.0046271738,-0.03904654,66.72576,156.9064,0.0047884034,1442826,185,177,2196,11453
63279697,3997,0,-0.22187135,-0.5556383,-9.845588,0.0010955612,5.5105425e-05,-0.040655978,66.75623,156.9064,0.0047884034,1442826,-343,-218,2064,11464
63380518,3990,0,0.63941324,0.20802025,-9.690742,0.0016329968,0.0072350856,-0.036512904,66.70083,156.9064,0.0047884034,1442826,-270,21,2108,11444
63485343,4044,0,-0.32876623,-0.108862445,-9.839251,-0.003999984,-0.005844405,-0.041373655,66.72853,156.9064,0.0047884034,1442826,74,75,2109,11454
63585304,4007,0,0.06256249,-0.49482095,-10.070115,0.007120361,0.0055850707,-0.036192045,66.750694,156.9064,0.0047884034,1442826,-347,-380,1829,11462
63685298,3967,0,0.73487157,0.8796096,-9.416501,-0.000817808,0.007533659,-0.034281906,66.74238,156.9064,0.0047884034,1442826,163,183,2271,11459
63789297,3999,0,-0.16411926,-0.6799583,-10.093314,0.0014472636,-0.010123398,-0.040257033,66.74515,156.9064,0.0047884034,1442826,-51,-92,1971,11460
63889316,4019,0,0.1258912,-0.40238792,-10.002361,0.0036152783,0.006357994,-0.034086846,66.750694,156.9064,0.0047884034,1442826,-558,-158,1930,11462
63993298,4000,0,0.15761405,0.8566022,-9.651589,0.00061605196,-0.005700349,-0.04396942,66.76454,156.9064,0.0047884034,1442826,482,-236,1923,11467
64093298,3999,0,0.19378307,-0.6963366,-9.879868,-0.0020140004,-0.009088397,-0.03969919,66.786705,156.9064,0.0047884034,1442826,107,300,2117,11475
64194897,3993,0,0.1691012,-0.07109558,-9.703527,0.0009376308,0.0073098363,-0.036729895,66.77562,156.9064,0.0047884034,1442826,-556,-117,2025,11471
64294897,3994,0,0.32244566,0.67987007,-9.702623,0.0007017174,0.0021440764,-0.038199626,66.77839,156.9064,0.0047884034,1442826,7,-100,1996,11472
64394935,4038,0,-0.060346927,0.098324776,-9.834155,-0.0029452392,-0.0017615791,-0.04119959,66.75623,156.9064,0.0047884034,1442826,183,206,2113,11464
64498951,4018,0,0.8075892,0.16872275,-9.667186,0.007646903,0.0073397374,-0.03739287,66.80332,156.9064,0.0047884034,1442826,-544,40,2062,11481
64598903,3990,0,-0.6673835,-0.19125864,-9.961055,-0.011806486,-0.0046551763,-0.04531877,66.80055,156.9064,0.0047884034,1442826,472,302,1998,11480
64702897,4000,0,0.88485175,0.4548636,-9.522517,-0.009534776,-0.01048151,-0.04284152,66.81995,156.9064,0.0047884034,1442826,402,666,2188,11487
64802898,4001,0,1.1020095,1.136097,-9.429328,0.007207263,-0.0008631533,-0.038170658,66.80609,156.9064,0.0047884034,1442826,-211,85,2006,11482
64906897,4000,0,1.0764383,0.5372852,-9.683071,0.0058972505,-0.0028876625,-0.038083527,66.8421,156.9064,0.0047884034,1442826,-225,255,1970,11495
65008518,4000,0,1.1606216,0.8661597,-9.463472,0.0037153948,-0.00028815598,-0.042708077,66.83379,156.9064,0.0047884034,1442826,529,-22,1576,11492
65112518,3990,0,0.97243965,1.175753,-9.440945,-0.0018108237,-8.448772e-05,-0.04290144,66.831024,156.9064,0.0047884034,1442826,1039,258,2145,11491
65212524,3962,0,-0.0942889,-0.09339466,-9.787332,0.008239804,0.0096328035,-0.039018847,66.84764,156.9064,0.0047884034,1442826,-399,-345,1847,11497
65312518,3994,0,-0.034477435,-0.16940324,-9.80054,-0.0031229244,-0.0013383743,-0.040549524,66.861496,156.9064,0.0047884034,1442826,549,92,2231,11502
65416524,4006,0,0.2940835,0.9195371,-9.57536,0.0019132872,0.0030051,-0.042526547,66.83656,156.9064,0.0047884034,1442826,524,59,2405,11493
65516518,4000,0,0.08042853,-0.5921959,-9.905076,-0.0013817659,-0.004011307,-0.03978714,66.905815,156.9064,0.0047884034,1442826,-313,-190,1730,11518
65616518,3981,0,0.22144613,0.59148526,-9.666615,0.0030100418,0.009928896,-0.03934587,66.88366,156.9064,0.0047884034,1442826,28,-52,2130,11510
65720518,4000,0,-0.11105248,-0.5573744,-9.83747,-0.0025844926,-0.004898422,-0.03820544,66.91412,156.9064,0.0047884034,1442826,-182,55,2320,11521
65822144,4040,0,0.2865611,0.14669542,-9.738048,0.007985984,0.005280344,-0.038303748,66.91967,156.9064,0.0047884034,1442826,-318,-433,1744,11523
65926099,3987,0,-0.23632057,0.16590123,-9.7177,-0.008195699,-0.0056512253,-0.042302437,66.91967,156.9064,0.0047884034,1442826,642,414,2048,11523
66030097,3959,0,0.8599908,-0.07518297,-9.736162,0.009315366,0.011595413,-0.035676666,66.911354,156.9064,0.0047884034,1442826,-591,-299,1925,11520
66130123,4012,0,0.7558843,0.9679736,-9.487827,-0.008398021,0.0006729767,-0.042701334,66.91967,156.9064,0.0047884034,1442826,343,484,2461,11523
66230097,3952,0,-0.7493913,-0.44987085,-10.135674,-0.0006282744,-0.008826822,-0.043419037,66.92244,156.9064,0.0047884034,1442826,210,-257,2128,11524
66334140,4037,0,0.8274637,0.8233379,-9.391932,0.0047465265,0.008974129,-0.0345613,66.92798,156.9064,0.0047884034,1442826,-6,-63,2105,11526
66434107,4010,0,0.29077488,0.44386536,-9.67193,-0.0035248112,-0.005735925,-0.0440733,66.950134,156.9064,0.0047884034,1442826,530,111,2123,11534
66538097,3990,0,-0.14727513,-0.36562586,-9.99149,0.00523677,0.010214173,-0.037066195,66.95291,156.9064,0.0047884034,1442826,-451,-401,1875,11535
66635720,4016,0,0.46897408,0.5206317,-9.575591,0.0045995526,0.008772073,-0.034271356,66.9723,156.9064,0.0047884034,1442826,-550,-78,1953,11542
66739697,3973,0,0.033572108,0.049530614,-9.990829,-0.002417671,-0.011631171,-0.041289065,66.950134,156.9064,0.0047884034,1442826,731,-1,2055,11534
66839704,4007,0,-0.49370632,-0.94475114,-10.145056,0.0036372612,0.0020341298,-0.041145604,66.947365,156.9064,0.0047884034,1442826,-200,-323,1599,11533
66939704,4006,0,0.7378753,0.347311,-9.592654,0.0061676437,0.0071073817,-0.03805934,66.980606,156.9064,0.0047884034,1442826,-362,-198,2049,11545
67043698,4000,0,-0.25400886,0.30690607,-9.758158,-0.0044929017,-0.005189757,-0.039163835,66.9723,156.9064,0.0047884034,1442826,423,251,2212,11542
67147704,4007,0,0.36649305,-0.36285377,-9.861784,0.008350105,0.0023372318,-0.036057867,66.983376,156.9064,0.0047884034,1442826,-593,-351,1776,11546
67247746,4049,0,0.83074737,0.66790223,-9.57947,-0.0013483746,0.0017693219,-0.037654825,67.00831,156.9064,0.0047884034,1442826,-140,290,2006,11555
67348545,4072,0,-0.1322145,0.12168147,-9.649626,-0.0036548213,-0.0035174398,-0.041949444,67.01108,156.9064,0.0047884034,1442826,164,178,2503,11556
67453297,3997,0,0.4688415,0.15160158,-9.8165,0.0019616215,0.008075975,-0.03652031,66.986145,156.9064,0.0047884034,1442826,-606,-44,1851,11547
67557296,3961,0,0.22555266,0.20586708,-9.639755,-5.952962e-05,-0.010019238,-0.042143457,67.02216,156.9064,0.0047884034,1442826,355,40,2210,11560
67657303,4000,0,-0.10515301,-0.7621369,-10.079144,0.00022069772,-0.0055355956,-0.03838661,67.04432,156.9064,0.0047884034,1442826,-117,-51,1880,11568
67761348,4051,0,0.43558162,1.0179685,-9.560104,0.002348153,0.009232015,-0.03689876,67.04986,156.9064,0.0047884034,1442826,244,-109,2217,11570
67861297,4000,0,0.3742435,0.53748965,-9.768911,-0.0051133353,-0.0042293738,-0.042575102,67.01385,156.9064,0.0047884034,1442826,538,100,2107,11557
67961344,4047,0,-0.527983,-0.6256208,-9.930467,-0.0019515975,-0.0030562477,-0.041933153,67.02216,156.9064,0.0047884034,1442826,265,-121,2074,11560
68065309,3979,0,1.0872153,0.5971972,-9.388152,0.0036466937,0.0061219004,-0.036685705,67.04432,156.9064,0.0047884034,1442826,-156,50,2396,11568
68166898,3964,0,-0.14711848,0.37312376,-9.824012,-0.006264122,-0.0005874016,-0.040393956,67.06371,156.9064,0.0047884034,1442826,322,278,2149,11575
68266898,4000,0,-0.4719038,-0.41749308,-9.877704,0.0061592297,0.0027797217,-0.040519986,67.099724,156.9064,0.0047884034,1442826,-113,-500,2109,11588
68370924,4026,0,0.88142407,0.6097448,-9.582706,-0.0014801085,-0.0011912462,-0.03742619,67.058174,156.9064,0.0047884034,1442826,-18,320,2168,11573
68470898,3997,0,-0.2801388,-0.12767594,-9.76914,-0.0037668832,-0.004342197,-0.040943377,67.07756,156.9064,0.0047884034,1442826,-75,130,2126,11580
68574897,3999,0,0.61795866,0.20374312,-9.891024,0.0055864635,0.0055571385,-0.036128614,67.07479,156.9064,0.0047884034,1442826,-382,-196,1689,11579
68674898,4000,0,0.39553234,0.99059933,-9.584719,-0.0011937802,-4.1446532e-05,-0.03642916,67.1108,156.9064,0.0047884034,1442826,285,221,1956,11592
68774917,4019,0,-0.06543904,-0.2814285,-10.009054,-0.0005961621,-0.00970481,-0.041727524,67.06925,156.9064,0.0047884034,1442826,303,-33,2165,11577
68878898,3994,0,0.3756712,-0.0027256908,-9.750505,0.0016950121,0.007529172,-0.040119093,67.11357,156.9064,0.0047884034,1442826,-372,-79,1843,11593
68976524,4021,0,0.7512285,0.84565204,-9.439673,6.331219e-05,0.008223063,-0.038106333,67.1108,156.9064,0.0047884034,1442826,-92,40,2160,11592
69080497,4000,0,-0.28028148,-0.39350796,-9.983712,-0.0015807701,-0.0075014653,-0.039406996,67.091415,156.9064,0.0047884034,1442826,204,-11,2012,11585
69184497,4000,0,0.6619617,0.5066173,-9.533647,0.002220706,0.0074516996,-0.040546477,67.130196,156.9064,0.0047884034,1442826,34,5,2314,11599
69284498,4000,0,0.54029053,0.42087778,-9.706593,-0.0051419735,-0.0038694837,-0.04279522,67.15235,156.9064,0.0047884034,1442826,364,334,2227,11607
69384540,4025,0,-0.5493867,-0.49159804,-9.956803,-0.0019491526,-0.0023609838,-0.041138634,67.15235,156.9064,0.0047884034,1442826,107,-133,1914,11607
69484503,4000,0,0.27441046,0.20586823,-9.708623,0.0075439145,0.00579447,-0.039044097,67.15512,156.9064,0.0047884034,1442826,-179,-295,1825,11608
69588497,4000,0,0.2018213,0.45810527,-9.671301,-0.0059579276,-0.0044472422,-0.03886863,67.138504,156.9064,0.0047884034,1442826,481,349,2217,11602
69688503,4006,0,-0.5125895,-0.6933011,-9.925499,0.0005679848,-0.0016053609,-0.039219182,67.135735,156.9064,0.0047884034,1442826,80,-332,2150,11601
69790124,4006,0,0.6293211,0.005757846,-9.762538,0.0038554778,0.008331082,-0.038912863,67.174515,156.9064,0.0047884034,1442826,-246,-106,2064,11615
69890162,4044,0,0.47977662,1.0529556,-9.630009,-0.0047087343,-0.005253244,-0.040459596,67.171745,156.9064,0.0047884034,1442826,184,355,1993,11614
69994118,4000,0,0.35402676,-0.3645192,-9.926714,0.003985238,0.005650365,-0.035020355,67.207756,156.9064,0.0047884034,1442826,-713,-49,1511,11627
70094118,3975,0,0.34606683,0.19298546,-9.827178,-0.002282428,-0.0060994374,-0.045133635,67.19391,156.9064,0.0047884034,1442826,792,253,1866,11622
70198168,4038,0,0.7425587,0.63006467,-9.402237,-0.007974749,-0.006825242,-0.043684356,67.18836,156.9064,0.0047884034,1442826,241,326,2432,11620
70298121,3997,0,1.254174,0.96665716,-9.377454,0.004717999,0.0069596334,-0.036949627,67.218834,156.9064,0.0047884034,1442826,238,223,1713,11631
70398118,3957,0,1.3000126,1.0395966,-9.279282,0.0033202313,0.008368709,-0.03851543,67.22992,156.9064,0.0047884034,1442826,682,372,2117,11635
70502124,3979,0,0.49293882,0.41930005,-9.441784,-0.010230357,-0.012381444,-0.046080045,67.22714,156.9064,0.0047884034,1442826,525,610,2513,11634
70603698,4024,0,-0.24346074,-0.68025756,-10.09532,0.0014946555,-0.007924561,-0.040149294,67.20222,156.9064,0.0047884034,1442826,-288,59,2110,11625
70703698,3995,0,0.44726864,0.12625606,-9.840673,0.009084974,0.013813786,-0.036465377,67.18836,156.9064,0.0047884034,1442826,-1047,-63,2259,11620
70807719,3975,0,0.8969367,-0.37908503,-10.128408,0.009595271,0.011721392,-0.032051343,67.254845,156.9064,0.0047884034,1442826,-790,-130,1236,11644
70907707,4004,0,-0.31242478,-0.79392743,-10.344169,0.007300539,-0.0013588713,-0.034636267,67.27978,156.9064,0.0047884034,1442826,-23,-523,2162,11653
71007698,3980,0,-0.5978282,0.011898708,-9.979031,0.0034809029,-0.0063639865,-0.041277345,67.252075,156.9064,0.0047884034,1442826,240,-777,1631,11643
71111704,3989,0,-0.5730852,-0.1449103,-9.87597,0.008650371,-0.008241195,-0.040169466,67.254845,156.9064,0.0047884034,1442826,304,-658,1797,11644
71929306,4008,0,0.9033751,0.3186896,-9.699074,0.004484076,0.0042080693,-0.039394803,67.2687,156.9064,0.0047884034,1442826,-229,446,2098,11649
72029297,3959,0,0.1438286,-0.5323132,-10.068147,0.010685824,-0.0018488587,-0.037747055,67.27701,156.9064,0.0047884034,1442826,-581,-760,1123,11652
72130874,4000,0,-0.3019999,-0.13237879,-10.130623,0.009151256,0.0010320933,-0.035219006,67.2687,156.9064,0.0047884034,1442826,-489,-185,2487,11649
72234874,4000,0,-0.053622663,-0.15656286,-10.069751,0.01188076,0.003697536,-0.03882159,67.29917,156.9064,0.0047884034,1442826,-334,-485,1706,11660
72334911,4011,0,0.18473846,-0.13853763,-9.603424,0.010014587,-0.003361275,-0.042204235,67.33518,156.9064,0.0047884034,1442826,-372,-425,1325,11673
72434897,3994,0,0.88577074,-0.14628744,-9.812045,0.006793117,0.0018174594,-0.030429475,67.34349,156.9064,0.0047884034,1442826,5,78,1365,11676
72538881,3983,0,-0.48444027,0.012346058,-10.082453,-0.0023912936,0.00043249602,-0.047122277,67.3518,156.9064,0.0047884034,1442826,-57,-413,1637,11679
72638897,4000,0,0.12702215,0.10007126,-10.034178,0.0155068375,-0.0025503607,-0.0336441,67.38504,156.9064,0.0047884034,1442826,-267,-602,2017,11691
72738922,4025,0,0.74672115,0.33615446,-9.484944,-0.008649423,-0.0022091707,-0.038330987,67.37119,156.9064,0.0047884034,1442826,60,432,2343,11686
72844510,4012,0,1.0883564,0.17948912,-9.742306,0.00083959964,0.007817442,-0.03099348,67.33241,156.9064,0.0047884034,1442826,72,731,2263,11672
72944505,3988,0,-0.5576062,-0.013645513,-9.56884,0.008576265,0.00451181,-0.04985232,67.37396,156.9064,0.0047884034,1442826,-576,-801,2124,11687
73044498,4000,0,-0.2019509,0.10748825,-10.081654,-0.014740236,0.001784622,-0.030379621,67.35457,156.9064,0.0047884034,1442826,283,713,2303,11680
73148498,4000,0,-0.55488616,-0.23758182,-10.211513,-0.015590597,0.0026341635,-0.039625563,67.39889,156.9064,0.0047884034,1442826,-309,-601,1362,11696
73248542,4044,0,-0.3792679,0.30181608,-9.711822,0.020518053,0.00162633,-0.042138983,67.39612,156.9064,0.0047884034,1442826,34,-1101,2060,11695
73352504,4006,0,-0.24941926,0.0060543385,-10.625257,0.0040858993,-0.001839108,-0.048579767,67.38504,156.9064,0.0047884034,1442826,201,-1036,1365,11691
73452498,4000,0,0.077894464,0.12630135,-10.409226,-0.015363768,0.0025738599,-0.044094853,67.39612,156.9064,0.0047884034,1442826,-308,357,1622,11695
73552536,4038,0,1.0512849,0.28881282,-9.460029,-0.008643029,-0.004516689,-0.030388275,67.4072,156.9064,0.0047884034,1442826,-130,788,1224,11699
73654088,4014,0,0.9343798,0.4627351,-8.761758,-0.0047515268,-0.0019105277,-0.039952446,67.4072,156.9064,0.0047884034,1442826,536,1038,3143,11699
73758074,3959,0,0.61694276,0.13522542,-10.045469,-0.016707486,-0.0048533436,-0.03782253,67.39889,156.9064,0.0047884034,1442826,-443,651,1516,11696
73862117,4043,0,-0.007632319,0.66084284,-9.922635,-0.016752295,0.0058217724,-0.060473643,67.440445,156.9064,0.0047884034,1442826,-484,-112,1632,11711
73962097,4017,0,0.70397377,0.6189089,-9.167456,-0.010548759,0.006410223,-0.02163179,67.401665,156.9064,0.0047884034,1442826,658,1187,2354,11697
74062117,3981,0,0.7149783,0.24319382,-9.462637,-0.005410835,-0.0072252476,-0.0521789,67.4349,156.9064,0.0047884034,1442826,201,812,3535,11709
74166104,4001,0,-0.19145657,-0.39935312,-10.44026,-0.014285058,0.0025095593,-0.05571264,67.45429,156.9064,0.0047884034,1442826,-382,118,1804,11716
74266142,4045,0,0.17397788,0.5414931,-9.761791,-0.012159587,0.007294336,-0.05580236,67.45429,156.9064,0.0047884034,1442826,80,114,2196,11716
74366936,4026,0,-0.08511263,0.07963676,-9.516464,-0.004160271,0.008634444,-0.049632423,67.46814,156.9064,0.0047884034,1442826,562,-485,3082,11721
74471720,3953,0,0.4708655,-0.041535556,-10.578114,0.002962434,-0.0005459081,-0.037997067,67.481995,156.9064,0.0047884034,1442826,-357,577,290,11726
74575764,4040,0,0.21335545,0.875728,-9.9203,0.008645754,0.003305486,-0.04366031,67.4903,156.9064,0.0047884034,1442826,626,-366,2438,11729
74675719,4001,0,0.8279714,0.143987,-10.529854,0.00966478,-0.0025510176,-0.020639015,67.484764,156.9064,0.0047884034,1442826,-748,353,793,11727
74779727,4002,0,0.26327938,-0.26275972,-10.217384,0.011273364,-0.00010290486,-0.026569096,67.4626,156.9064,0.0047884034,1442826,918,-572,960,11719
74879724,4004,0,-0.119080536,-0.020055499,-9.512507,-0.0067408783,0.00542647,-0.045782898,67.49861,156.9064,0.0047884034,1442826,-552,537,2344,11732
74979752,4031,0,0.30198327,0.78921074,-9.641218,0.0046515185,0.0074142013,-0.03117529,67.445984,156.9064,0.0047884034,1442826,1277,-50,2075,11713
75083718,3959,0,0.17140944,-0.4118876,-11.003595,0.010071793,-0.0032673918,-0.048538726,67.484764,156.9064,0.0047884034,1442826,184,-426,-178,11727
75185274,3987,0,0.40767366,-0.73095113,-9.729034,-0.008867339,0.0049773925,-0.026407354,67.50416,156.9064,0.0047884034,1442826,-70,1293,3828,11734
75285274,3962,0,0.4335692,-0.5636425,-10.02059,-0.0014222227,-0.0012888717,-0.02489274,67.49584,156.9064,0.0047884034,1442826,477,695,2321,11731
75385276,4002,0,-0.15786995,0.027314717,-10.58767,-0.0042378344,0.0010047939,-0.044213958,67.523544,156.9064,0.0047884034,1442826,-102,296,455,11741
75489284,3997,0,-0.13287887,1.3612294,-9.767054,-0.0033104478,0.008953927,-0.039936345,67.52631,156.9064,0.0047884034,1442826,-970,-563,1870,11742
75593304,4007,0,-0.07469631,-0.32253313,-10.374467,0.0051432736,-0.009485663,-0.038679402,67.520775,156.9064,0.0047884034,1442826,387,-379,1164,11740
75697298,3959,0,0.35231036,-1.0684685,-10.566937,0.0042820517,-0.006696476,-0.037751794,67.559555,156.9064,0.0047884034,1442826,-391,407,1135,11754
75797297,3942,0,0.062396318,0.37461513,-10.02158,0.00027604352,0.0049598324,-0.055252045,67.54294,156.9064,0.0047884034,1442826,57,-137,447,11748
75898098,4795,0,0.3126386,1.0720031,-9.853732,0.0063474528,0.0046147127,-0.054956302,67.562325,156.9064,0.0047884034,1442826,-510,381,3464,11755
75998897,4000,0,0.49209738,1.3191452,-9.436259,0.010441021,0.002527189,-0.056385636,67.55125,156.9064,0.0047884034,1442826,452,493,2267,11751
76098898,4001,0,-0.054283265,0.39086005,-9.745901,-0.0017128657,-0.0057464046,-0.04373378,67.58449,156.9064,0.0047884034,1442826,312,-460,3029,11763
76202920,4019,0,0.1768297,-0.6829254,-10.464886,0.0028801898,-0.0038634143,-0.044295028,67.58172,156.9064,0.0047884034,1442826,-251,-620,840,11762
76302904,3965,0,0.0366933,-1.126499,-9.833789,-0.006351049,0.0062273256,-0.020568967,67.61219,156.9064,0.0047884034,1442826,-590,247,2395,11773
76406935,4038,0,0.07404295,1.2593087,-8.837162,-0.004803518,0.007207212,-0.0363056,67.601105,156.9064,0.0047884034,1442826,-429,-705,2216,11769
76506928,4031,0,-0.027065277,1.3845085,-8.866607,-0.008377409,-0.00055545405,-0.049536236,67.61773,156.9064,0.0047884034,1442826,-744,46,2595,11775
76606899,4001,0,0.74518335,0.82569194,-9.131478,0.0030665037,-0.0049528633,-0.039029147,67.60664,156.9064,0.0047884034,1442826,316,739,3345,11771
76712476,3959,0,0.4592447,-1.4278754,-10.262517,0.0013173495,-0.003741298,-0.035616025,67.58726,156.9064,0.0047884034,1442826,98,311,1205,11764
76816499,4025,0,0.27482665,-0.32357854,-9.422019,-0.003896203,0.01203813,-0.022808375,67.62327,156.9064,0.0047884034,1442826,-521,888,1738,11777
76916474,4000,0,0.4037915,1.4068183,-9.009254,0.004124268,0.008864701,-0.029220037,67.6205,156.9064,0.0047884034,1442826,-225,218,1801,11776
77020474,4000,0,0.36612466,1.3459985,-9.853146,0.012296454,0.0008152162,-0.04919051,67.67867,156.9064,0.0047884034,1442826,1152,-114,2099,11797
77120475,4001,0,0.12387609,0.29451427,-9.518502,-0.0050665285,-0.006586667,-0.0560736,67.6205,156.9064,0.0047884034,1442826,650,-451,3407,11776
77220518,4042,0,0.2971974,-0.55411226,-9.991256,-0.004103958,0.0013815785,-0.045172904,67.62881,156.9064,0.0047884034,1442826,577,-22,2003,11779
77320497,4000,0,-0.037761617,-1.1447365,-9.803761,-0.0063949283,0.0013882023,-0.045050837,67.62881,156.9064,0.0047884034,1442826,287,235,2099,11779
77424497,3994,0,-0.13140438,0.2622751,-9.530354,-0.00826437,0.0060778954,-0.034040947,67.637115,156.9064,0.0047884034,1442826,-148,-225,1520,11782
77526098,3997,0,0.12045831,1.2458578,-9.248376,-0.005017418,0.0025936936,-0.03511663,67.65651,156.9064,0.0047884034,1442826,-660,611,1822,11789
77626098,4000,0,0.573717,1.0519049,-9.651759,0.0047107334,-0.00337967,-0.022870867,67.66205,156.9064,0.0047884034,1442826,-47,97,220,11791
77730132,4034,0,0.571613,-1.0096639,-9.959315,0.00091995695,-0.0068057803,-0.027928995,67.68421,156.9064,0.0047884034,1442826,345,450,1920,11799
77830104,3957,0,0.25668105,-1.2258228,-10.07523,0.0043344647,-0.006954896,-0.023453068,67.711914,156.9064,0.0047884034,1442826,463,520,2472,11809
77930098,3960,0,0.10061997,-0.7152026,-9.888104,0.0028500666,0.004302595,-0.042426936,67.69806,156.9064,0.0047884034,1442826,757,-224,1893,11804
78034098,4000,0,0.0736403,0.9022682,-9.027635,0.004387651,0.00576365,-0.040882073,67.71468,156.9064,0.0047884034,1442826,400,46,2526,11810
78134098,4000,0,0.8356748,1.044598,-8.990079,-0.0018003406,0.00041037024,-0.03817364,67.67313,156.9064,0.0047884034,1442826,-280,284,2995,11795
78235682,4008,0,0.39237726,0.51267713,-10.124147,0.0011511268,-0.006006225,-0.03983867,67.71468,156.9064,0.0047884034,1442826,816,655,2375,11810
78339674,4000,0,0.10287951,-1.1832323,-10.013378,-0.007908638,-0.0010700469,-0.02975021,67.71468,156.9064,0.0047884034,1442826,-103,255,2845,11810
78439730,4055,0,-0.04481737,-0.5280323,-10.028264,-0.007995646,-0.0030020657,-0.04170827,67.72022,156.9064,0.0047884034,1442826,-734,551,1534,11812
78539711,4037,0,0.25341153,0.26116195,-9.582234,-0.00055527827,-0.00036779154,-0.029920261,67.71468,156.9064,0.0047884034,1442826,-144,478,3174,11810
78643674,4000,0,-0.019916467,0.8458552,-9.184462,-0.009861877,-0.0075880503,-0.04346805,67.73407,156.9064,0.0047884034,1442826,-548,384,1676,11817
78743674,4000,0,0.32782602,0.36628866,-9.680322,-0.0064667105,-0.004703418,-0.044129647,67.71745,156.9064,0.0047884034,1442826,-415,-308,493,11811
78843697,3993,0,0.5858307,-0.4716792,-9.58024,0.0032824422,-0.008887621,-0.04705552,67.71745,156.9064,0.0047884034,1442826,265,-105,786,11811
78943780,4077,0,0.4381225,-1.5277178,-10.287901,-0.000108546876,-0.010335843,-0.043174148,67.750694,156.9064,0.0047884034,1442826,-200,18,1599,11823
79049318,4000,0,-0.32173342,0.13124159,-9.664541,-0.010257075,0.013537332,-0.048374,67.75346,156.9064,0.0047884034,1442826,-33,222,2308,11824
79153328,4010,0,-0.2196974,1.6138917,-9.501273,-0.0022101202,0.0014285017,-0.04715955,67.76454,156.9064,0.0047884034,1442826,-227,-424,1779,11828
79253318,3988,0,-0.30306113,0.74806106,-9.730021,-0.0020458288,-0.0010569007,-0.053078063,67.77839,156.9064,0.0047884034,1442826,708,-669,1733,11833
79357324,3931,0,0.13452195,-0.9447291,-10.51627,0.0043285526,-0.0040356005,-0.038804032,67.80332,156.9064,0.0047884034,1442826,613,6,822,11842
79457318,4000,0,-0.07987757,-0.90558445,-10.100545,0.004610868,0.0013562655,-0.04127258,67.74238,156.9064,0.0047884034,1442826,-545,-297,2185,11820
79557321,4003,0,-0.16443843,-0.125745,-9.316606,-0.009910178,0.01113998,-0.051215496,67.76731,156.9064,0.0047884034,1442826,-384,-184,1523,11829
