timestamp,integral_dt,error_count,x,y,z,x_integral,y_integral,z_integral,temperature,range_m_s2,scaling,device_id,x_raw,y_raw,z_raw,temperature_raw
35516427,4000,0,0.14344838,-0.104631834,-9.917556,0.002829224,-0.0069722394,-0.039287146,64.42936,156.9064,0.0047884034,1442850,-154,331,-2019,10624
35620427,4000,0,0.18281066,0.11843578,-10.358429,0.001215867,-0.002964727,-0.044817414,64.440445,156.9064,0.0047884034,1442850,-116,225,-2072,10628
35720443,4016,0,0.19032793,0.8125633,-9.8003845,-0.00092897075,0.0057582734,-0.04292443,64.45152,156.9064,0.0047884034,1442850,364,-48,-2043,10632
35824427,4000,0,-0.52755225,0.2956428,-9.672874,0.0015315564,0.01392377,-0.039195735,64.47092,156.9064,0.0047884034,1442850,-344,-772,-1678,10639
35924427,3991,0,-0.26534134,-2.0364506,-10.037346,-0.018335806,0.0016722768,-0.03889568,64.437675,156.9064,0.0047884034,1442850,845,-517,-1949,10627
36024427,4000,0,-0.45199877,-1.558081,-10.046293,-0.01060008,-0.0007930056,-0.03717636,64.437675,156.9064,0.0047884034,1442850,122,-555,-1777,10627
36128427,3994,0,-0.076870345,0.44874692,-9.9451,0.018438108,0.011901957,-0.039224476,64.42382,156.9064,0.0047884034,1442850,-488,-431,-1537,10622
36228427,3988,0,0.61406505,1.1805496,-9.963177,0.009888389,0.010137804,-0.04932075,64.42382,156.9064,0.0047884034,1442850,149,-170,-2216,10622
36328430,4003,0,0.2152888,1.0524411,-10.010658,-0.006111045,0.00017799123,-0.03918377,64.437675,156.9064,0.0047884034,1442850,191,327,-2311,10627
36432433,4006,0,-0.52088183,-0.59151715,-10.148028,-0.007511319,-0.0061723953,-0.041633964,64.4626,156.9064,0.0047884034,1442850,286,122,-1389,10636
36532427,4000,0,0.16352002,-0.54337704,-10.055059,0.014630144,0.003909991,-0.038625963,64.440445,156.9064,0.0047884034,1442850,-470,-289,-1656,10628
36636433,4006,0,0.043584544,0.9605547,-9.827968,-0.009481892,-0.0007371893,-0.04174371,64.45152,156.9064,0.0047884034,1442850,217,468,-2319,10632
36736469,4042,0,-0.50370854,-0.4270168,-9.954124,0.0014102806,-0.0047091716,-0.043877214,64.45706,156.9064,0.0047884034,1442850,-224,312,-2348,10634
36836427,3993,0,-0.32111755,-0.67250067,-10.006077,0.0005918256,0.011439281,-0.041548274,64.4626,156.9064,0.0047884034,1442850,-113,-574,-2156,10636
37448427,4000,0,0.9603521,0.64467305,-9.793807,0.013584762,0.0104299635,-0.047103915,64.49584,156.9064,0.0047884034,1442850,-229,-225,-2034,10648
37548427,3994,0,0.8337402,0.7327985,-10.169175,-0.012798237,-0.0063074306,-0.045447398,64.45706,156.9064,0.0047884034,1442850,1148,491,-1492,10634
37648427,4000,0,-1.2401441,-0.8643519,-9.99017,-0.0035615321,-0.008101481,-0.03796723,64.443214,156.9064,0.0047884034,1442850,-334,26,-1718,10629
37752443,4016,0,1.2600647,1.19773,-9.890303,0.0057090567,0.006430159,-0.040985197,64.434906,156.9064,0.0047884034,1442850,584,127,-2224,10626
37852433,4006,0,-0.16765755,0.58188707,-9.891736,-0.012072731,-0.01090325,-0.04151383,64.46537,156.9064,0.0047884034,1442850,373,738,-1690,10637
37956427,4000,0,-0.31048086,-0.86165607,-9.889661,-0.0026182607,0.014303791,-0.035713803,64.45983,156.9064,0.0047884034,1442850,-363,-756,-2167,10635
38060433,4006,0,0.1270575,1.3277872,-9.955494,0.003733412,-0.008335644,-0.036338728,64.437675,156.9064,0.0047884034,1442850,-122,526,-2120,10627
38160427,3956,0,-0.7567212,-0.84001505,-10.017119,0.00018476043,-0.0068797236,-0.037924834,64.445984,156.9064,0.0047884034,1442850,-371,290,-2189,10630
38260441,4014,0,-0.50397164,-0.697492,-9.7246275,0.011131524,0.01219698,-0.042901903,64.484764,156.9064,0.0047884034,1442850,-719,-641,-2258,10644
38364427,4000,0,1.0126876,1.1431471,-10.151285,-0.004050317,-0.0030093926,-0.031968344,64.45983,156.9064,0.0047884034,1442850,467,302,-2134,10635
38464427,4000,0,-1.2927469,-0.41186363,-10.015337,-0.0030069754,-0.0021120294,-0.037701964,64.45152,156.9064,0.0047884034,1442850,-201,134,-2352,10632
38568427,4000,0,0.9995738,0.4549678,-10.0935335,0.011837745,0.005047516,-0.036874134,64.50416,156.9064,0.0047884034,1442850,-276,-471,-1480,10651
38668427,4000,0,0.7712724,0.7032567,-9.743143,-0.015567306,-0.005411275,-0.036907196,64.47369,156.9064,0.0047884034,1442850,1176,237,-2386,10640
38768447,4013,0,-0.744464,-0.5021037,-9.922915,-0.0029320165,-0.0047681113,-0.037911884,64.46537,156.9064,0.0047884034,1442850,155,44,-2364,10637
38872427,4000,0,0.5736215,0.7452508,-9.841261,0.007414777,0.006079022,-0.03733817,64.47369,156.9064,0.0047884034,1442850,-165,-431,-1821,10640
38972427,4000,0,0.1136879,1.0598643,-9.958156,-0.011372028,-0.0072172503,-0.037765734,64.47369,156.9064,0.0047884034,1442850,548,435,-2052,10640
39072427,4000,0,-0.7555388,-1.0378646,-9.868529,-0.0038070027,-0.0073678824,-0.03415191,64.45706,156.9064,0.0047884034,1442850,-324,-72,-2164,10634
39176445,3978,0,0.5273682,0.780664,-9.864494,0.005615863,0.008585653,-0.045369957,64.49584,156.9064,0.0047884034,1442850,-48,-256,-1600,10648
39276427,4000,0,0.31812367,1.0352746,-10.264498,-0.0013619373,-0.007359273,-0.038551774,64.4903,156.9064,0.0047884034,1442850,528,548,-1252,10646
39380433,4006,0,-0.9500798,-0.70575505,-9.9062195,0.006929914,0.006509548,-0.039961312,64.45983,156.9064,0.0047884034,1442850,-981,-395,-1815,10635
39484427,3994,0,1.0045578,0.82820565,-9.995801,-0.004921181,-0.0019441837,-0.033504292,64.47092,156.9064,0.0047884034,1442850,767,30,-2060,10639
39584429,4002,0,-1.2769978,-0.4567171,-9.789843,-0.007005345,-0.0031589358,-0.034894444,64.50693,156.9064,0.0047884034,1442850,-45,-206,-2492,10652
39688430,4003,0,1.1864003,0.60427743,-10.0293665,0.01117403,0.00513839,-0.045853097,64.484764,156.9064,0.0047884034,1442850,27,-114,-1729,10644
39788427,3965,0,0.21350202,0.6931354,-10.015877,-0.0017493716,-0.007506799,-0.041002497,64.45983,156.9064,0.0047884034,1442850,269,349,-1646,10635
39888433,4006,0,-1.0020466,-0.97617596,-9.941446,0.00029242437,-0.007742951,-0.038312137,64.481995,156.9064,0.0047884034,1442850,-78,-114,-1960,10643
39992427,4000,0,1.241103,1.1626087,-9.97464,0.0057295393,0.01012481,-0.04179026,64.49861,156.9064,0.0047884034,1442850,385,-13,-2054,10649
40092427,3998,0,-0.22666715,0.8180849,-10.051352,0.00084625295,-0.006676307,-0.04048147,64.49584,156.9064,0.0047884034,1442850,450,848,-1738,10648
40192430,3932,0,-0.9913132,-1.0773786,-10.226771,0.0050864164,-0.0030792882,-0.045344904,64.47092,156.9064,0.0047884034,1442850,-668,24,-1693,10639
40296471,4044,0,0.953731,1.2411904,-9.864444,-0.013356931,0.008165345,-0.041444495,64.50138,156.9064,0.0047884034,1442850,752,-19,-2368,10650
40396427,4000,0,-0.7823554,-0.024924662,-9.868712,-0.0016180231,-0.005942702,-0.044181377,64.479225,156.9064,0.0047884034,1442850,-346,431,-2567,10642
40500427,4000,0,0.27356455,-0.04100068,-9.819949,0.00802002,0.009456328,-0.037083022,64.476456,156.9064,0.0047884034,1442850,-284,-826,-2379,10641
40601226,4000,0,0.14961934,1.0856183,-9.84271,0.00071287097,-0.00028671566,-0.036826223,64.46814,156.9064,0.0047884034,1442850,-171,159,-2516,10638
40702033,4007,0,-0.22735433,-0.7711675,-10.04112,-0.0042724437,-0.0019673472,-0.04477404,64.4903,156.9064,0.0047884034,1442850,255,108,-2242,10646
40802032,3965,0,-0.04073991,-0.20332253,-9.871934,-0.0015573526,0.007528832,-0.041891538,64.50138,156.9064,0.0047884034,1442850,134,-386,-1826,10650
40906027,3981,0,0.6489361,0.73960745,-9.899133,-0.021391772,-0.0052002426,-0.037386402,64.476456,156.9064,0.0047884034,1442850,1217,536,-2311,10641
41006027,4000,0,-1.0941429,-0.7460403,-9.904248,0.005314492,-0.0012691908,-0.042012013,64.49307,156.9064,0.0047884034,1442850,-195,220,-2312,10647
41106068,4040,0,0.5721796,-0.030204864,-9.994083,0.013331388,0.011079222,-0.04392505,64.50416,156.9064,0.0047884034,1442850,-451,-429,-2061,10651
41210027,4000,0,-0.3879573,0.47124553,-9.952584,-0.0048485226,-0.0066198343,-0.047049005,64.49307,156.9064,0.0047884034,1442850,117,418,-2255,10647
41310027,4000,0,-0.7705087,-0.8195073,-10.061219,0.015194227,-0.0025907264,-0.044519637,64.50693,156.9064,0.0047884034,1442850,-659,137,-2116,10652
41414067,4040,0,0.5660589,0.9900099,-9.728387,0.0066524185,0.005450746,-0.043175988,64.49861,156.9064,0.0047884034,1442850,257,-130,-2331,10649
41518027,3992,0,0.08676338,-0.66094065,-10.0637045,-0.0028456273,-0.0051355315,-0.031841513,64.50693,156.9064,0.0047884034,1442850,491,-24,-1902,10652
41618027,4000,0,-0.38707295,-0.27098662,-9.8183975,-0.0057232776,0.010330988,-0.034907486,64.5097,156.9064,0.0047884034,1442850,-154,-693,-2062,10653
41722067,4034,0,0.31022698,0.5612489,-10.024753,-0.00637455,-0.011303142,-0.038967513,64.484764,156.9064,0.0047884034,1442850,410,337,-1706,10644
41822030,3990,0,-0.058913834,-0.5942343,-9.866595,0.010725984,-0.00208191,-0.033858664,64.50693,156.9064,0.0047884034,1442850,132,-213,-2203,10652
41922027,3953,0,-0.17702217,-0.24407242,-9.869047,0.00017612171,0.010093406,-0.03969535,64.518005,156.9064,0.0047884034,1442850,-396,-674,-2467,10656
42026043,4010,0,0.024956007,0.6774135,-10.136764,-0.008295159,-0.0054727034,-0.0391375,64.515236,156.9064,0.0047884034,1442850,325,148,-1601,10655
42126027,4000,0,-0.9905351,-0.46363133,-10.059974,-0.0010647841,-0.004905556,-0.037796125,64.5097,156.9064,0.0047884034,1442850,-516,-91,-1936,10653
42226068,4039,0,-0.060104143,-0.18204238,-9.9299755,0.016058587,0.009107636,-0.03396776,64.515236,156.9064,0.0047884034,1442850,-1106,-368,-2043,10655
42330033,4006,0,-0.42942184,0.70862156,-10.072638,-0.0036652586,-0.007845388,-0.03521972,64.54294,156.9064,0.0047884034,1442850,-364,358,-1508,10665
42430027,4000,0,0.051070847,-0.61292243,-10.121081,-0.0034082516,-0.0052673835,-0.035412975,64.50693,156.9064,0.0047884034,1442850,413,-104,-1880,10652
42534067,4017,0,0.13289037,0.7860841,-9.765384,0.012093685,0.0048047737,-0.043583836,64.52908,156.9064,0.0047884034,1442850,-179,0,-1934,10660
42638066,4039,0,0.5356592,-0.3329876,-10.105936,0.007691924,0.00082340743,-0.041081905,64.53462,156.9064,0.0047884034,1442850,418,30,-2202,10662
42738027,4000,0,-0.9388825,-0.5770527,-9.676471,0.0027475036,0.008316187,-0.04027915,64.520775,156.9064,0.0047884034,1442850,-840,-536,-2347,10657
42842067,4040,0,0.51500195,0.7745928,-10.034472,-0.004040315,-0.0073653897,-0.03492129,64.49861,156.9064,0.0047884034,1442850,89,245,-2035,10649
42942027,4000,0,-0.39420533,-0.33791003,-9.692329,-0.008075797,-0.0049966094,-0.032736775,64.52908,156.9064,0.0047884034,1442850,588,-3,-2567,10660
43042054,3987,0,-0.6674857,-0.7519815,-9.537445,0.014052002,0.0067184917,-0.038061008,64.52631,156.9064,0.0047884034,1442850,-1249,-823,-2997,10659
43146029,4002,0,-0.14069363,0.79918253,-10.075519,-0.0036632814,-0.004651066,-0.044600077,64.518005,156.9064,0.0047884034,1442850,-496,137,-1742,10656
43246027,4000,0,-0.9099537,-0.4303333,-10.041925,-0.0033198576,-0.008811472,-0.035156876,64.52908,156.9064,0.0047884034,1442850,490,173,-1572,10660
43346068,4035,0,0.06527878,-0.4864925,-9.881786,0.015472295,0.008670282,-0.035827316,64.52908,156.9064,0.0047884034,1442850,-535,-750,-1630,10660
43450027,3998,0,0.3211598,0.9793836,-10.147712,-0.0082151145,-0.005239187,-0.04477333,64.58449,156.9064,0.0047884034,1442850,383,537,-1717,10680
43550027,4000,0,-0.61054623,-0.76651293,-10.071303,-0.008515694,-0.008135978,-0.045262754,64.518005,156.9064,0.0047884034,1442850,595,229,-2214,10656
43654042,4007,0,1.030996,0.6590056,-9.686674,0.0073446683,0.011737262,-0.043549277,64.54294,156.9064,0.0047884034,1442850,702,-465,-2513,10665
43754027,4000,0,0.60250384,1.13498,-9.991947,-0.0025033914,-0.0038103377,-0.04179492,64.520775,156.9064,0.0047884034,1442850,-37,531,-2323,10657
43854027,3959,0,0.21128963,-0.66505134,-10.050231,-0.0090376865,-0.005932549,-0.03686232,64.53185,156.9064,0.0047884034,1442850,1355,341,-2065,10661
43958033,4006,0,0.74368083,0.6013235,-9.929913,0.012502739,0.007489616,-0.035535637,64.518005,156.9064,0.0047884034,1442850,445,-440,-1588,10656
44058069,4042,0,0.8117035,1.1640737,-10.063533,-0.0055876183,-0.0060935644,-0.038413446,64.54017,156.9064,0.0047884034,1442850,469,345,-1979,10664
44158067,4038,0,-0.58823675,-0.49543577,-9.869239,-0.004937617,-0.009681423,-0.03160088,64.54848,156.9064,0.0047884034,1442850,387,196,-1966,10667
44262027,4000,0,1.3447677,0.59024274,-9.980057,0.0023620934,0.0098376,-0.04785202,64.54571,156.9064,0.0047884034,1442850,826,-101,-2131,10666
44362027,4000,0,-0.09532842,0.8282576,-10.074859,-0.0072553,-0.0026660557,-0.043994933,64.57341,156.9064,0.0047884034,1442850,-322,406,-1726,10676
44466067,4023,0,-1.3711674,-0.77971137,-9.852684,-0.004242301,-0.000772048,-0.037846014,64.54294,156.9064,0.0047884034,1442850,-1157,-633,-2253,10665
44566027,4000,0,1.4677596,0.5870821,-9.830532,0.0021058114,0.006758468,-0.039079525,64.556786,156.9064,0.0047884034,1442850,786,-414,-2234,10670
44666027,3954,0,-0.092240416,0.35123318,-9.834157,-0.0060192626,-0.0034160465,-0.041514598,64.53739,156.9064,0.0047884034,1442850,-152,124,-2392,10663
44770027,3992,0,-0.87958753,-0.44675332,-9.889945,0.016277907,0.0026974548,-0.036689218,64.53462,156.9064,0.0047884034,1442850,-1512,-666,-2029,10662
44870027,4000,0,0.92239344,1.0713959,-9.737131,0.006459821,0.0053962753,-0.03759598,64.56786,156.9064,0.0047884034,1442850,499,-47,-2387,10674
44970074,4047,0,-0.16064687,0.25720793,-9.980154,-0.006213395,-0.0074043227,-0.038136728,64.56786,156.9064,0.0047884034,1442850,78,341,-2145,10674
45074036,4009,0,-0.5037726,-0.41935402,-9.79147,-0.0013653513,0.008120493,-0.038970627,64.562325,156.9064,0.0047884034,1442850,-653,-651,-1970,10672
45174027,3993,0,0.36426148,1.4377978,-9.809045,-0.0016944101,-0.0014196512,-0.03821527,64.54294,156.9064,0.0047884034,1442850,505,283,-2051,10665
45278073,4046,0,-0.28614432,-1.0256672,-10.032633,-0.013639447,-0.0035377764,-0.04027055,64.54294,156.9064,0.0047884034,1442850,446,132,-1803,10665
45382027,4000,0,0.45542297,1.2492517,-9.925173,-0.011630088,0.006038243,-0.0362409,64.54017,156.9064,0.0047884034,1442850,544,-206,-2320,10664
45482027,3968,0,0.27386335,-0.051272187,-10.118883,-0.0010975268,-0.0069121895,-0.039100975,64.54571,156.9064,0.0047884034,1442850,491,160,-2572,10666
45586037,4008,0,-0.27684572,0.10166733,-9.824491,0.007526692,0.00812088,-0.041546185,64.57063,156.9064,0.0047884034,1442850,-506,-538,-1718,10675
45686030,4003,0,0.38635847,0.8091758,-9.884193,-0.0061745215,-0.005762609,-0.034379702,64.562325,156.9064,0.0047884034,1442850,-122,172,-1978,10672
45786027,3960,0,-0.3911811,-0.43779725,-9.980283,-0.005472455,-0.0065540466,-0.03271269,64.598335,156.9064,0.0047884034,1442850,269,49,-2026,10685
45890027,4000,0,0.82173806,0.64068735,-10.067332,0.012434966,0.008858685,-0.048228066,64.53739,156.9064,0.0047884034,1442850,235,-122,-1729,10663
45990027,4000,0,-0.38322172,0.8131242,-9.840925,-0.013811344,-0.009719868,-0.035891708,64.56786,156.9064,0.0047884034,1442850,-196,480,-2005,10674
47207644,4011,0,-0.9058545,-0.8587227,-9.938941,0.00061992975,-0.002667307,-0.046075955,64.5928,156.9064,0.0047884034,1442850,-275,22,-1901,10683
47311627,4000,0,1.4393193,0.9149304,-9.915898,-0.014890647,0.00643563,-0.03739036,64.601105,156.9064,0.0047884034,1442850,1424,-154,-2173,10686
47411660,4033,0,-1.496026,-0.15353708,-9.882878,0.0036173281,-0.0028068451,-0.04163832,64.57341,156.9064,0.0047884034,1442850,-679,131,-2275,10676
47511633,4006,0,-0.28750274,-0.5934294,-9.967052,0.0029188818,0.0064447345,-0.0450802,64.59003,156.9064,0.0047884034,1442850,-458,-476,-2189,10682
47615627,4000,0,0.09983115,1.0699594,-9.758329,-0.014061737,-0.0046593295,-0.035139654,64.57063,156.9064,0.0047884034,1442850,330,458,-2425,10675
47715668,4041,0,-1.0557754,-1.001145,-9.920914,0.008295279,-0.0033452292,-0.04297427,64.57895,156.9064,0.0047884034,1442850,-589,38,-2323,10678
47815627,4000,0,1.0289634,-0.16659191,-9.877162,0.00034259446,0.013918787,-0.041480985,64.58172,156.9064,0.0047884034,1442850,662,-513,-2129,10679
47919629,4002,0,-0.3291673,0.7384775,-9.911969,0.007308119,-0.01020397,-0.03898706,64.57618,156.9064,0.0047884034,1442850,67,517,-2288,10677
48019627,4000,0,-0.559354,-1.1327296,-10.175936,-0.007239534,-7.89109e-05,-0.0425178,64.56786,156.9064,0.0047884034,1442850,-119,-199,-2144,10674
48123631,4004,0,0.92413175,1.0794895,-9.985894,-0.01565214,0.001904055,-0.039772585,64.61773,156.9064,0.0047884034,1442850,1254,-108,-1692,10692
48223661,4029,0,-0.06730526,-0.010979759,-10.252068,0.011411313,-0.010015058,-0.040940322,64.57895,156.9064,0.0047884034,1442850,55,92,-1803,10678
48323635,4008,0,-0.87617785,-0.48947266,-9.975067,-4.4651213e-05,0.0030507678,-0.03611862,64.554016,156.9064,0.0047884034,1442850,-315,-749,-1810,10669
48427627,4000,0,0.44130462,0.6706772,-9.961833,-0.00014588475,-0.0069480515,-0.03919972,64.634346,156.9064,0.0047884034,1442850,87,95,-2002,10698
48527627,4000,0,-1.0485309,-0.71104646,-10.006671,0.012359407,0.016376842,-0.043543756,64.601105,156.9064,0.0047884034,1442850,-1206,-442,-1678,10686
48627645,4012,0,-0.97289044,-0.27061108,-10.164724,-0.009359816,-0.0048677363,-0.04143613,64.60942,156.9064,0.0047884034,1442850,299,746,-1787,10689
48731627,4001,0,-0.8186705,-0.61398065,-9.877955,-0.0120202815,-0.008177102,-0.038566098,64.5928,156.9064,0.0047884034,1442850,401,643,-2490,10683
48831634,4000,0,0.18215673,0.02437449,-10.194257,-0.006289851,-0.02050867,-0.03518565,64.60664,156.9064,0.0047884034,1442850,685,281,-1056,10688
48935627,4000,0,0.06162957,-0.8013085,-9.970581,-0.012007862,-0.016735163,-0.03876182,64.61219,156.9064,0.0047884034,1442850,780,12,-2372,10690
49039627,3968,0,-0.32018027,-0.46093112,-10.340848,-0.007614837,-0.016469643,-0.040846173,64.63158,156.9064,0.0047884034,1442850,501,-447,-1567,10697
49139633,4006,0,1.1959081,1.0321577,-10.08384,0.0010539381,0.0043678028,-0.03530847,64.60664,156.9064,0.0047884034,1442850,603,-284,-1786,10688
49243637,4009,0,-0.29051962,-0.4612608,-9.543211,0.013996415,0.011573971,-0.03785869,64.63158,156.9064,0.0047884034,1442850,-680,-637,-2977,10697
49443627,4000,0,-1.0653336,-0.74082965,-9.952595,0.012678462,0.014863962,-0.039558277,64.62881,156.9064,0.0047884034,1442850,-939,-713,-2418,10696
49547627,4000,0,0.1884221,0.39514965,-9.987444,-0.020379191,-0.009490688,-0.03431621,64.61219,156.9064,0.0047884034,1442850,1010,449,-2563,10690
49647629,3987,0,-1.0851135,-0.9040312,-9.975442,0.005143579,0.0014438655,-0.046216205,64.60942,156.9064,0.0047884034,1442850,-88,-113,-1950,10689
49747627,4000,0,1.6401176,1.1074793,-9.938148,0.008402257,0.0034725764,-0.039327435,64.63158,156.9064,0.0047884034,1442850,446,31,-1488,10697
49851670,4024,0,-0.90292317,-0.582185,-10.101685,-0.006976138,-0.004483466,-0.041909665,64.62327,156.9064,0.0047884034,1442850,412,428,-1914,10694
49951627,4000,0,-0.25038072,-0.37018216,-10.29813,0.017219936,0.011678229,-0.04349194,64.64266,156.9064,0.0047884034,1442850,-993,-356,-1446,10701
50055628,4001,0,-0.068790786,0.96421766,-9.827195,-0.0012308114,-0.0031251134,-0.04153759,64.61219,156.9064,0.0047884034,1442850,-220,476,-2345,10690
50155676,4038,0,-0.14342023,-0.9339663,-10.043507,-0.005755263,-0.004315751,-0.042583194,64.6205,156.9064,0.0047884034,1442850,313,205,-1906,10693
50255656,4022,0,-0.061601438,-0.3215319,-10.016511,0.0036137444,0.011746175,-0.040818892,64.60664,156.9064,0.0047884034,1442850,-317,-641,-1811,10688
50359627,4000,0,-0.019754456,0.6207665,-9.960852,0.0017207279,-0.0073582074,-0.04397601,64.6205,156.9064,0.0047884034,1442850,-160,414,-2203,10693
50459633,4006,0,-0.4785034,-1.0414284,-10.03104,-0.014551615,-0.0012256164,-0.043503545,64.62604,156.9064,0.0047884034,1442850,47,-30,-2085,10695
50559627,4000,0,0.045093823,0.34706488,-9.832452,0.023173727,0.0103158625,-0.040908754,64.62881,156.9064,0.0047884034,1442850,-684,-179,-2135,10696
50663627,3975,0,0.0076093413,0.10388634,-10.137453,-0.00021138626,-0.0060628136,-0.042923287,64.603874,156.9064,0.0047884034,1442850,54,232,-2258,10687
50763627,3997,0,-1.0953358,-0.69679207,-9.960397,-0.00985108,0.0027792668,-0.041978013,64.61219,156.9064,0.0047884034,1442850,6,-166,-1916,10690
50867627,4000,0,1.2974707,1.141115,-9.809985,-0.012705793,0.0021141332,-0.03589691,64.62881,156.9064,0.0047884034,1442850,704,31,-2390,10696
50967663,4036,0,-0.23442087,-0.10870646,-9.89075,0.0010068679,-0.0065438384,-0.039128788,64.634346,156.9064,0.0047884034,1442850,525,272,-2476,10698
51067627,3958,0,-1.141323,-1.0648615,-10.012607,2.1982938e-05,0.0035341375,-0.0403179,64.62881,156.9064,0.0047884034,1442850,-996,-543,-1823,10696
51171635,4008,0,0.1745799,1.5471761,-9.796021,-0.014243974,0.0047798334,-0.038758952,64.637115,156.9064,0.0047884034,1442850,-98,146,-2479,10699
51271652,4026,0,0.1468423,-0.19768156,-9.910626,0.009764801,-0.009982128,-0.041197434,64.598335,156.9064,0.0047884034,1442850,54,597,-2112,10685
51371627,4000,0,-0.3316305,-1.1263943,-10.024772,-0.0027711685,0.0034911153,-0.041155804,64.64266,156.9064,0.0047884034,1442850,-108,-437,-1486,10701
51475627,4000,0,-0.09079743,1.4678354,-9.742371,-0.0051919743,0.0026038093,-0.03858131,64.6205,156.9064,0.0047884034,1442850,-617,451,-2573,10693
51575627,4000,0,0.20879646,-0.2684771,-10.083321,0.0018008994,-0.003981434,-0.040835857,64.637115,156.9064,0.0047884034,1442850,695,406,-2076,10699
51677227,4000,0,-0.68987375,-0.064478464,-10.01305,0.01228833,0.00678633,-0.035499707,64.65374,156.9064,0.0047884034,1442850,-1050,-121,-1268,10705
51777230,4003,0,0.92015064,0.82896584,-9.885488,0.0002701913,-0.0005005139,-0.04157109,64.65651,156.9064,0.0047884034,1442850,290,-45,-1828,10706
51881250,3993,0,-1.0241625,-0.7935419,-9.910031,-0.006423125,-0.0017124654,-0.045397338,64.639885,156.9064,0.0047884034,1442850,-17,154,-2246,10700
51981227,4001,0,0.35312077,0.13166519,-9.952507,0.018024344,0.01164315,-0.044622246,64.65651,156.9064,0.0047884034,1442850,-206,-235,-1931,10706
52085227,4000,0,0.07761657,0.75480527,-9.790966,0.004516475,-0.0071576396,-0.03956542,64.65097,156.9064,0.0047884034,1442850,-173,582,-2202,10704
52185227,4000,0,-0.4196171,-1.2334968,-10.045378,-0.0063886372,-0.0036256537,-0.044169523,64.634346,156.9064,0.0047884034,1442850,280,136,-2071,10698
52285268,3997,0,0.45985755,-0.055889938,-10.052937,0.013967376,0.01160199,-0.038374852,64.6482,156.9064,0.0047884034,1442850,-225,-411,-1803,10703
52389245,4018,0,-0.2768545,0.8688716,-9.874112,0.00025209185,-0.009727344,-0.03342377,64.62881,156.9064,0.0047884034,1442850,-244,614,-2094,10696
52489227,3994,0,-0.046642195,-1.1764066,-9.9733095,-0.0022473473,-0.003573598,-0.043468937,64.66482,156.9064,0.0047884034,1442850,124,-112,-2022,10709
52589227,4000,0,-0.06714628,0.07166865,-9.7478285,0.0064875046,0.011985146,-0.043528866,64.62881,156.9064,0.0047884034,1442850,-477,-387,-1991,10696
52693229,4002,0,0.035307728,0.23718722,-10.080248,-0.006155166,-0.0049586073,-0.038953256,64.64266,156.9064,0.0047884034,1442850,515,55,-2063,10701
52793280,4007,0,-0.40151232,-0.6307303,-9.795604,0.0047081094,0.0045437478,-0.04028575,64.639885,156.9064,0.0047884034,1442850,-294,-600,-2318,10700
52897227,3955,0,0.8425507,0.8745602,-10.1314745,-0.002984353,-0.003192456,-0.039464805,64.69529,156.9064,0.0047884034,1442850,468,222,-1613,10720
52997227,4000,0,-0.2903468,-0.2988756,-10.159751,-0.0020742523,-0.008426714,-0.03876381,64.66759,156.9064,0.0047884034,1442850,374,25,-1543,10710
53097229,4002,0,-1.1824896,-0.937011,-9.882546,0.004301652,0.0017537262,-0.03201973,64.67313,156.9064,0.0047884034,1442850,-908,-564,-1673,10712
53201227,4000,0,0.9155397,1.4726297,-9.926334,-0.010596955,-0.00017586595,-0.04368295,64.68698,156.9064,0.0047884034,1442850,625,460,-2200,10717
53301227,3992,0,-1.0578581,-0.121646255,-9.965632,-0.0013680113,-0.013201746,-0.039881527,64.63158,156.9064,0.0047884034,1442850,-129,862,-1757,10697
53405265,4038,0,1.2278705,-0.2689122,-9.854748,0.007249647,0.014816478,-0.040043972,64.65651,156.9064,0.0047884034,1442850,308,-673,-2131,10706
53505227,4000,0,0.37652946,1.5305868,-9.720756,-0.017212663,0.0041976837,-0.040996537,64.64266,156.9064,0.0047884034,1442850,457,309,-2712,10701
53605227,3995,0,-0.91040826,-0.027691571,-10.058766,0.0011948128,-0.007423781,-0.041608583,64.65374,156.9064,0.0047884034,1442850,-183,593,-2033,10705
53709227,4000,0,0.53888834,0.3571584,-9.763868,-0.0023500677,0.008398575,-0.036361296,64.67036,156.9064,0.0047884034,1442850,40,-549,-1883,10711
53809260,4027,0,-0.019506328,0.82700336,-9.694758,0.0008991447,-0.0063480246,-0.03883176,64.67036,156.9064,0.0047884034,1442850,-286,281,-2724,10711
53909227,3994,0,-0.43826666,-0.920375,-9.986984,-0.007362142,-0.0032539137,-0.037748374,64.65928,156.9064,0.0047884034,1442850,505,-80,-2247,10707
54013227,4000,0,0.9352396,1.0829662,-9.912591,0.012646375,0.0061280713,-0.039843168,64.675896,156.9064,0.0047884034,1442850,447,-327,-1760,10713
54113233,4006,0,0.62131757,0.90526134,-10.247523,-0.00547098,-0.013689754,-0.03612579,64.67867,156.9064,0.0047884034,1442850,861,547,-1643,10714
54213227,4000,0,-1.3703636,-1.2113364,-9.781017,-0.008081064,-0.007332451,-0.032772973,64.675896,156.9064,0.0047884034,1442850,-520,-141,-1814,10713
54317251,4001,0,1.6874766,0.9746161,-10.023812,-0.008130822,0.008627524,-0.04703376,64.69806,156.9064,0.0047884034,1442850,1056,16,-1897,10721
54417227,4000,0,-0.29323372,0.8277019,-9.990884,-0.0061133606,-0.010479563,-0.04077708,64.68421,156.9064,0.0047884034,1442850,61,543,-1836,10716
54521227,4000,0,-0.7166315,-0.909548,-9.835092,0.0070831766,0.008461303,-0.033966698,64.68144,156.9064,0.0047884034,1442850,-876,-726,-2421,10715
54621227,4000,0,1.2375711,1.2379326,-9.703095,-0.0033960629,0.007796645,-0.032202054,64.67313,156.9064,0.0047884034,1442850,159,-96,-2531,10712
54721229,3953,0,-0.43263298,0.44292986,-9.829826,-0.012952434,-0.0048329784,-0.043014847,64.711914,156.9064,0.0047884034,1442850,216,431,-2283,10726
54825251,4024,0,0.057030205,-0.7492832,-10.07872,0.0025873533,0.0074457964,-0.03791324,64.67036,156.9064,0.0047884034,1442850,-133,-902,-1893,10711
54925227,4000,0,1.0923258,1.3621784,-10.050565,-0.00252942,0.008897096,-0.036780532,64.67867,156.9064,0.0047884034,1442850,652,-113,-1952,10714
55025227,4000,0,-0.38272792,0.56052613,-10.034884,-0.011783078,-0.0126455845,-0.032505915,64.70083,156.9064,0.0047884034,1442850,797,582,-1898,10722
55129231,3998,0,0.3330558,-0.70693094,-9.788226,0.0017459395,0.009868433,-0.03447052,64.68421,156.9064,0.0047884034,1442850,-128,-635,-1949,10716
55229226,3991,0,0.8743495,1.4895166,-9.88933,0.00124811,0.0059948335,-0.042722292,64.68698,156.9064,0.0047884034,1442850,582,220,-2020,10717
55329277,4050,0,-0.32712814,0.2630894,-10.090171,-0.0014582323,-0.011946176,-0.0464093,64.69252,156.9064,0.0047884034,1442850,90,510,-1691,10719
55433233,4006,0,0.08678224,-0.61655474,-9.668675,0.0072759762,0.01245065,-0.03805586,64.71745,156.9064,0.0047884034,1442850,-217,-858,-2522,10728
55533234,4007,0,0.8279827,1.5031103,-9.921134,-0.004672907,0.008140568,-0.041593563,64.72576,156.9064,0.0047884034,1442850,218,119,-2424,10731
55637227,4000,0,-0.7743729,-1.0544552,-9.9286585,-0.005143335,-0.008924687,-0.036404215,64.70637,156.9064,0.0047884034,1442850,269,-114,-1876,10724
55737227,3987,0,0.09928986,-0.45950925,-9.736547,0.008437897,0.009630501,-0.037190843,64.70083,156.9064,0.0047884034,1442850,3,-1124,-2271,10722
55841266,4039,0,0.37474513,0.88412416,-10.079317,-0.012895408,-0.007850464,-0.04561469,64.675896,156.9064,0.0047884034,1442850,588,747,-1820,10713
55945227,3994,0,-0.6606623,-0.96798867,-10.039596,0.003180466,0.007022474,-0.037307307,64.745155,156.9064,0.0047884034,1442850,-743,-491,-2083,10738
56045227,4000,0,1.2566701,0.93200374,-9.960306,0.0013473722,0.012898371,-0.040544707,64.70914,156.9064,0.0047884034,1442850,500,-216,-2224,10725
56145227,4000,0,-0.54731244,1.0455995,-9.893408,-0.005056723,-0.008072855,-0.040994674,64.7036,156.9064,0.0047884034,1442850,-68,919,-1841,10723
56249227,4001,0,0.29784983,-1.0097498,-9.862889,0.01266243,0.007738049,-0.03700306,64.70083,156.9064,0.0047884034,1442850,-530,-935,-2118,10722
56349227,4000,0,1.1720928,1.3630905,-9.902152,-0.0016117712,0.01067878,-0.04381227,64.70083,156.9064,0.0047884034,1442850,1053,121,-2272,10722
56453245,4018,0,-0.5722967,-0.8497333,-10.186282,0.0037004314,-0.0059920754,-0.03646369,64.71468,156.9064,0.0047884034,1442850,67,-16,-1870,10727
56553227,4000,0,-0.39058405,-0.41716287,-9.732978,-0.0012427669,0.011179073,-0.03741709,64.70914,156.9064,0.0047884034,1442850,-623,-840,-2426,10725
56653229,4002,0,1.1291915,1.5259167,-9.803843,0.00060077687,0.004787204,-0.043107256,64.71745,156.9064,0.0047884034,1442850,541,352,-2340,10728
56757251,4024,0,-0.596165,-1.0590982,-9.953313,-0.00013415143,-0.004000583,-0.03316412,64.71468,156.9064,0.0047884034,1442850,364,-216,-1971,10727
56857271,4044,0,-0.2997406,-0.08825862,-9.747132,0.00800032,0.011838784,-0.037120532,64.72576,156.9064,0.0047884034,1442850,-1088,-781,-2607,10731
56958851,4025,0,0.7361835,1.2846999,-9.918102,-0.016983157,-0.0009234996,-0.038283966,64.711914,156.9064,0.0047884034,1442850,964,616,-2244,10726
57058850,4023,0,-1.0341586,-0.2879196,-9.961227,0.0012912836,-0.007321909,-0.043829434,64.759,156.9064,0.0047884034,1442850,-454,579,-1772,10743
57162827,4000,0,1.471025,0.36721525,-9.958781,-0.012906963,0.009881103,-0.03741267,64.745155,156.9064,0.0047884034,1442850,1256,-435,-2169,10738
57262826,3999,0,-0.25970477,1.1395209,-9.91331,-0.002754393,-0.0009796408,-0.04106254,64.75346,156.9064,0.0047884034,1442850,31,330,-2245,10741
57366827,4000,0,-0.34914657,-0.8870813,-10.183248,0.010865093,0.0015139846,-0.0389166,64.7036,156.9064,0.0047884034,1442850,-877,-470,-1861,10723
57466827,3971,0,0.72358936,0.6132696,-9.912363,-0.0012264678,0.00613383,-0.035416707,64.72576,156.9064,0.0047884034,1442850,252,-395,-1849,10731
57566827,4000,0,-0.13888974,0.7096978,-9.960313,-0.013178829,-0.006136189,-0.046140287,64.759,156.9064,0.0047884034,1442850,291,188,-2510,10743
57670827,4000,0,-0.38716063,-0.670861,-10.123505,-0.0036512243,0.005821759,-0.03113883,64.71468,156.9064,0.0047884034,1442850,-89,-547,-1292,10727
57770827,3994,0,0.3305842,1.2023089,-10.060721,0.002796593,0.0065372023,-0.03736853,64.72022,156.9064,0.0047884034,1442850,-169,-368,-1575,10729
57870827,3959,0,-0.12283194,0.3764139,-9.989535,-0.0027746211,-0.0089902915,-0.03748151,64.745155,156.9064,0.0047884034,1442850,-149,217,-2143,10738
57974871,4044,0,-0.38579425,-0.6182283,-9.883984,-0.0003168683,0.0065395916,-0.034603246,64.72022,156.9064,0.0047884034,1442850,-322,-545,-1628,10729
58074833,4006,0,0.5743347,0.855526,-10.1084385,0.0022743824,0.0057120486,-0.03653755,64.73407,156.9064,0.0047884034,1442850,197,-515,-1990,10734
58178827,4000,0,-0.8663518,-0.5492782,-10.008724,0.005795244,-0.0058296765,-0.04298985,64.745155,156.9064,0.0047884034,1442850,-251,300,-1651,10738
58282874,4047,0,1.4752312,0.79297155,-9.915786,-0.007154422,0.0074060163,-0.041358396,64.74238,156.9064,0.0047884034,1442850,984,-57,-2034,10737
58382827,4000,0,-0.8443795,0.3687102,-10.045048,-0.011731906,-0.007730374,-0.047095366,64.72853,156.9064,0.0047884034,1442850,263,455,-1752,10732
58486827,4001,0,0.30821198,-0.27785018,-9.954737,-0.0026669465,0.013883607,-0.036899447,64.73961,156.9064,0.0047884034,1442850,-162,-538,-2433,10736
58586869,4042,0,0.34669387,1.6610389,-9.81382,0.007988568,0.0046524,-0.04346025,64.73407,156.9064,0.0047884034,1442850,-120,349,-1996,10734
58686827,4000,0,-0.04353376,-0.25912517,-10.167085,0.008127384,-0.011890226,-0.04759741,64.74238,156.9064,0.0047884034,1442850,-46,396,-1743,10737
58790827,3959,0,-0.32055667,-0.16864839,-9.671366,0.012552749,0.018095158,-0.039896645,64.75346,156.9064,0.0047884034,1442850,-897,-678,-2569,10741
58890830,4003,0,0.67954576,1.6179543,-10.114659,-0.002921094,0.0026806071,-0.048373107,64.74238,156.9064,0.0047884034,1442850,555,479,-2069,10737
58990844,4018,0,-0.38606036,-0.14614445,-10.105347,-0.008402378,-0.009202946,-0.04455469,64.73961,156.9064,0.0047884034,1442850,451,519,-1703,10736
59094827,4000,0,0.873367,0.13654439,-9.780677,0.009315327,0.010885572,-0.040624753,64.73407,156.9064,0.0047884034,1442850,128,-664,-2370,10734
59194827,4000,0,0.7848908,1.0340506,-9.972251,-0.020354131,0.00021925912,-0.037232824,64.76731,156.9064,0.0047884034,1442850,962,378,-2456,10746
59298826,3999,0,-0.9428186,-0.99510163,-9.952237,-0.0032267962,-0.0014645435,-0.034171663,64.750694,156.9064,0.0047884034,1442850,-46,-389,-1730,10740
59398827,3965,0,1.3350633,0.7509702,-9.909252,0.007173118,0.011661096,-0.037174918,64.76454,156.9064,0.0047884034,1442850,302,-562,-2084,10745
59498827,3996,0,0.1303996,1.2561381,-9.762256,-0.016362669,-0.0057339463,-0.03879855,64.72853,156.9064,0.0047884034,1442850,315,532,-2354,10732
59602842,4015,0,-0.70056933,-1.5544865,-10.1493435,0.0020583593,0.00083561824,-0.03989951,64.71468,156.9064,0.0047884034,1442850,-513,-476,-1352,10727
59702834,4007,0,0.85652083,0.74063504,-9.6977625,0.0155930035,0.011175056,-0.036193073,64.75623,156.9064,0.0047884034,1442850,-171,-547,-1996,10742
59802827,4000,0,0.1472148,1.3659835,-10.018425,-0.0033855103,-0.0068524713,-0.040733,64.76454,156.9064,0.0047884034,1442850,394,379,-1652,10745
59906827,4000,0,-0.8880195,-1.1180137,-10.003105,0.011944627,0.0035137606,-0.036304712,64.76731,156.9064,0.0047884034,1442850,-1500,-314,-1626,10746
60006859,4032,0,1.1036274,0.90902996,-9.980678,-0.0015710574,0.008798297,-0.046928234,64.77839,156.9064,0.0047884034,1442850,837,-87,-1471,10750
60110827,4000,0,-0.68920237,-0.6126452,-9.864736,-0.0032644935,-0.008478065,-0.03335981,64.75346,156.9064,0.0047884034,1442850,87,155,-2533,10741
60210827,4000,0,-0.7792654,-0.70733684,-9.81252,0.005091332,0.011724416,-0.04068867,64.71745,156.9064,0.0047884034,1442850,-579,-868,-2287,10728
60310827,4000,0,1.0970483,1.4685415,-9.84426,-0.0062176096,0.009536395,-0.04089401,64.781166,156.9064,0.0047884034,1442850,525,-122,-2339,10751
60414827,3993,0,-0.52098113,-1.1508033,-10.173951,-0.0041311416,-0.011839925,-0.038342044,64.76454,156.9064,0.0047884034,1442850,606,162,-1563,10745
60514826,3999,0,-0.79071337,-0.73676354,-9.959482,0.00012469571,0.00790269,-0.037908234,64.77008,156.9064,0.0047884034,1442850,-658,-786,-1548,10747
60614827,4000,0,1.4474158,1.3968148,-9.954174,0.0072703017,0.0051147533,-0.03905431,64.72576,156.9064,0.0047884034,1442850,619,-47,-1907,10731
60718829,3996,0,-1.3947958,-0.7095625,-9.799195,-0.004765845,-0.0053905733,-0.03988479,64.745155,156.9064,0.0047884034,1442850,-420,428,-2272,10738
60818827,4000,0,0.61147094,-0.46897426,-9.844201,0.016453482,0.012091974,-0.04169929,64.75346,156.9064,0.0047884034,1442850,-405,-547,-2386,10741
60922827,4000,0,-0.3787397,0.7331219,-9.872126,-0.013989244,-0.009872134,-0.034394726,64.77285,156.9064,0.0047884034,1442850,292,188,-2008,10748
61022880,4053,0,-1.5185952,-1.3048192,-9.819372,-0.0059376517,-0.005381881,-0.040461335,64.75346,156.9064,0.0047884034,1442850,-335,-402,-2468,10741
61122827,3987,0,1.0096725,0.2512814,-9.784165,0.011350399,0.014958477,-0.033237465,64.76454,156.9064,0.0047884034,1442850,-161,-526,-2434,10745
61226827,3998,0,-0.36853766,0.43001708,-10.083662,0.0036621094,-0.011364364,-0.04104455,64.747925,156.9064,0.0047884034,1442850,242,493,-1658,10739
61326827,4000,0,-0.6444121,-1.6735973,-10.0624485,-0.010594769,-0.0060123354,-0.03926532,64.789474,156.9064,0.0047884034,1442850,202,-585,-1915,10754
61426849,4022,0,0.6008324,0.71467584,-9.930749,0.013261871,0.017027106,-0.040474307,64.77285,156.9064,0.0047884034,1442850,3,-641,-2067,10748
61530827,4000,0,-0.5483624,-0.13269688,-10.093855,-0.0025692391,-0.0130827315,-0.03925248,64.786705,156.9064,0.0047884034,1442850,-469,601,-1649,10753
61630827,4000,0,-0.8262892,-1.2119076,-9.928321,-0.0078414725,0.002328067,-0.036263864,64.792244,156.9064,0.0047884034,1442850,-278,-848,-1675,10755
61734827,4000,0,0.46095112,1.458888,-10.074609,-0.008503824,-0.0039796303,-0.048078667,64.781166,156.9064,0.0047884034,1442850,-95,673,-2122,10751
61834827,3991,0,-0.48935223,-0.879275,-9.950232,0.0009811362,-0.0102124885,-0.036792234,64.789474,156.9064,0.0047884034,1442850,782,371,-1645,10754
61934827,4000,0,-0.5951017,-0.34534836,-9.847379,0.01925179,0.010180322,-0.0367764,64.79778,156.9064,0.0047884034,1442850,-1309,-865,-1806,10757
62038837,4010,0,0.52059877,0.67573893,-10.119029,-0.0041761114,-0.0061097303,-0.047781438,64.75346,156.9064,0.0047884034,1442850,493,597,-1788,10741
62139656,4023,0,-1.2218742,-1.1218708,-10.062682,-0.014689367,-0.0047489568,-0.04199192,64.789474,156.9064,0.0047884034,1442850,504,22,-1489,10754
62240427,4000,0,0.46781266,0.5516776,-9.9740305,0.018137798,0.0123689715,-0.036473993,64.786705,156.9064,0.0047884034,1442850,-858,-775,-1913,10753
62340427,4001,0,0.018702734,1.1004171,-9.892801,-0.006305308,-0.0035558403,-0.039918408,64.81441,156.9064,0.0047884034,1442850,127,426,-2383,10763
62444426,3999,0,0.066663556,-1.0148818,-10.12769,0.009931989,0.00324481,-0.037028275,64.781166,156.9064,0.0047884034,1442850,-153,-726,-1673,10751
62544427,4000,0,0.9303513,1.1491132,-9.858377,0.0002557285,0.010118463,-0.039372608,64.81441,156.9064,0.0047884034,1442850,532,-310,-2213,10763
62648427,3985,0,-0.58705735,-0.7060378,-10.240115,-0.0024453339,-0.0087282695,-0.038371876,64.77562,156.9064,0.0047884034,1442850,-32,247,-1484,10749
62748427,4000,0,-0.6780933,-0.5932604,-9.634466,0.0068170964,0.008331578,-0.033982623,64.783936,156.9064,0.0047884034,1442850,-688,-839,-2235,10752
62848427,4000,0,0.56596345,1.496614,-9.84154,-0.0015660683,0.0064221746,-0.040379472,64.79778,156.9064,0.0047884034,1442850,131,-90,-2484,10757
62952427,4000,0,-0.43358213,-1.0949706,-10.141437,-0.014080335,-0.006624108,-0.040079735,64.79778,156.9064,0.0047884034,1442850,362,105,-1523,10757
63052427,3952,0,-0.7688974,-0.15743229,-10.024337,0.011928183,0.009210978,-0.033772565,64.81441,156.9064,0.0047884034,1442850,-970,-665,-1591,10763
63152427,4000,0,0.88627523,1.1154765,-10.017789,-0.0071795294,0.0011300511,-0.039213583,64.77562,156.9064,0.0047884034,1442850,733,-100,-1993,10749
63256433,4006,0,-0.6003464,-0.7186382,-9.907479,-0.0007320129,-0.0032147618,-0.04815619,64.79501,156.9064,0.0047884034,1442850,-139,118,-1969,10756
63356474,4047,0,0.81400377,0.047267407,-10.03085,0.008250998,0.0071872436,-0.043202013,64.789474,156.9064,0.0047884034,1442850,227,-252,-1660,10754
63460434,4007,0,-0.37571734,0.40165403,-9.908599,0.0031428484,-0.003777752,-0.03857231,64.781166,156.9064,0.0047884034,1442850,147,308,-2143,10751
63560427,4000,0,-0.84077704,-0.84438443,-10.044185,-0.002267106,0.0026001604,-0.045690197,64.79778,156.9064,0.0047884034,1442850,-674,-175,-1885,10757
63660457,4030,0,0.87409896,0.7133207,-9.786635,0.007786168,0.0091019105,-0.045833774,64.79501,156.9064,0.0047884034,1442850,-18,-252,-2124,10756
63764430,4003,0,-1.022211,-0.11434425,-9.906399,0.0024007158,-0.0076453155,-0.034770012,64.81441,156.9064,0.0047884034,1442850,-794,322,-2152,10763
63864427,3959,0,-0.5897974,-1.070911,-10.10132,-0.008682927,0.006779301,-0.04069635,64.792244,156.9064,0.0047884034,1442850,-425,-674,-1829,10755
63964494,4067,0,0.7245536,0.92376876,-9.856607,0.005896803,0.012101862,-0.048881397,64.80055,156.9064,0.0047884034,1442850,820,-212,-1922,10758
64068427,3995,0,-0.008856268,-0.32010677,-10.056137,0.005675568,-0.008823515,-0.03173995,64.80055,156.9064,0.0047884034,1442850,-164,316,-1901,10758
64168427,4000,0,-0.112747334,-1.0887929,-9.799734,-0.006827528,0.0055844504,-0.038504314,64.81718,156.9064,0.0047884034,1442850,314,-790,-2258,10764
64272427,4000,0,-0.18431203,0.97423923,-10.143094,0.0034448188,-0.0043456964,-0.0392821,64.80609,156.9064,0.0047884034,1442850,-656,252,-1828,10760
64372427,3994,0,-0.008887401,-0.16518144,-9.848227,0.0023647284,-0.008872061,-0.034693263,64.786705,156.9064,0.0047884034,1442850,872,46,-2019,10753
64472427,3967,0,-0.4962393,-0.70090705,-9.584595,0.0048821196,0.0055276817,-0.030383207,64.81441,156.9064,0.0047884034,1442850,-715,-821,-2737,10763
64576427,4000,0,-0.77575815,-0.17220247,-10.083248,-0.023664668,-0.010649237,-0.032535,64.81995,156.9064,0.0047884034,1442850,757,176,-1967,10765
64676433,4006,0,1.86002,0.92087656,-10.115202,0.016420485,0.0064389445,-0.042695627,64.83379,156.9064,0.0047884034,1442850,99,-161,-1372,10770
64776427,4000,0,-1.4549482,-0.9317882,-9.738691,0.01185466,0.01351909,-0.034999415,64.81163,156.9064,0.0047884034,1442850,-921,-934,-2008,10762
64880427,4000,0,-0.71850574,-0.1955071,-9.794232,0.008739056,0.011428341,-0.031948328,64.81718,156.9064,0.0047884034,1442850,-399,-161,-1842,10764
64980427,4000,0,-1.6803782,-0.9252276,-10.141565,0.005635443,0.007369354,-0.038549073,64.79778,156.9064,0.0047884034,1442850,-789,-1330,-1569,10757
65084427,3980,0,-0.4146831,-0.8757737,-9.688313,0.012276052,0.01216779,-0.034913212,64.80609,156.9064,0.0047884034,1442850,-670,-1136,-2647,10760
65188451,4024,0,-1.1351968,-1.2713363,-9.928238,0.00682838,0.0067565385,-0.036534347,64.80886,156.9064,0.0047884034,1442850,-698,-1080,-1201,10761
65288429,4002,0,0.0803045,0.62906486,-10.285322,-0.011516235,-0.012060521,-0.04683707,64.85873,156.9064,0.0047884034,1442850,87,1183,-1847,10779
65392427,4000,0,0.44846725,1.1514999,-10.13188,0.011301208,0.0033728252,-0.040990725,64.8421,156.9064,0.0047884034,1442850,39,4,-904,10773
65492427,4000,0,0.02698987,-0.6217658,-9.939864,0.002470591,-0.004459077,-0.035915446,64.831024,156.9064,0.0047884034,1442850,166,158,-2618,10769
65592427,4000,0,0.13329323,0.3466429,-9.646478,0.015969299,0.0066832937,-0.04122621,64.79778,156.9064,0.0047884034,1442850,-109,-73,-2185,10757
65696427,4000,0,-0.44581822,-0.36327592,-9.952859,0.0003892919,-0.0064632418,-0.04046627,64.84487,156.9064,0.0047884034,1442850,-482,605,-1567,10774
65796427,3998,0,-0.50244486,-0.6477117,-9.835305,0.0040799677,0.0065186643,-0.037035346,64.864265,156.9064,0.0047884034,1442850,-162,-791,-1868,10781
65896427,4000,0,1.323509,1.4718925,-9.993599,-0.00060716574,0.0057667713,-0.034823872,64.81441,156.9064,0.0047884034,1442850,260,35,-2401,10763
66000427,4000,0,-1.4673545,-1.3483182,-10.031678,-0.0039749295,-0.008939611,-0.037701353,64.85319,156.9064,0.0047884034,1442850,-186,-221,-1679,10777
66100438,3976,0,1.4022429,0.19389401,-9.769576,0.022998039,0.010045473,-0.0332856,64.85319,156.9064,0.0047884034,1442850,-204,-749,-2034,10777
66204472,4045,0,-1.1636066,0.19595939,-10.145906,-0.010266959,-0.011601076,-0.040042892,64.81163,156.9064,0.0047884034,1442850,301,391,-1431,10762
66308427,4000,0,0.39806452,0.0894146,-9.842779,0.0016091388,0.011481183,-0.038118713,64.83933,156.9064,0.0047884034,1442850,-499,-384,-2028,10772
66408427,3993,0,0.41433972,1.248137,-9.852646,-0.0067907907,-0.0041427556,-0.042077474,64.83933,156.9064,0.0047884034,1442850,194,526,-1997,10772
66512427,4000,0,-0.8593107,-1.2221956,-9.86879,-0.013393798,0.001620398,-0.04245233,64.81441,156.9064,0.0047884034,1442850,-4,-384,-2462,10763
66616428,4001,0,0.7626406,1.5863558,-9.783365,-0.006801572,-0.00271357,-0.034780104,64.861496,156.9064,0.0047884034,1442850,583,194,-2439,10780
66716460,4033,0,-0.5890178,-0.13658684,-9.946915,0.0038564226,-0.01210271,-0.035452437,64.85042,156.9064,0.0047884034,1442850,-506,506,-2144,10776
66820434,4007,0,0.36771852,-0.15475276,-9.944553,0.017329223,0.016246056,-0.038019136,64.83656,156.9064,0.0047884034,1442850,-114,-739,-1497,10771
66920427,4000,0,0.9639917,1.5396098,-10.065706,-0.002405719,0.0015652335,-0.041740038,64.84764,156.9064,0.0047884034,1442850,14,123,-1757,10775
67020427,4000,0,-0.3278043,0.38781017,-10.10067,0.0042493884,-0.011058854,-0.038776375,64.84487,156.9064,0.0047884034,1442850,497,453,-1688,10774
67124427,4000,0,0.10838102,-0.35345834,-9.940318,0.011657728,0.0106737595,-0.03853035,64.8892,156.9064,0.0047884034,1442850,-768,-246,-2020,10790
67224427,3972,0,1.0012035,0.9527935,-9.807721,-0.009068369,0.0041908114,-0.04160817,64.84487,156.9064,0.0047884034,1442850,511,94,-1856,10774
67326027,3999,0,-0.4918651,-0.10102607,-9.980758,-0.0025847666,-0.008640932,-0.03453739,64.831024,156.9064,0.0047884034,1442850,364,217,-1738,10769
67426073,4005,0,-0.38118246,-0.9131836,-10.054716,0.0073211263,0.003803352,-0.03650347,64.83379,156.9064,0.0047884034,1442850,-411,-726,-1933,10770
67530076,4046,0,0.56457925,1.3173094,-10.020016,-0.0069060805,-0.0031882024,-0.042504046,64.867035,156.9064,0.0047884034,1442850,679,468,-1807,10782
67630027,4000,0,-0.43512774,-0.30023324,-10.274864,-0.00583895,-0.01174013,-0.04102917,64.869804,156.9064,0.0047884034,1442850,-85,348,-1423,10783
67734067,4040,0,-0.006443392,-0.06935852,-9.702746,0.0020553544,0.015193284,-0.044256333,64.88088,156.9064,0.0047884034,1442850,-188,-586,-2591,10787
67838027,4000,0,0.40183735,0.77614665,-10.032292,-0.0023386418,-0.010519066,-0.040422887,64.85042,156.9064,0.0047884034,1442850,541,349,-2122,10776
67938027,3976,0,-0.9131141,-0.94017875,-9.844628,-0.0055807666,-0.004899945,-0.031850476,64.84764,156.9064,0.0047884034,1442850,41,-175,-2194,10775
68042041,4014,0,1.2782638,0.6963905,-9.914547,0.0059182495,0.0087663615,-0.04993435,64.84764,156.9064,0.0047884034,1442850,323,-232,-1957,10775
68142027,4000,0,0.07781034,0.8371805,-10.096303,-0.01642156,-0.008224332,-0.042742427,64.825485,156.9064,0.0047884034,1442850,724,552,-1678,10767
68242027,3960,0,-1.017642,-0.62400544,-10.006725,0.010212329,-0.0065303836,-0.042781994,64.83656,156.9064,0.0047884034,1442850,-194,204,-1755,10771
68346029,4002,0,1.2148422,0.8765895,-10.005031,-0.0014697135,0.0064392686,-0.037008718,64.89197,156.9064,0.0047884034,1442850,354,27,-1842,10791
68446027,4000,0,-0.26501974,0.27009505,-9.932554,-0.0022154306,-0.0050066207,-0.045375176,64.84764,156.9064,0.0047884034,1442850,209,407,-2063,10775
68546042,4015,0,-0.7735433,-0.9158678,-10.119123,0.0039090253,0.0007464279,-0.045326207,64.900276,156.9064,0.0047884034,1442850,-386,-25,-1678,10794
68650027,3994,0,0.34686127,1.3951955,-9.873106,0.0019757366,0.0067301556,-0.03668637,64.872574,156.9064,0.0047884034,1442850,-218,164,-2219,10784
68750027,3994,0,-0.30799383,0.3579974,-9.697161,-0.0053507052,-0.009856742,-0.041464835,64.83933,156.9064,0.0047884034,1442850,129,503,-2395,10772
68854066,4033,0,0.15327556,-0.87881804,-9.6313095,0.0006726538,0.008573199,-0.03508604,64.88088,156.9064,0.0047884034,1442850,166,-878,-2216,10787
68958027,3991,0,0.03772675,1.3143462,-10.089694,-0.008062317,-0.0048008813,-0.045013025,64.869804,156.9064,0.0047884034,1442850,48,662,-2180,10783
69058074,4047,0,-0.4945878,-0.6300926,-10.179949,-0.006913568,-0.005211906,-0.04309458,64.861496,156.9064,0.0047884034,1442850,473,364,-1837,10780
69162073,4046,0,0.85825115,0.70794874,-9.886557,-0.0016198084,0.007120067,-0.0379933,64.905815,156.9064,0.0047884034,1442850,428,-475,-2067,10796
69262033,4006,0,0.25830248,0.39496988,-10.1928835,-0.009283157,-0.0063107666,-0.035364807,64.8421,156.9064,0.0047884034,1442850,527,390,-1874,10773
69362027,3960,0,-1.182674,-0.86048645,-9.730244,-0.013758761,0.00023922289,-0.037499204,64.88088,156.9064,0.0047884034,1442850,78,-272,-2490,10787
69466027,4000,0,0.9858452,1.1129398,-10.140703,0.0026673726,0.0005593128,-0.041162778,64.87811,156.9064,0.0047884034,1442850,52,86,-1700,10786
69566027,4000,0,0.0041971025,0.51428884,-10.029711,-0.008362262,-0.012271617,-0.0410005,64.872574,156.9064,0.0047884034,1442850,402,424,-1517,10784
69666067,4040,0,-1.1076232,-1.2612833,-9.922598,-0.011062194,-0.006162297,-0.035892855,64.85873,156.9064,0.0047884034,1442850,134,-285,-1929,10779
69770027,4000,0,0.93506294,1.0668088,-9.987971,-0.0043993727,0.008839369,-0.049235437,64.89474,156.9064,0.0047884034,1442850,412,-122,-1901,10792
69870027,4000,0,-0.40873802,1.059569,-9.796388,-0.009212419,-0.011974787,-0.03707291,64.88643,156.9064,0.0047884034,1442850,335,709,-1868,10789
69974067,4040,0,0.54703724,0.13920973,-9.889723,0.007155608,0.012302204,-0.040699206,64.87811,156.9064,0.0047884034,1442850,-100,-657,-1628,10786
70078027,3964,0,-0.4230649,-1.3904452,-9.902749,-0.004555756,-0.0056723305,-0.03457377,64.88643,156.9064,0.0047884034,1442850,173,-332,-2050,10789
70178027,4000,0,0.7623118,0.85557795,-10.148883,-0.012653559,-0.00974722,-0.039717253,64.908585,156.9064,0.0047884034,1442850,931,434,-1967,10797
70282067,4034,0,0.8539021,1.4438378,-9.97567,-0.018556833,-0.010263383,-0.037943378,64.900276,156.9064,0.0047884034,1442850,1117,669,-2166,10794
70382030,4003,0,0.99966395,1.494004,-10.184062,-0.0148825925,-0.007613808,-0.038884304,64.903046,156.9064,0.0047884034,1442850,997,1183,-1451,10795
70482033,3987,0,0.8527441,1.5445671,-10.331463,-0.010107325,-0.016073935,-0.04692986,64.88366,156.9064,0.0047884034,1442850,698,1112,-1400,10788
70586027,3993,0,-1.5298225,-1.6288489,-9.952775,-0.0029765903,-0.0073262933,-0.035814695,64.88088,156.9064,0.0047884034,1442850,-678,-517,-1508,10787
70686035,4008,0,0.8491155,0.70646316,-9.876402,0.01873712,0.036192007,-0.05169655,64.89474,156.9064,0.0047884034,1442850,-520,-1183,-1813,10792
70786068,4039,0,-1.2397481,-1.6874304,-9.535522,0.0077614775,-0.035179213,-0.027761133,64.905815,156.9064,0.0047884034,1442850,-973,-197,-2195,10796
70890027,3993,0,-1.3869618,-1.4287665,-10.399383,0.015999299,-0.016920755,-0.03491248,64.89474,156.9064,0.0047884034,1442850,-1451,-723,-604,10792
70990027,4000,0,-1.666481,0.40117866,-10.32268,-0.007428767,-0.018935155,-0.029220928,64.87811,156.9064,0.0047884034,1442850,-782,844,-1365,10786
71094067,4041,0,-1.8152298,0.3379933,-10.019666,-0.0020412444,-0.024360992,-0.035619132,64.87811,156.9064,0.0047884034,1442850,-956,1382,-2312,10786
71198039,4012,0,-1.7070175,-0.36581472,-9.989476,0.0038137503,-0.033540923,-0.032647304,64.869804,156.9064,0.0047884034,1442850,-1455,1162,-1242,10783
71906067,4040,0,-1.0321193,-0.3274132,-9.760042,0.011281244,-0.008548333,-0.028011397,64.91689,156.9064,0.0047884034,1442850,-1307,94,-2231,10800
72010027,4000,0,-1.1602327,-0.4467445,-10.008443,0.012668114,-0.008595223,-0.030404381,64.905815,156.9064,0.0047884034,1442850,-1278,88,-2204,10796
72110027,3990,0,-1.4190645,0.3236904,-10.0038,-0.014173873,-0.013144539,-0.038251348,64.93352,156.9064,0.0047884034,1442850,-220,746,-1939,10806
72214067,4034,0,-1.3027186,0.24111654,-10.24621,-0.018403517,-0.010759955,-0.04158787,64.87811,156.9064,0.0047884034,1442850,181,293,-1190,10786
72315627,4000,0,-1.5171614,0.022175683,-10.314493,0.0076873037,-0.01474161,-0.03021127,64.911354,156.9064,0.0047884034,1442850,-1075,274,-1223,10798
72415636,4008,0,-1.0382833,-0.12878321,-10.016255,0.016787274,-0.0020354178,-0.03536436,64.900276,156.9064,0.0047884034,1442850,-1339,215,-2203,10794
72515628,4002,0,1.6437764,-0.13924868,-9.776551,0.006073175,0.0030276568,-0.04540317,64.911354,156.9064,0.0047884034,1442850,1006,-414,-1489,10798
72619627,4000,0,-1.7195129,0.08719795,-9.762783,-0.008497469,-0.004263744,-0.04697179,64.92244,156.9064,0.0047884034,1442850,-551,440,-3089,10802
72719627,3994,0,1.127412,0.0899411,-9.34576,0.031259976,0.011044229,-0.030156322,64.905815,156.9064,0.0047884034,1442850,-452,-212,-2564,10796
72819659,4025,0,-0.26300946,0.4880376,-9.3776455,-0.042248234,-0.008162632,-0.040004663,64.903046,156.9064,0.0047884034,1442850,1740,734,-2666,10795
72923626,3999,0,0.79669005,1.048819,-10.347511,-0.028554812,0.0009054651,-0.02836435,64.93352,156.9064,0.0047884034,1442850,1354,900,-2029,10806
73023634,4007,0,-0.3931492,-0.77676684,-9.107998,0.06525995,0.004162555,-0.054980315,64.900276,156.9064,0.0047884034,1442850,-2331,-1060,-3346,10794
73127627,4000,0,0.41062364,-0.30096626,-9.704126,0.058541313,0.00046241254,-0.05351786,64.91412,156.9064,0.0047884034,1442850,-1299,-96,-2806,10799
73227650,4023,0,2.120827,0.23204686,-10.474555,0.026603064,0.0019285778,-0.043597374,64.95568,156.9064,0.0047884034,1442850,1292,216,-1622,10814
73327627,4000,0,-1.0529892,1.1460674,-11.143823,-0.044009723,-0.010526,-0.013006132,64.93906,156.9064,0.0047884034,1442850,-363,806,-323,10808
73431647,4020,0,-1.1716161,0.49869663,-9.046089,-0.04154758,-0.0073825438,-0.020388983,64.91412,156.9064,0.0047884034,1442850,-123,734,-2209,10799
73531627,4000,0,0.35467795,0.019707901,-9.4988,-0.055454377,-0.0021854509,-0.046807345,64.88643,156.9064,0.0047884034,1442850,1623,-225,-2775,10789
73631627,4000,0,1.993725,0.23030075,-11.210094,-0.008237068,0.009086681,-0.050779246,64.8892,156.9064,0.0047884034,1442850,2653,277,-1222,10790
73735627,4000,0,0.80397356,1.1525004,-9.344465,-0.0695099,-0.0009884206,-0.017155433,64.89474,156.9064,0.0047884034,1442850,2780,527,-2339,10792
73835675,4048,0,2.6538858,0.45690814,-10.438138,0.0110525265,0.012829909,-0.06722766,64.91689,156.9064,0.0047884034,1442850,2665,-1061,-1713,10800
73935627,4000,0,1.8035853,0.8253801,-9.710312,0.05722228,0.0012601893,-0.03206249,64.93352,156.9064,0.0047884034,1442850,80,692,-1908,10806
74039627,3994,0,1.8736835,0.36233273,-11.259111,-0.018956892,0.009589387,-0.055048894,64.905815,156.9064,0.0047884034,1442850,2717,194,-1291,10796
74139627,4000,0,1.4698957,0.10924124,-11.135941,0.0101886075,0.015425319,-0.07085595,64.944595,156.9064,0.0047884034,1442850,2378,-366,-2567,10810
74243627,3978,0,0.52437055,0.425902,-10.931514,-0.046969157,0.0032381164,-0.042368535,64.947365,156.9064,0.0047884034,1442850,2296,521,-677,10811
74343639,4012,0,0.5405721,0.08786201,-10.31932,-0.056226086,0.010420196,-0.053655095,64.93352,156.9064,0.0047884034,1442850,2355,150,-2570,10806
74443627,3998,0,-1.3962519,-0.46767196,-9.13524,-0.03587388,0.00353111,-0.06637458,64.93629,156.9064,0.0047884034,1442850,-685,-1094,-2842,10807
74547638,4011,0,1.435967,1.0073345,-10.413573,0.0006931708,-0.0052457144,-0.0132736545,64.95568,156.9064,0.0047884034,1442850,2446,969,35,10814
74647627,3999,0,-1.1497443,0.0026508407,-9.732946,-0.044275895,0.010801883,-0.062817484,64.95845,156.9064,0.0047884034,1442850,-265,-460,-3279,10815
74751627,4000,0,0.8124916,-0.22759806,-10.579106,-0.03316852,0.00587641,-0.055050667,64.93352,156.9064,0.0047884034,1442850,2490,-583,-2078,10806
74855627,3990,0,0.093604416,0.5995648,-9.173567,0.038476765,-0.008388949,-0.05197504,64.95845,156.9064,0.0047884034,1442850,192,362,-4012,10815
74955627,3992,0,-0.051405583,0.40370035,-10.32624,-0.037914097,-0.0064278096,-0.036927175,64.95291,156.9064,0.0047884034,1442850,702,41,-1353,10813
75059628,4001,0,-0.86975515,-1.4727173,-10.847669,-0.04090679,-0.006115705,-0.05453908,64.91967,156.9064,0.0047884034,1442850,-106,-268,-1741,10801
75159647,4020,0,-0.49431068,-0.3579589,-11.318886,0.030451892,0.00041118066,-0.042618643,64.93075,156.9064,0.0047884034,1442850,-1374,198,526,10805
75259627,3963,0,-0.7109949,0.32821518,-10.594145,-0.021960098,0.009349132,-0.06473181,64.900276,156.9064,0.0047884034,1442850,-794,-1386,-2166,10794
75363627,4000,0,-0.12219236,1.4585156,-11.236834,0.01805079,0.011125449,-0.05520955,64.95568,156.9064,0.0047884034,1442850,-840,222,-915,10814
75463634,4007,0,-0.4637852,0.42999762,-11.631935,0.016230762,-0.0037685805,-0.05634496,64.92521,156.9064,0.0047884034,1442850,-1452,251,-1215,10803
75563633,4006,0,-0.3793488,-0.08001628,-10.873498,0.016664628,-0.0038262475,-0.022500379,64.92521,156.9064,0.0047884034,1442850,-963,205,-684,10803
75667627,3994,0,1.7741799,-1.1620567,-9.999248,0.0014790278,-0.010733603,-0.020968147,64.89751,156.9064,0.0047884034,1442850,3065,-253,-1381,10793
75767627,4000,0,-0.5964819,1.0443169,-10.763263,0.037395027,0.026060482,-0.03993897,64.96953,156.9064,0.0047884034,1442850,-1645,27,-543,10819
75871626,3974,0,0.63669384,1.4876913,-8.947715,-0.025673026,-0.0049390895,0.0015118327,64.941826,156.9064,0.0047884034,1442850,1881,310,-3185,10809
75971627,4000,0,1.1458871,0.7733771,-9.723093,-0.00972127,-0.009563107,-0.008109714,64.941826,156.9064,0.0047884034,1442850,2123,1016,-435,10809
76071631,4004,0,0.7294302,-0.67242306,-11.711814,0.032553058,-0.0034025647,-0.061923116,64.93906,156.9064,0.0047884034,1442850,-593,672,272,10808
76175627,4000,0,-0.047635064,-0.9035309,-9.546423,0.029899426,0.00592433,-0.046989158,64.93629,156.9064,0.0047884034,1442850,-31,-934,-3088,10807
76275633,4006,0,-1.0559402,0.15386946,-9.494577,0.010909161,0.010768473,-0.06546054,64.911354,156.9064,0.0047884034,1442850,-2675,-549,-3300,10798
76375627,4000,0,-0.055505395,1.2930077,-8.188379,-0.02908397,0.0030517755,-0.039402843,64.91412,156.9064,0.0047884034,1442850,1167,-470,-4952,10799
76479627,4000,0,-0.6951204,1.1038827,-9.90162,-0.01360764,-0.0050199633,-0.041202255,64.95291,156.9064,0.0047884034,1442850,-1449,559,-1304,10813
76579627,4000,0,-0.027778326,-0.6467402,-10.302199,-0.023372216,-0.008864005,-0.011376478,64.947365,156.9064,0.0047884034,1442850,544,178,113,10811
76683627,4000,0,0.342093,-1.1436472,-9.109538,-0.0410148,-0.006154998,-0.0010241852,64.947365,156.9064,0.0047884034,1442850,1880,-245,-1683,10811
76783627,3998,0,0.60609967,-0.2364089,-9.878639,0.030724533,0.0069464254,-0.0073775738,64.97784,156.9064,0.0047884034,1442850,1213,-234,-727,10822
76883634,4007,0,-0.44811043,1.3930495,-9.375179,0.02355614,0.013511626,-0.029055562,64.93906,156.9064,0.0047884034,1442850,-1845,-758,-1506,10808
76987656,4029,0,-0.56022257,1.3759977,-10.4556875,0.02512692,0.013855614,-0.07697376,64.9723,156.9064,0.0047884034,1442850,-1829,-577,-1735,10820
77087627,4000,0,-0.2757059,-0.09962664,-9.321544,-0.041735057,-0.013134812,-0.05234936,64.947365,156.9064,0.0047884034,1442850,1597,-95,-4101,10811
77188426,4000,0,1.7618325,-0.520286,-9.973652,0.014182939,-0.00244359,-0.040692475,64.92521,156.9064,0.0047884034,1442850,1154,222,-2240,10803
77289226,4000,0,1.4789428,-1.1775178,-10.343105,-0.015175929,0.00091741804,-0.055798177,64.93075,156.9064,0.0047884034,1442850,2185,-281,-1765,10805
77393227,3967,0,0.58349496,0.5687618,-9.777942,-0.027063586,0.006307865,-0.017729333,64.97784,156.9064,0.0047884034,1442850,2133,-144,-239,10822
77493227,4000,0,-0.04595619,1.7083125,-10.541472,0.038375568,0.0052550654,-0.02592803,64.93629,156.9064,0.0047884034,1442850,-365,287,-179,10807
77593227,3945,0,-0.38178033,1.8338848,-10.513839,0.035760533,0.00787088,-0.03446117,64.92521,156.9064,0.0047884034,1442850,-1853,647,547,10803
77697251,4024,0,0.9362262,-0.35512966,-10.334991,0.034569748,-0.012761644,-0.009832689,64.96399,156.9064,0.0047884034,1442850,-235,1078,-601,10817
77797233,4000,0,-0.8633981,-1.0290684,-10.448165,0.007209175,-0.0028234404,-0.036929823,64.92521,156.9064,0.0047884034,1442850,-1646,467,-1779,10803
77901230,3996,0,-0.517304,-0.39666003,-10.379154,0.034821317,-0.0001987599,-0.02148434,64.941826,156.9064,0.0047884034,1442850,-1335,37,-492,10809
78001261,4034,0,-1.0121655,0.34364367,-9.878151,0.0027953845,0.016133528,-0.08042751,64.96676,156.9064,0.0047884034,1442850,-1540,-849,-2106,10818
78101227,4000,0,-0.82921606,1.1154613,-9.039567,0.016557727,0.005180402,-0.08074365,64.95845,156.9064,0.0047884034,1442850,-1678,-258,-4650,10815
78205227,4000,0,0.18051714,1.0031646,-9.643261,0.03238133,-0.0073236953,-0.030956924,64.95291,156.9064,0.0047884034,1442850,-1333,499,-789,10813
78305227,4000,0,0.8187566,-0.47622404,-11.104072,0.009120147,-0.003916123,-0.0249581,64.96122,156.9064,0.0047884034,1442850,1263,828,261,10816
78409229,3968,0,0.61307627,-0.4471778,-10.665934,-0.007740137,-0.00047425844,-0.013697638,64.950134,156.9064,0.0047884034,1442850,2327,-509,251,10812
78509227,4000,0,0.20107587,0.5789825,-10.440625,0.031034105,0.0031517586,-0.017541947,64.93352,156.9064,0.0047884034,1442850,239,-105,116,10806
78609227,4000,0,-0.34641552,1.6042116,-9.902491,0.029430017,0.0109797185,-0.05871168,64.950134,156.9064,0.0047884034,1442850,-1420,326,-1669,10812
78713227,4000,0,0.92839277,0.40697405,-10.304208,0.003659742,-0.017102098,0.010399542,64.96953,156.9064,0.0047884034,1442850,1192,1299,-458,10819
78813227,3994,0,-0.72666585,-0.97838336,-8.616316,-0.0048009013,0.0012717865,-0.039703693,64.98892,156.9064,0.0047884034,1442850,-898,-24,-4927,10826
78913229,3961,0,-0.35116982,-2.0624309,-9.659247,0.021844285,-0.003423257,-0.055955574,64.96122,156.9064,0.0047884034,1442850,-1125,-814,-3772,10816
79017250,4023,0,-0.18629149,-0.011178999,-10.460137,0.016401146,0.020746231,-0.04208316,64.95291,156.9064,0.0047884034,1442850,825,-858,-477,10813
79117233,4006,0,0.7830634,1.0695559,-9.77865,0.015719598,0.0098017,-0.059885737,64.96399,156.9064,0.0047884034,1442850,1465,-825,-2225,10817
79217227,4000,0,0.3317825,1.4922177,-9.240729,0.0052130707,-0.0036047392,-0.045236267,64.96122,156.9064,0.0047884034,1442850,541,-223,-3443,10816
