timestamp,integral_dt,error_count,x,y,z,x_integral,y_integral,z_integral,temperature,range_m_s2,scaling,device_id,x_raw,y_raw,z_raw,temperature_raw
24365701,4027,0,0.14098714,-0.65238196,-9.584387,0.0006972563,0.003123552,-0.039641947,59.121883,156.9064,0.0047884034,1442850,11,-319,-2103,8708
24469707,4033,0,0.11334784,0.16472705,-9.986944,-0.003334945,-0.00032927978,-0.040640842,59.1108,156.9064,0.0047884034,1442850,76,22,-1704,8704
24573674,4000,0,-0.029225932,1.5185499,-10.591752,-0.0029527324,0.003332491,-0.040739506,59.124653,156.9064,0.0047884034,1442850,109,-168,-2183,8709
24674482,4000,0,-0.9302796,-1.8756075,-9.236752,-0.0034156176,0.001012666,-0.041886047,59.119114,156.9064,0.0047884034,1442850,-152,-427,-2150,8707
24774482,4000,0,0.3596337,1.5970126,-9.853517,-0.003467869,-0.013579726,-0.03287895,59.157894,156.9064,0.0047884034,1442850,189,630,-1925,8721
24874509,4021,0,0.34447286,1.7318091,-9.616826,0.006510013,0.0067509273,-0.03462231,59.138504,156.9064,0.0047884034,1442850,-235,-170,-2330,8714
24978488,4000,0,0.46960917,1.3984059,-9.837525,0.0044161323,-0.0042479797,-0.04063855,59.171745,156.9064,0.0047884034,1442850,-26,285,-1890,8726
25078482,3984,0,0.96385646,0.99935585,-10.163106,0.0020470512,-0.004897899,-0.036970545,59.152355,156.9064,0.0047884034,1442850,241,256,-2018,8719
25182496,4014,0,-0.62683606,-0.6611662,-9.488051,-0.017550854,-0.0002695499,-0.038188547,59.135735,156.9064,0.0047884034,1442850,853,-96,-2178,8713
25286482,3994,0,-1.8075774,0.49412727,-9.211307,0.0061238944,0.00787441,-0.052641857,59.121883,156.9064,0.0047884034,1442850,-415,-242,-2643,8708
25386498,4016,0,0.6266146,0.86079687,-10.33068,0.023804829,-0.0043434207,-0.05473085,59.155125,156.9064,0.0047884034,1442850,-1142,481,-2517,8720
25490464,4014,0,-0.8462431,0.83089644,-9.746697,0.009288846,0.006361681,-0.04973063,59.152355,156.9064,0.0047884034,1442850,-470,295,-2271,8719
25590450,4000,0,-0.09918945,1.6377778,-10.698014,-0.01946031,-0.016173836,-0.034181025,59.166203,156.9064,0.0047884034,1442850,732,1409,-226,8724
25690450,3992,0,0.50855756,0.25380448,-9.691454,0.0145639805,0.01882284,-0.054150887,59.171745,156.9064,0.0047884034,1442850,-133,-696,-2232,8726
25794450,3999,0,0.34591913,0.0014772662,-10.148906,-0.045464166,-0.008316781,-0.030170795,59.196674,156.9064,0.0047884034,1442850,2128,773,-1598,8735
25894477,4005,0,0.4390039,-0.09702312,-11.1269655,-0.044331692,-0.003916175,-0.026539493,59.157894,156.9064,0.0047884034,1442850,2134,318,113,8721
25994483,4009,0,-1.3514608,0.5316263,-10.273002,0.035630107,0.0015314727,-0.028186059,59.171745,156.9064,0.0047884034,1442850,-2172,620,-1905,8726
26098474,3994,0,0.15870221,0.5845125,-10.927143,-0.008073398,-0.0009689364,-0.023810752,59.149582,156.9064,0.0047884034,1442850,931,31,-2647,8718
26198480,4000,0,-0.77021337,0.6123847,-11.560621,0.016758624,-0.009871743,-0.08286363,59.146812,156.9064,0.0047884034,1442850,-1406,828,-3684,8717
26302488,4014,0,0.19752352,0.35340813,-12.591525,0.0062200506,0.010452316,-0.031148879,59.160664,156.9064,0.0047884034,1442850,118,-110,-2432,8722
26406474,3967,0,-0.7523243,0.1802176,-11.806471,0.00094681606,0.0019799066,-0.08452461,59.174515,156.9064,0.0047884034,1442850,-820,698,-3387,8727
26510481,4007,0,0.19194734,1.730963,-12.848262,0.005842534,-0.0035514585,-0.008726253,59.185596,156.9064,0.0047884034,1442850,826,43,876,8731
26610515,4041,0,-0.39439186,1.0339416,-11.52389,0.0046481546,0.0035571803,-0.012331178,59.174515,156.9064,0.0047884034,1442850,62,-291,-551,8727
26714474,3987,0,-0.6184629,-0.53045046,-10.092475,0.012530781,-0.008915344,-0.08905639,59.163433,156.9064,0.0047884034,1442850,-1074,620,-3841,8723
26814474,4000,0,-0.48216322,-1.3208425,-10.146869,0.031557035,-0.0052747787,-0.038891163,59.121883,156.9064,0.0047884034,1442850,-1607,-228,-2663,8708
26915275,4000,0,-0.593245,0.13483469,-10.783533,0.03108385,0.009753863,-0.052120376,59.141273,156.9064,0.0047884034,1442850,-1129,-358,-1679,8715
27019274,3976,0,0.38310578,1.4165723,-9.509107,-0.01632125,0.003916152,-0.06490249,59.160664,156.9064,0.0047884034,1442850,274,945,-3328,8722
27119274,3960,0,-0.82064706,-0.082846016,-9.5625725,0.02493873,-0.01134746,-0.04482668,59.160664,156.9064,0.0047884034,1442850,-1721,263,-3623,8722
27219250,3999,0,0.772924,-0.48983166,-9.998316,0.012942497,-0.014126071,-0.017931193,59.146812,156.9064,0.0047884034,1442850,1415,65,-1458,8717
27323266,4016,0,-1.0332685,0.4142428,-9.314123,-0.00068515446,0.004214255,-0.03793143,59.127422,156.9064,0.0047884034,1442850,-1778,584,-3671,8710
27423271,3997,0,-0.1976873,1.1706904,-10.230322,-0.019977449,0.0045381603,-0.04789267,59.119114,156.9064,0.0047884034,1442850,844,-801,-1811,8707
27527272,4015,0,0.5715048,0.56733847,-9.413123,-0.022527417,0.0075799697,-0.06221229,59.146812,156.9064,0.0047884034,1442850,1262,-825,-4801,8717
27631280,4000,0,0.3607994,-0.7486167,-10.160573,0.021143839,-0.0012716,-0.055894744,59.160664,156.9064,0.0047884034,1442850,-801,292,-2829,8722
27731280,4006,0,-0.9715451,0.084911816,-9.585304,-0.007574777,0.011970604,-0.06720933,59.168976,156.9064,0.0047884034,1442850,-867,-434,-3189,8725
27835309,4035,0,-0.3352821,1.1832305,-10.488049,-0.032515757,-0.0020170817,-0.035779495,59.188366,156.9064,0.0047884034,1442850,1884,-390,226,8732
27935274,3993,0,0.3468394,1.1664724,-10.092898,-0.015464595,-0.0042422893,-0.019473726,59.152355,156.9064,0.0047884034,1442850,981,-51,-38,8719
28035282,3972,0,0.7961215,-0.10541593,-9.379134,-0.026888737,-0.0021689325,-0.038451117,59.160664,156.9064,0.0047884034,1442850,2685,615,-2145,8722
28139305,4023,0,-0.7298741,-0.4614139,-9.427985,-0.040442128,-0.000623269,-0.036448423,59.168976,156.9064,0.0047884034,1442850,885,-515,-626,8725
28239289,4001,0,0.42317623,-0.023958934,-8.751773,-0.03744988,0.014086425,-0.039938975,59.180054,156.9064,0.0047884034,1442850,2691,-1252,-2278,8729
28339282,3994,0,-1.0151418,1.3246454,-9.323021,0.03128533,-0.005126444,-0.021975048,59.177284,156.9064,0.0047884034,1442850,-1454,891,-1534,8728
28443301,4020,0,0.74239796,0.08567422,-9.478511,0.026041636,-0.008338863,-0.014020784,59.180054,156.9064,0.0047884034,1442850,66,503,-495,8729
28543288,4006,0,-0.44615832,-0.8057163,-8.938896,0.03275917,0.007154907,-0.058367044,59.160664,156.9064,0.0047884034,1442850,-1641,-727,-1464,8722
28647282,3988,0,-1.0212392,0.30714682,-9.114952,0.026416503,0.0052301157,-0.069781594,59.182823,156.9064,0.0047884034,1442850,-1478,-751,-2300,8730
28751291,4009,0,0.19091715,0.7084876,-9.402259,0.02704383,-0.003048996,-0.043883078,59.232685,156.9064,0.0047884034,1442850,-314,305,-1911,8748
28851353,4071,0,0.15683423,-0.25110272,-10.011025,0.007210101,0.0052635856,-0.03737275,59.168976,156.9064,0.0047884034,1442850,63,-265,-1821,8725
28955303,4015,0,0.06739124,-0.98095644,-10.883677,-0.022340119,0.0025244972,-0.014173547,59.188366,156.9064,0.0047884034,1442850,1419,-935,-1238,8732
29055282,4000,0,-0.5492032,0.35785997,-9.460858,0.012507272,0.0078001777,-0.057069957,59.196674,156.9064,0.0047884034,1442850,-845,243,-5032,8735
29155282,4000,0,-0.4668112,0.39663893,-10.292121,0.0030721372,0.0146065205,-0.038873427,59.193905,156.9064,0.0047884034,1442850,23,-704,-1765,8734
29259250,3964,0,0.47080496,0.8605776,-10.45981,-0.0065318374,-0.011161562,-0.022622973,59.185596,156.9064,0.0047884034,1442850,1968,398,-1328,8731
29359250,3985,0,-0.22758396,-0.6481969,-10.626344,-0.0026677018,0.007649431,-0.019491287,59.199444,156.9064,0.0047884034,1442850,-767,274,-2573,8736
29459271,4021,0,-0.5630914,-0.36458072,-10.912533,0.025109563,0.0027722877,-0.041366346,59.216064,156.9064,0.0047884034,1442850,-1181,-324,852,8742
29563297,4041,0,-1.0477558,0.84735537,-9.161076,-0.01399423,0.014908633,-0.060048506,59.196674,156.9064,0.0047884034,1442850,-815,-1222,-4561,8735
29664082,4007,0,0.0068706498,1.8400606,-10.468613,0.024494998,0.011027875,-0.05013614,59.177284,156.9064,0.0047884034,1442850,185,-768,-2118,8728
29764075,3991,0,0.19618185,0.83753717,-9.335759,-0.010094588,0.0068617146,-0.047328606,59.177284,156.9064,0.0047884034,1442850,1268,19,-4292,8728
29868116,4041,0,0.8856009,-0.5638888,-10.53956,0.033114426,-0.011957931,-0.050862476,59.204987,156.9064,0.0047884034,1442850,-57,528,-2030,8738
29968075,4000,0,0.7579532,-0.56417835,-9.53704,-0.010635353,0.0004013478,-0.051381692,59.191135,156.9064,0.0047884034,1442850,2437,67,-3172,8733
30072075,4000,0,-0.79740226,1.4411433,-9.571918,0.032246057,-0.0039026681,-0.04785475,59.174515,156.9064,0.0047884034,1442850,-1667,-327,-1755,8727
30172116,4042,0,-0.6936551,1.0415151,-9.639859,0.036783062,0.0036441379,-0.032258052,59.155125,156.9064,0.0047884034,1442850,-1843,389,275,8720
30272093,4018,0,-1.0379466,-0.2158665,-8.241652,-0.005340668,0.0044543114,-0.045235123,59.168976,156.9064,0.0047884034,1442850,-1288,-45,-3326,8725
30376074,3974,0,-1.951057,-0.26323667,-8.532365,-0.01738469,0.0057926085,-0.05746413,59.177284,156.9064,0.0047884034,1442850,-1371,-1011,-2714,8728
30476074,4000,0,-0.54598343,0.29178926,-8.817604,-0.039457873,-0.00028126966,-0.033011835,59.191135,156.9064,0.0047884034,1442850,1150,-1050,-457,8733
30576087,4012,0,1.2886138,0.9019651,-9.817186,-0.0081262505,-0.0031858531,-0.057822205,59.163433,156.9064,0.0047884034,1442850,2716,-122,-1005,8723
30680074,3993,0,0.28303337,0.08194159,-10.050494,-0.014713782,0.003067485,-0.025499482,59.180054,156.9064,0.0047884034,1442850,1834,721,-1362,8729
30780074,3976,0,-0.47884983,-0.98859656,-9.128265,0.018740091,0.0031321454,-0.049305044,59.171745,156.9064,0.0047884034,1442850,-500,-984,-2680,8726
30884107,4033,0,0.2392527,-0.13196555,-8.652983,0.026406197,-0.007131563,-0.028187912,59.171745,156.9064,0.0047884034,1442850,-139,-513,-2305,8726
30984057,4007,0,-0.27875882,1.5365965,-9.607924,0.040999003,0.0005386586,-0.041343838,59.166203,156.9064,0.0047884034,1442850,-1655,-86,-1605,8724
31084050,3992,0,-0.62557346,0.5530084,-9.020116,0.041758038,-0.006878188,-0.067476615,59.160664,156.9064,0.0047884034,1442850,-2024,-571,-3775,8722
31188051,3999,0,0.69755936,-0.6788344,-8.909199,0.024954699,0.0013838896,-0.06237115,59.180054,156.9064,0.0047884034,1442850,663,-356,-4891,8729
31288072,4021,0,-0.16718271,0.5024147,-8.574113,0.03822685,-0.0031306602,-0.027780158,59.182823,156.9064,0.0047884034,1442850,-702,506,-3464,8730
31388101,4020,0,-0.8503199,-0.12637231,-8.01621,-0.0116161,0.0053637377,-0.04534603,59.174515,156.9064,0.0047884034,1442850,-637,-108,-4666,8727
31492096,4022,0,-0.8388056,0.86296487,-9.721067,-0.008700181,-0.0085718185,-0.029864611,59.185596,156.9064,0.0047884034,1442850,-896,42,-2286,8731
31592074,3986,0,-1.0490602,0.5025419,-9.942627,-0.010829283,-0.0014005874,-0.05071228,59.149582,156.9064,0.0047884034,1442850,-1289,252,-1975,8718
31696074,4000,0,-0.27823538,-0.20730068,-10.132336,0.030429244,0.006537695,-0.041420326,59.207756,156.9064,0.0047884034,1442850,-1784,534,-1098,8739
31800082,3988,0,0.27530012,0.7143372,-9.4791565,0.024173092,-0.0036266115,-0.029395616,59.180054,156.9064,0.0047884034,1442850,-318,-459,596,8729
31900091,4003,0,-0.06105484,0.70442307,-9.391891,0.03501474,-0.006664918,-0.07305252,59.168976,156.9064,0.0047884034,1442850,-954,-5,-2532,8725
32004088,4006,0,1.3670224,-0.19124348,-9.417519,-0.0041316114,0.0066400585,-0.042268325,59.188366,156.9064,0.0047884034,1442850,2338,278,-1143,8732
32104131,4049,0,0.7576616,-0.33452538,-9.216023,0.019391414,0.0035542862,-0.022157254,59.174515,156.9064,0.0047884034,1442850,834,-1322,-1053,8727
32204088,4006,0,-0.039356083,0.2818565,-9.696904,0.020197,0.0012600436,-0.054500148,59.157894,156.9064,0.0047884034,1442850,-87,-388,-795,8721
32304105,4023,0,-0.6214583,1.0236012,-9.787385,0.036251213,-0.011138686,-0.027980465,59.182823,156.9064,0.0047884034,1442850,-1415,1082,-2660,8730
32408877,3964,0,2.0389163,-0.2016961,-10.453205,0.0053024753,0.008772878,-0.037874047,59.188366,156.9064,0.0047884034,1442850,2318,-136,1245,8732
32512854,4003,0,-0.9962825,0.26404083,-10.413423,-0.012857623,0.008803561,-0.060034964,59.157894,156.9064,0.0047884034,1442850,-1170,-727,-1141,8721
32612851,3994,0,-0.7921289,1.2503093,-9.844618,0.036250018,0.006282051,-0.046254348,59.191135,156.9064,0.0047884034,1442850,-1758,347,-3644,8733
32716864,4013,0,0.34508252,0.33148983,-10.023053,-0.030102696,0.0020592243,-0.07536593,59.191135,156.9064,0.0047884034,1442850,1127,-314,-2533,8733
32816851,4001,0,-1.2727559,-0.6639009,-9.592893,-0.010870906,-0.0016937288,-0.05534986,59.168976,156.9064,0.0047884034,1442850,-1592,-538,-3680,8725
32920851,3963,0,0.6170098,0.044502087,-10.171735,0.011505943,0.009262549,-0.06239734,59.204987,156.9064,0.0047884034,1442850,1285,-312,-3787,8738
33024874,3984,0,0.4404176,1.323506,-10.7514715,-0.00012198393,0.002703085,-0.049867406,59.168976,156.9064,0.0047884034,1442850,697,509,-3506,8725
33124892,4018,0,-0.23026302,0.68130136,-10.572112,0.006571085,-0.0025497403,-0.008707213,59.235455,156.9064,0.0047884034,1442850,-458,125,-100,8749
33228874,3994,0,0.4307731,-0.5397417,-11.819339,0.0037929693,0.0047636176,-0.007718172,59.177284,156.9064,0.0047884034,1442850,716,-542,1164,8728
33328874,4000,0,-1.164712,-0.07976994,-10.888562,0.009926463,0.004115535,-0.029161654,59.210526,156.9064,0.0047884034,1442850,-1600,413,-1978,8740
33428881,4007,0,-0.08382343,0.14316063,-10.4636,-0.024712322,-0.0016501234,-0.021939676,59.191135,156.9064,0.0047884034,1442850,1626,-852,-1616,8733
33532880,3988,0,0.15325963,0.84642696,-11.358527,0.0015221263,0.003573037,-0.044893086,59.180054,156.9064,0.0047884034,1442850,330,-155,-1576,8729
33632874,4000,0,0.06704988,0.21144018,-11.391003,-0.012043485,-0.018101027,-0.06879586,59.229916,156.9064,0.0047884034,1442850,314,1314,-3011,8747
33732875,4001,0,0.77534986,-1.4107186,-10.727573,-0.004516354,-0.0013956395,-0.0060412996,59.204987,156.9064,0.0047884034,1442850,1562,-945,-975,8738
34524888,4038,0,1.4095708,0.90610343,-8.5159025,-0.010922777,0.002597209,-0.014760956,59.141273,156.9064,0.0047884034,1442850,2755,982,-774,8715
34628851,4000,0,0.35105082,0.7758498,-8.532734,0.0187963,-0.016655903,-0.002520523,59.155125,156.9064,0.0047884034,1442850,200,363,-137,8720
34728850,3999,0,-1.6211693,-0.38904586,-9.07624,0.0144748315,-0.0074454714,-0.03240415,59.138504,156.9064,0.0047884034,1442850,-2227,-255,-1171,8714
34828850,4000,0,0.01085429,-0.6661483,-7.697808,-0.02751957,-0.008943833,-0.06653391,59.168976,156.9064,0.0047884034,1442850,700,81,-6043,8725
34932901,4050,0,-1.3705397,0.36445466,-10.430974,-0.0034366157,0.007013264,-0.034554016,59.188366,156.9064,0.0047884034,1442850,-1026,-650,346,8732
35032880,3974,0,-0.86545694,0.7323218,-10.080257,0.022746064,0.013407813,-0.052121542,59.171745,156.9064,0.0047884034,1442850,-1076,-584,-2166,8726
35132874,4000,0,0.28933698,1.057652,-9.584523,0.0073758895,-0.0018948119,-0.0071509085,59.188366,156.9064,0.0047884034,1442850,86,152,-827,8732
35236886,4012,0,0.4600976,-0.47490975,-10.369032,0.0062374864,0.002631445,-0.027255181,59.191135,156.9064,0.0047884034,1442850,839,-687,-2994,8733
35337687,4012,0,-1.0294454,-0.55179656,-11.329558,0.00701485,0.0056342715,-0.059271608,59.202217,156.9064,0.0047884034,1442850,-1116,-640,-3066,8737
35437674,3999,0,-0.46055737,0.39464307,-10.377156,-0.00074347726,-0.0066749724,-0.09493008,59.185596,156.9064,0.0047884034,1442850,-247,199,-4655,8731
35541675,3974,0,0.21606997,1.6035045,-11.725212,-0.006265162,-0.014138117,-0.06005055,59.163433,156.9064,0.0047884034,1442850,683,981,-1800,8723
35641682,4008,0,0.11577597,1.8982333,-11.082807,0.020127926,-0.010383436,-0.044131786,59.185596,156.9064,0.0047884034,1442850,-707,1304,-1240,8731
35745703,4029,0,0.37457025,-0.75939864,-11.42787,0.01989311,-0.0017047336,-0.072814584,59.185596,156.9064,0.0047884034,1442850,-12,36,-2959,8731
35849674,3997,0,0.21460252,-0.78610665,-10.905738,0.009452809,0.0016605884,-0.002104667,59.191135,156.9064,0.0047884034,1442850,850,-956,838,8733
35949674,4000,0,-0.75154346,0.90987825,-11.220739,-0.002734962,-0.0030663526,-0.039285354,59.188366,156.9064,0.0047884034,1442850,-339,-369,-868,8732
36049674,3964,0,-0.14623111,2.0728538,-10.036215,0.009498157,0.008245855,-0.035489865,59.213295,156.9064,0.0047884034,1442850,-464,180,-1554,8741
36153652,3996,0,0.06877093,-0.06380209,-9.108856,-0.030602556,-0.004430115,-0.046323016,59.202217,156.9064,0.0047884034,1442850,566,-772,-2629,8737
36253676,4019,0,-0.14610584,-0.9825803,-10.949899,0.0033811736,-0.008659616,-0.013671209,59.185596,156.9064,0.0047884034,1442850,90,-208,-885,8731
36357657,4007,0,-1.2118422,-0.09839578,-10.129944,-0.02263772,0.010259755,-0.031474277,59.210526,156.9064,0.0047884034,1442850,-383,-542,-943,8740
36457657,4007,0,-0.49042824,0.8347758,-9.6153555,-0.031072179,0.00973021,-0.009045001,59.199444,156.9064,0.0047884034,1442850,853,547,-210,8736
36557686,4012,0,-0.1863139,0.87097377,-8.995222,-0.030913303,0.013468744,-0.043587215,59.182823,156.9064,0.0047884034,1442850,760,-1544,-1899,8730
36661674,3949,0,-0.1640163,0.28164285,-10.606457,-0.00041978364,-0.00771904,-0.032883503,59.174515,156.9064,0.0047884034,1442850,421,73,210,8727
36761674,4000,0,0.4761637,-0.47631338,-8.460628,-0.027937511,0.008837546,-0.041902006,59.232685,156.9064,0.0047884034,1442850,2150,-637,-3783,8748
36865674,3997,0,-0.9992919,0.25349528,-9.447865,0.004983751,-0.0030656508,-0.033511706,59.218838,156.9064,0.0047884034,1442850,-314,-14,-2067,8743
36969689,3988,0,-0.6645939,0.9100137,-9.068397,0.013932182,-0.002107001,-0.034893192,59.207756,156.9064,0.0047884034,1442850,-1429,293,-2566,8739
37069729,4055,0,0.19404744,-0.15486985,-10.593919,0.01566391,-0.011041526,-0.052987274,59.188366,156.9064,0.0047884034,1442850,-171,1195,-1466,8732
37169700,4026,0,-0.40446812,-0.58465797,-10.564124,-0.00092325313,0.0047470154,-0.04308956,59.177284,156.9064,0.0047884034,1442850,559,-643,-347,8728
37273707,4017,0,-0.25819138,0.61669904,-10.098294,0.029633746,-0.010007288,-0.03182313,59.210526,156.9064,0.0047884034,1442850,-987,-152,-1357,8740
37373681,4001,0,-0.9792504,0.77260756,-9.651018,-0.027395865,0.0051542157,-0.038621146,59.185596,156.9064,0.0047884034,1442850,-188,-791,-3364,8731
37477674,3994,0,0.57985306,-0.998852,-10.510489,-0.0043056975,-0.0050205607,-0.028145947,59.196674,156.9064,0.0047884034,1442850,911,-416,-1950,8735
37577681,3993,0,1.78827,-0.4318537,-10.743401,-0.021444218,-0.010386802,-0.018707449,59.185596,156.9064,0.0047884034,1442850,3159,871,-989,8731
37678451,3950,0,-1.3185025,0.08866202,-8.951959,-0.0024677874,0.007150555,-0.018653052,59.199444,156.9064,0.0047884034,1442850,-1692,556,-3976,8736
37782459,4008,0,0.044577777,1.2411824,-10.33155,-0.03457312,0.00245662,-0.05615925,59.180054,156.9064,0.0047884034,1442850,2097,56,-20,8729
37882465,4014,0,-0.5313325,1.4381269,-10.554782,-0.024161426,0.0062522804,-0.027327724,59.210526,156.9064,0.0047884034,1442850,445,825,-261,8740
37982451,3993,0,0.44303015,0.47312385,-9.894026,-0.019189259,0.002330486,-0.026394725,59.185596,156.9064,0.0047884034,1442850,1533,1287,-2571,8731
38086474,3993,0,-1.0350571,-0.6886358,-9.798149,0.008791063,-0.002839183,-0.032762595,59.213295,156.9064,0.0047884034,1442850,-1916,-51,-1409,8741
38186474,3988,0,-0.1210348,0.8935121,-10.034785,-0.011938883,0.0030418064,-0.046574444,59.191135,156.9064,0.0047884034,1442850,340,710,-1976,8733
38286516,4036,0,-0.31609386,1.1385505,-9.89409,0.0022032538,-0.0026944336,-0.037527293,59.246536,156.9064,0.0047884034,1442850,-407,-495,-2189,8753
38390480,4006,0,0.8188069,0.5453686,-8.796531,-0.015128819,-0.0010117276,-0.051183842,59.191135,156.9064,0.0047884034,1442850,2079,-192,-5343,8733
38490475,3994,0,-0.12953265,-0.5194756,-9.87014,-0.032791335,0.00049153145,-0.040515363,59.177284,156.9064,0.0047884034,1442850,1021,-284,-1172,8728
38594489,4015,0,-0.21347389,-0.55347204,-9.937729,0.011302709,0.00236152,-0.065169424,59.188366,156.9064,0.0047884034,1442850,-309,544,-2050,8732
38698481,4007,0,0.9199601,0.71156514,-10.088353,-0.0051982305,-0.001004244,-0.014271161,59.229916,156.9064,0.0047884034,1442850,2109,-500,-173,8747
38798481,4007,0,0.39704743,0.8229748,-10.381059,-0.03180535,-0.011114538,-0.026593909,59.196674,156.9064,0.0047884034,1442850,2414,-584,-1128,8735
38902482,3991,0,-0.46206272,-0.49023876,-9.584748,-0.012445431,-0.002257189,-0.072216846,59.180054,156.9064,0.0047884034,1442850,-389,-313,-3927,8729
39002474,3973,0,-1.9827594,-1.0545868,-9.602878,0.021556811,0.0038623554,-0.042172443,59.199444,156.9064,0.0047884034,1442850,-2670,-66,-2783,8736
39102502,4020,0,-0.61015314,-0.4609425,-8.878725,0.018476205,0.0007029826,-0.05906543,59.199444,156.9064,0.0047884034,1442850,-402,-180,-5862,8736
39206475,4001,0,0.13164535,0.9557297,-10.054584,0.0075739035,0.011063673,-0.043399725,59.188366,156.9064,0.0047884034,1442850,726,-841,-1778,8732
39306474,3950,0,0.96938026,0.53872997,-9.911482,-0.013541221,0.0053325575,-0.062205717,59.199444,156.9064,0.0047884034,1442850,2306,-359,-2054,8736
39406483,4002,0,0.80579454,-0.7547367,-9.611699,-0.019007685,-0.002474831,-0.02277287,59.221607,156.9064,0.0047884034,1442850,1821,-237,-3023,8744
39510474,4000,0,-0.92765415,-0.81080824,-10.111923,-0.024332946,0.006263097,-0.08098477,59.204987,156.9064,0.0047884034,1442850,156,-416,-3474,8738
39610457,3955,0,-2.0519829,-0.09497789,-9.140945,-0.0010498455,0.011641704,-0.06088672,59.204987,156.9064,0.0047884034,1442850,-2200,-650,-1847,8738
39714458,4001,0,0.43904153,0.75424665,-8.708463,0.04147643,0.0017044904,-0.075121135,59.218838,156.9064,0.0047884034,1442850,-928,123,-4530,8743
39818457,3988,0,0.27880776,-0.44346938,-9.863252,0.023419375,0.0014009883,-0.056210756,59.210526,156.9064,0.0047884034,1442850,35,63,-1443,8740
39918457,3981,0,-0.75287086,-0.7993209,-9.479516,0.026035108,-0.0026238663,-0.028869994,59.249306,156.9064,0.0047884034,1442850,-1869,176,-633,8754
40022500,4026,0,0.700268,0.1616616,-9.771233,-0.0032405462,0.011041596,-0.062236153,59.243767,156.9064,0.0047884034,1442850,1536,-1175,-1693,8752
40122474,4000,0,-0.41736016,1.0753969,-9.854297,0.032770358,0.00617815,-0.054160878,59.27424,156.9064,0.0047884034,1442850,-1579,-360,-4395,8763
40222474,3986,0,0.69800717,0.6939378,-9.334097,0.03446732,-0.005775054,-0.0703682,59.221607,156.9064,0.0047884034,1442850,-333,-84,-3978,8744
40326480,4006,0,0.8188368,-0.7039841,-10.755361,-0.014232698,-0.0013640663,-0.046432287,59.260387,156.9064,0.0047884034,1442850,1316,51,79,8758
40426547,4066,0,1.3226844,-0.46107465,-10.063366,-0.020093087,0.0030537487,-0.026885627,59.27147,156.9064,0.0047884034,1442850,2596,859,-1547,8762
40527346,4064,0,-1.0093175,0.6092307,-10.712153,-0.028342124,0.009014308,-0.011931314,59.252075,156.9064,0.0047884034,1442850,839,324,1261,8755
40631305,4023,0,-1.0703397,1.3425614,-9.060635,-0.010996889,-0.0040856474,-0.06343769,59.246536,156.9064,0.0047884034,1442850,-1375,-99,-3130,8753
40731289,4007,0,-1.7132887,0.7413891,-8.75777,0.006942488,-0.003637277,-0.040099964,59.224377,156.9064,0.0047884034,1442850,-2482,778,-3304,8745
40831288,4000,0,-0.5369092,-0.5410575,-8.810457,0.008695001,0.0050345077,-0.057746284,59.252075,156.9064,0.0047884034,1442850,-836,7,-6282,8755
40935282,3979,0,0.36605263,-0.4598331,-10.589291,0.025809478,0.0019739524,-0.008900075,59.227146,156.9064,0.0047884034,1442850,106,-437,-674,8746
41035282,3973,0,0.54686975,-0.017818725,-10.04557,0.012328658,0.0044627544,-0.03812034,59.268696,156.9064,0.0047884034,1442850,1556,-325,-1498,8761
41135306,4056,0,0.34150067,1.1298168,-10.388124,0.007058965,-0.00015989857,-0.02257368,59.232685,156.9064,0.0047884034,1442850,722,78,-17,8748
41239289,4039,0,-0.4178935,0.13363592,-9.68916,-0.03445318,-0.0001740749,-0.068321705,59.246536,156.9064,0.0047884034,1442850,646,-469,-2918,8753
41339250,3992,0,-0.29323238,-0.65274584,-10.17287,-0.014807341,0.001789404,-0.04857777,59.263157,156.9064,0.0047884034,1442850,76,-13,-1348,8759
41443258,4008,0,-1.7566102,0.15719415,-9.87189,0.015144489,0.000410481,-0.029861685,59.246536,156.9064,0.0047884034,1442850,-2278,492,-540,8753
41543291,4017,0,-0.29254818,1.0900115,-8.651932,0.023563903,0.008156187,-0.040241353,59.29363,156.9064,0.0047884034,1442850,-507,48,-5167,8770
41643280,3985,0,-0.89619404,1.3056312,-9.992835,0.018531866,0.007326885,-0.07389073,59.285316,156.9064,0.0047884034,1442850,-1489,-602,-3647,8767
41747274,3987,0,1.0499518,-0.30014026,-10.539307,-0.019313775,-0.0063863746,-0.03867016,59.25485,156.9064,0.0047884034,1442850,2039,-896,-761,8756
41847296,4022,0,0.70859003,-0.814775,-9.418215,0.0097681,-0.006064883,-0.042557046,59.263157,156.9064,0.0047884034,1442850,1505,316,-2730,8759
41947280,4006,0,0.14815901,-0.67433274,-10.05393,0.025602963,0.010284121,-0.04436075,59.238228,156.9064,0.0047884034,1442850,80,-467,-2550,8750
42051306,4025,0,0.030831382,1.051637,-9.450956,-0.023389248,0.018022224,-0.004834013,59.285316,156.9064,0.0047884034,1442850,952,-115,-2203,8767
42151274,4000,0,0.1474643,1.3288872,-9.766155,-0.03066879,-0.0020292746,-0.061520662,59.257618,156.9064,0.0047884034,1442850,2120,-581,-3307,8757
42255274,4000,0,-1.1723377,-0.06387036,-9.439201,-0.01691689,-0.012656176,-0.03403415,59.27424,156.9064,0.0047884034,1442850,-1191,443,-4058,8763
42355274,3991,0,-0.45371786,-0.89185387,-9.28484,-0.035472117,-0.0022545315,-0.064565055,59.29086,156.9064,0.0047884034,1442850,1152,63,-3963,8769
42455274,4000,0,0.20667805,-0.6891461,-10.828906,-0.022039514,0.014783579,-0.024016699,59.263157,156.9064,0.0047884034,1442850,1721,-36,1016,8759
42559310,4030,0,-0.89510196,0.44397613,-9.308112,-0.014983843,0.016470663,-0.026226336,59.265926,156.9064,0.0047884034,1442850,-600,-780,-2552,8760
42659274,3993,0,0.33247098,1.4574966,-9.932955,-0.03607133,0.006595068,-0.050065488,59.285316,156.9064,0.0047884034,1442850,1961,-790,-2542,8767
42759274,3993,0,1.0903121,1.6002401,-10.825941,-0.031095944,-0.006018983,-0.038470693,59.27147,156.9064,0.0047884034,1442850,2451,657,-449,8762
42863300,4026,0,-0.59643924,-0.5749266,-9.240481,-0.036459714,-0.006857763,-0.06071332,59.31579,156.9064,0.0047884034,1442850,869,603,-4046,8778
42963317,4043,0,0.6310759,-0.83294934,-10.139502,-0.017905723,0.009304626,-0.042645127,59.27147,156.9064,0.0047884034,1442850,1759,-95,-1946,8762
43064118,4044,0,0.17372797,-0.23156404,-11.112904,0.010069571,0.0059502805,-0.057861496,59.29363,156.9064,0.0047884034,1442850,1241,-886,1478,8770
43168123,4049,0,-0.14130422,1.3112426,-9.853413,-0.032966863,0.001312016,-0.03892508,59.265926,156.9064,0.0047884034,1442850,1016,-817,-280,8760
43268081,4007,0,1.3830769,0.9078092,-9.581662,-0.0057306127,-0.001074392,-0.03693742,59.285316,156.9064,0.0047884034,1442850,1979,-396,-2984,8767
43372082,3994,0,-0.31744897,-0.74290335,-10.251121,-0.025379721,-0.002982079,-0.02499614,59.318558,156.9064,0.0047884034,1442850,240,-161,-1885,8779
43476082,4000,0,-1.4917046,-0.14005367,-9.348832,0.006892214,0.0076928725,-0.04499568,59.29363,156.9064,0.0047884034,1442850,-2039,-563,-2097,8770
43576099,3999,0,-0.9585521,0.9128971,-9.168126,-0.01662486,0.005970617,-0.06581881,59.32964,156.9064,0.0047884034,1442850,-960,-1064,-4824,8783
43680082,4000,0,0.19063105,1.2242496,-10.367744,0.04164783,-0.0045266533,-0.03851677,59.32964,156.9064,0.0047884034,1442850,-710,1123,-2507,8783
43780123,4035,0,-0.9051845,0.23367952,-10.679574,0.028283358,-0.0062334836,-0.029130122,59.29086,156.9064,0.0047884034,1442850,-1779,587,-2489,8769
43880082,4000,0,-0.991782,-0.8161728,-9.880014,-0.0038392185,-0.007197986,-0.042815607,59.304707,156.9064,0.0047884034,1442850,-1057,48,-2714,8774
43984090,4008,0,-0.09272313,0.09743505,-9.6481285,0.027320601,0.015137619,-0.053064384,59.31025,156.9064,0.0047884034,1442850,239,-1032,-3260,8776
44084088,3984,0,-1.3740261,1.2354068,-10.337328,0.018329294,0.012068694,-0.071263604,59.33241,156.9064,0.0047884034,1442850,-2408,-721,-762,8784
44184082,4000,0,-1.43477,0.9971342,-9.582067,-0.014554411,-0.0034864803,-0.056088507,59.321327,156.9064,0.0047884034,1442850,-998,-566,-2308,8780
44288082,3993,0,-1.3285284,-0.62978834,-10.374525,-0.0076300455,-0.0061821444,-0.036786217,59.337948,156.9064,0.0047884034,1442850,-1731,91,-797,8786
44388082,4000,0,0.36041853,-0.6871188,-9.520098,-0.038536593,-0.012319349,-0.048266083,59.301937,156.9064,0.0047884034,1442850,1580,230,-3720,8773
44492102,4052,0,-1.1022146,0.36821342,-9.260987,0.019354943,0.012221987,-0.061905816,59.304707,156.9064,0.0047884034,1442850,-1849,-1029,-2343,8774
44592077,4020,0,-0.9683415,1.221839,-9.441345,-0.01137564,0.007015206,-0.08199283,59.32687,156.9064,0.0047884034,1442850,-978,-1396,-3436,8782
44692050,3993,0,-1.2269664,0.4885943,-9.642947,-0.01081668,-0.006863568,-0.047264718,59.34072,156.9064,0.0047884034,1442850,-1184,376,-1739,8787
44796057,4007,0,-1.6561301,-1.0790346,-10.513547,0.0066281846,-0.0030726467,-0.033488244,59.31579,156.9064,0.0047884034,1442850,-2194,311,-1665,8778
44900074,3993,0,-1.380668,-0.79304355,-9.933673,0.020125639,0.009664623,-0.030744683,59.299168,156.9064,0.0047884034,1442850,-1153,-757,-2476,8772
45000081,3972,0,-1.4212377,0.8198986,-9.3475275,0.023591682,0.0028629033,-0.02508795,59.268696,156.9064,0.0047884034,1442850,-2383,-339,-1036,8761
45104080,3974,0,-0.22580981,0.69068,-9.332546,0.03311976,-0.004028339,-0.044069774,59.301937,156.9064,0.0047884034,1442850,-1130,-335,-3864,8773
45204092,4018,0,-1.6574204,0.010647053,-9.47589,0.0077164844,-0.013432841,-0.03546837,59.31579,156.9064,0.0047884034,1442850,-2675,74,-1452,8778
45304081,4006,0,-0.2718595,-0.4920433,-9.232298,-0.0271901,-0.007431796,-0.023475632,59.2964,156.9064,0.0047884034,1442850,534,202,-2128,8771
45408074,4000,0,-1.271391,0.35440782,-9.710979,-0.014635662,0.0034424881,-0.054961957,59.34626,156.9064,0.0047884034,1442850,-930,-615,-1299,8789
45508075,4001,0,0.27114633,1.3421752,-10.415486,-0.030121036,0.014268238,-0.03581025,59.31025,156.9064,0.0047884034,1442850,1884,-410,-701,8776
45612075,3956,0,0.086543426,0.28105336,-10.322468,-0.034254607,-0.0035132072,-0.007680537,59.31302,156.9064,0.0047884034,1442850,1394,550,-1514,8777
45716074,3959,0,0.16492988,-0.8345139,-9.813394,-0.03297346,0.0046283053,-0.046790607,59.29086,156.9064,0.0047884034,1442850,1451,-371,-2606,8769
45816119,4045,0,-0.67057407,-0.27981722,-10.075406,0.03297589,0.0192601,-0.057794034,59.30748,156.9064,0.0047884034,1442850,-1520,-581,-2071,8775
45920089,4008,0,-1.9008538,1.141807,-9.819185,0.018042415,0.010001347,-0.02081629,59.33241,156.9064,0.0047884034,1442850,-3057,-328,-669,8784
46020880,4029,0,-0.1693925,0.42718884,-9.788161,-0.035362482,0.00097379833,-0.06060303,59.318558,156.9064,0.0047884034,1442850,204,-713,-2070,8779
46124881,4030,0,0.20465547,-1.3229668,-10.8963175,-0.044491105,-0.001483691,-0.020861153,59.3241,156.9064,0.0047884034,1442850,2066,-401,924,8781
46224851,4000,0,-0.802974,-1.2369093,-9.305492,0.024088021,-0.0004394779,-0.032415975,59.28809,156.9064,0.0047884034,1442850,-1829,-185,-1497,8768
46328851,3977,0,-2.3012958,1.3092207,-10.003491,0.010941803,0.0038998192,-0.020062331,59.29363,156.9064,0.0047884034,1442850,-3243,388,-905,8770
46428884,4010,0,0.9263317,1.1761758,-9.767742,-0.018031191,-0.0030154334,-0.022103887,59.27147,156.9064,0.0047884034,1442850,2194,-320,-2241,8762
46528874,3962,0,-0.9622633,0.80061805,-9.387833,0.02237916,0.0042551234,-0.055664252,59.304707,156.9064,0.0047884034,1442850,-1939,-64,-4750,8774
46632884,3982,0,-0.8337078,-0.71509254,-9.862968,-0.029333869,-0.0027252464,-0.022151215,59.279778,156.9064,0.0047884034,1442850,-78,-320,-1960,8765
46732882,3989,0,-0.7835958,-0.9469339,-9.107311,0.03572438,0.005298649,-0.053334557,59.299168,156.9064,0.0047884034,1442850,-920,-704,-3474,8772
46836882,3977,0,-1.1725518,1.9274983,-9.555142,0.02387996,0.0042424495,-0.039295245,59.2964,156.9064,0.0047884034,1442850,-1364,168,-3183,8771
46940882,4000,0,-0.4899958,0.8663993,-10.706645,-0.026181474,0.0019605379,-0.04677442,59.29086,156.9064,0.0047884034,1442850,-853,-227,-1640,8769
47040920,4032,0,1.4123199,0.034226775,-9.981505,0.0039638123,-0.016829032,-0.032000735,59.304707,156.9064,0.0047884034,1442850,1790,692,-3342,8774
47144889,4008,0,-0.590088,-0.5472564,-10.4637575,0.03551256,0.0063391356,-0.048328426,59.29086,156.9064,0.0047884034,1442850,-1904,138,-457,8769
47244888,4006,0,0.6157215,0.1499817,-9.637514,-0.04414496,-0.00047386874,-0.014326645,59.277008,156.9064,0.0047884034,1442850,3292,32,-2170,8764
47344892,4002,0,-0.95465106,1.5393469,-9.267926,0.032611176,0.005412954,-0.025032863,59.25485,156.9064,0.0047884034,1442850,-1838,323,-1806,8756
47448913,4019,0,-0.78170204,0.33151937,-10.633271,0.01870419,-0.006494812,-0.0644079,59.27147,156.9064,0.0047884034,1442850,-2121,240,-619,8762
48460901,4000,0,0.6460081,0.5775451,-9.876171,0.024231818,-0.016054828,-0.020046977,59.33241,156.9064,0.0047884034,1442850,-329,1024,-1925,8784
48564880,3978,0,1.1627835,-0.9787891,-10.261849,0.012768077,0.0021696892,-0.06341867,59.31302,156.9064,0.0047884034,1442850,761,-133,-2248,8777
48664874,4000,0,-1.0096221,-0.46773398,-9.437195,0.030161079,0.006682136,-0.052652277,59.3241,156.9064,0.0047884034,1442850,-2458,-323,-2853,8781
48768874,3999,0,-0.5328111,2.2797146,-10.134785,0.03491221,-0.0015951819,-0.008715707,59.36842,156.9064,0.0047884034,1442850,-1166,883,-539,8797
48868874,3998,0,-0.6976068,1.4875327,-10.053004,0.010677019,0.0072535733,-0.02933815,59.3518,156.9064,0.0047884034,1442850,-1280,-154,-2538,8791
48969675,3984,0,-0.68185896,0.50526243,-9.786583,-0.042922955,-0.0068760095,-0.027960341,59.34072,156.9064,0.0047884034,1442850,177,121,-2636,8787
49069681,4006,0,0.7022225,-0.7844226,-10.127268,-0.017880734,-0.014388146,-0.0288073,59.36011,156.9064,0.0047884034,1442850,1929,115,-1124,8794
49173723,4048,0,0.43372184,-1.0927886,-9.655902,-0.041756976,0.010556495,-0.04706628,59.35734,156.9064,0.0047884034,1442850,2516,-1758,-2587,8793
49273651,3987,0,1.0555438,0.0825029,-8.985056,0.005035002,0.0023027307,-0.03272015,59.396122,156.9064,0.0047884034,1442850,2095,31,-3343,8807
49377657,4006,0,1.0244979,1.484992,-9.490243,-0.020310715,0.0019655903,-0.04299908,59.3518,156.9064,0.0047884034,1442850,2541,395,-3460,8791
49477681,4031,0,0.31051785,0.43366492,-10.244457,0.024091426,-0.0043034116,-0.05501762,59.35734,156.9064,0.0047884034,1442850,-613,92,-1576,8793
49577651,3992,0,-0.6710225,-0.34177315,-9.325785,0.026891094,0.0019640573,-0.060972255,59.3795,156.9064,0.0047884034,1442850,-2206,-492,-4597,8801
49681673,3999,0,-2.0034602,-0.081159405,-10.393493,0.025311027,0.0028175404,-0.038530745,59.41828,156.9064,0.0047884034,1442850,-2152,637,-405,8815
49781681,4007,0,-1.0110519,0.62598,-10.142936,-0.02197386,0.014787598,-0.054733604,59.38781,156.9064,0.0047884034,1442850,-449,-329,-2142,8804
49885674,3999,0,-0.89426666,1.4150708,-9.779835,0.018018713,0.0004882815,-0.033539362,59.3795,156.9064,0.0047884034,1442850,-1523,589,-2377,8801
49989682,3973,0,-0.31200463,-0.18410005,-9.827616,0.02959997,-0.0056685456,-0.024500595,59.40166,156.9064,0.0047884034,1442850,-1742,396,-263,8809
50089697,4015,0,-1.0494295,-0.7191076,-10.3822365,-0.018442864,0.0029902835,-0.036654167,59.38504,156.9064,0.0047884034,1442850,-785,-656,-1239,8803
50193682,3994,0,-0.9061319,0.937579,-8.647762,0.012681469,0.002446217,-0.030528858,59.373962,156.9064,0.0047884034,1442850,-1857,525,-3162,8799
50293735,4045,0,-0.7219966,1.1353085,-9.817273,-0.03335846,0.0067606242,-0.0146063045,59.409973,156.9064,0.0047884034,1442850,113,-276,-684,8812
50393682,3985,0,0.28855607,0.93639153,-10.098286,-0.044919543,-0.01052914,-0.02373762,59.373962,156.9064,0.0047884034,1442850,2143,224,-2188,8799
50497688,3964,0,-1.047478,-1.2725401,-9.059114,-0.030245624,-0.0061410414,-0.0603397,59.38504,156.9064,0.0047884034,1442850,-106,-374,-4351,8803
50597688,3978,0,-0.7598962,-0.519011,-9.348753,-0.033467636,0.002020239,-0.01849031,59.396122,156.9064,0.0047884034,1442850,304,36,-2381,8807
50697682,4000,0,0.9637162,0.044435777,-8.763993,-0.010007997,7.963274e-06,-0.03505704,59.393353,156.9064,0.0047884034,1442850,2549,-122,-3102,8806
50801682,4001,0,0.57884365,0.8415895,-8.983302,-0.013353208,-0.0005202608,-0.03549519,59.39889,156.9064,0.0047884034,1442850,1295,56,-3242,8808
50901682,4000,0,1.8012218,0.19806074,-10.015713,-0.011914881,-0.011426751,-0.038491115,59.412743,156.9064,0.0047884034,1442850,2598,51,-915,8813
51005682,4000,0,0.40063804,-0.9053104,-8.732928,-0.031335276,0.0044566775,-0.03314881,59.426594,156.9064,0.0047884034,1442850,1939,-4,-3228,8818
51105675,4024,0,0.011842292,-0.36422884,-9.705128,-0.02672844,0.0114346165,-0.03177475,59.42105,156.9064,0.0047884034,1442850,1732,-1096,228,8816
51205650,3993,0,0.43832546,0.49066055,-10.021931,0.015524092,0.0024456838,-0.011881926,59.409973,156.9064,0.0047884034,1442850,1026,-686,-1439,8812
51309651,4000,0,-0.30982822,0.6737179,-9.784856,-0.03980513,0.0052618487,-0.018919855,59.432133,156.9064,0.0047884034,1442850,1199,-59,-1215,8820
51409657,3977,0,0.9436873,0.08508397,-9.917746,-0.036695175,-0.0016892564,-0.012455325,59.41828,156.9064,0.0047884034,1442850,2645,469,-2854,8815
51509722,4048,0,0.7231668,-0.9943043,-10.983188,-0.025071751,-0.00044250273,-0.009315342,59.42382,156.9064,0.0047884034,1442850,1801,174,1063,8817
51613680,4006,0,-0.3141009,-0.5049559,-9.518942,-0.031808563,0.016464664,-0.009741355,59.393353,156.9064,0.0047884034,1442850,507,-883,-2213,8806
51713674,4000,0,0.83731085,0.5160358,-9.459818,-0.023424268,0.014162494,-0.011837486,59.38781,156.9064,0.0047884034,1442850,2415,-561,-788,8804
51813682,4008,0,0.5191594,0.9551533,-10.642865,-0.019055106,0.004692878,-0.021501232,59.40443,156.9064,0.0047884034,1442850,1862,-575,-346,8810
51918475,4000,0,-0.17584029,-0.03892309,-9.60226,-0.019274358,0.0032524844,-0.014260245,59.38227,156.9064,0.0047884034,1442850,-250,14,-3032,8802
52022475,3986,0,-0.9872639,-0.9048888,-9.714321,0.020145144,0.0014279967,-0.06772068,59.39058,156.9064,0.0047884034,1442850,-2124,-322,-2147,8805
52122506,4024,0,-1.3631004,0.3425466,-8.778917,0.0051667066,0.009807908,-0.04239324,59.4072,156.9064,0.0047884034,1442850,-2183,-505,-3505,8811
52226475,3949,0,-0.049117237,1.9453948,-10.37222,0.03819633,0.0005820561,-0.052557144,59.32687,156.9064,0.0047884034,1442850,-1576,668,-1966,8782
52326474,3993,0,0.71705073,1.0500692,-9.682054,0.030756012,-0.0070952475,-0.07078822,59.38781,156.9064,0.0047884034,1442850,-448,980,-2706,8804
52426483,4009,0,-0.5894795,0.30407745,-9.847667,0.02544097,-0.00212276,-0.06398815,59.37119,156.9064,0.0047884034,1442850,-2153,393,-2879,8798
52530457,4006,0,0.79927546,-0.9065532,-10.11773,-0.010494972,-0.0045998576,-0.06287211,59.38227,156.9064,0.0047884034,1442850,2532,-117,-2470,8802
52630456,3964,0,0.2272236,-0.45182,-9.422563,0.022494413,-0.0017821311,-0.042827357,59.39889,156.9064,0.0047884034,1442850,296,-263,-3929,8808
52734496,4045,0,-0.008805447,0.8126937,-10.065431,-0.03263192,0.003940271,-0.066935465,59.415512,156.9064,0.0047884034,1442850,699,-394,-2400,8814
52838480,4006,0,0.13003306,-0.14068076,-11.093691,0.029947082,-0.0038965456,-0.03116313,59.396122,156.9064,0.0047884034,1442850,-1651,-40,780,8807
52938474,4000,0,0.74300534,-0.79479235,-9.822641,0.029888595,0.00029222935,-0.06431823,59.37119,156.9064,0.0047884034,1442850,78,-158,-2270,8798
53042482,4008,0,-0.97076267,0.31734905,-9.955364,-0.028423795,0.020184182,-0.046263363,59.4072,156.9064,0.0047884034,1442850,448,-671,-1532,8811
53142474,3968,0,-0.44110632,0.6776028,-8.600999,-0.0054986,0.0031372167,-0.0395272,59.35734,156.9064,0.0047884034,1442850,-833,-784,-2607,8793
53242482,3993,0,-0.11053682,0.8802628,-9.470723,0.007738298,-0.008748857,-0.036879618,59.36842,156.9064,0.0047884034,1442850,-829,582,-2325,8797
53346504,4022,0,-0.042833716,-1.0549563,-10.2736025,-0.0026506572,0.0005007768,-0.033926252,59.35457,156.9064,0.0047884034,1442850,594,-1057,-882,8792
53446513,4019,0,0.15314959,-0.6422651,-10.439355,-0.009237146,-0.005458202,-0.018659597,59.38781,156.9064,0.0047884034,1442850,1073,219,-1267,8804
53546490,4002,0,0.6825063,0.50572044,-10.476194,0.0052734553,-5.8598e-05,-0.020980032,59.38504,156.9064,0.0047884034,1442850,1266,27,-381,8803
53650488,4006,0,-0.034362867,0.81523204,-9.184818,-0.018966446,-0.011637961,-0.048921496,59.40443,156.9064,0.0047884034,1442850,89,128,-2269,8810
53750501,4019,0,-0.5863249,0.28189942,-10.425636,-0.004460198,-0.0060057454,-0.03429112,59.40166,156.9064,0.0047884034,1442850,-1029,559,-1159,8809
53854489,4007,0,0.20005746,-0.7532044,-9.568906,0.025719125,-0.010192006,-0.01976674,59.415512,156.9064,0.0047884034,1442850,188,972,-2375,8814
53958488,4000,0,-0.04749617,0.19044061,-9.109298,-0.022389092,0.0022021271,-0.020257587,59.4072,156.9064,0.0047884034,1442850,1664,-223,-2186,8811
54058488,3990,0,0.6296476,1.189116,-9.100081,0.0029880796,0.0018799198,0.0016414342,59.41828,156.9064,0.0047884034,1442850,1476,-252,-1724,8815
54162490,4008,0,-0.89582664,-0.04572674,-9.136355,-0.009419695,-0.003906646,-0.06222246,59.434902,156.9064,0.0047884034,1442850,-840,182,-5385,8821
54262469,4019,0,-0.34615672,-0.7998805,-8.582748,-0.011648531,-0.0012877437,-0.03593794,59.454292,156.9064,0.0047884034,1442850,-118,-260,-4214,8828
54362476,4018,0,-0.40311566,-1.3656965,-9.335188,-0.04080215,0.004196435,-0.035655275,59.465374,156.9064,0.0047884034,1442850,1571,-528,-2457,8832
54466450,4000,0,-0.5033704,0.6781269,-9.227899,0.03438459,0.015930878,-0.058076907,59.44044,156.9064,0.0047884034,1442850,-1200,-482,-3826,8823
54566474,4024,0,-0.8221787,0.66868937,-10.122167,0.008704796,0.009456531,-0.07543649,59.443214,156.9064,0.0047884034,1442850,-1568,-915,-1879,8824
54666482,4002,0,-0.32197726,0.6843221,-9.563076,0.035482526,-0.005537273,-0.072023645,59.462605,156.9064,0.0047884034,1442850,-1777,356,-4546,8831
54770474,3964,0,1.0357172,-1.4557368,-10.889752,-0.021145388,-0.0058949953,-0.048397925,59.47645,156.9064,0.0047884034,1442850,2388,-620,585,8836
54870486,4012,0,-0.48773986,-0.52661043,-10.335085,0.004516839,0.004210389,-0.0405959,59.487534,156.9064,0.0047884034,1442850,364,394,-1108,8840
54971274,3999,0,0.30855212,0.068760075,-9.834143,0.010609712,0.018771332,-0.042334963,59.479225,156.9064,0.0047884034,1442850,422,-1113,-288,8837
55075275,4001,0,-1.1679955,1.0862439,-10.602854,0.008750325,0.0015032351,-0.043638438,59.470913,156.9064,0.0047884034,1442850,-1801,675,-1670,8834
55175282,4001,0,0.103906736,0.5395365,-10.394421,0.03236056,0.0020397375,-0.067795634,59.479225,156.9064,0.0047884034,1442850,-1513,220,-2524,8837
55275274,3979,0,0.08396194,-0.90161216,-10.059515,0.028212067,0.0020908741,-0.04655957,59.47645,156.9064,0.0047884034,1442850,-345,-542,-2755,8836
55379294,4020,0,-0.4483556,-0.22084731,-10.442424,-0.038479276,0.01674885,-0.033691097,59.487534,156.9064,0.0047884034,1442850,1067,-924,-369,8840
55479301,4021,0,-0.5193841,0.4230678,-9.245696,-0.006296831,0.015203284,-0.04640337,59.465374,156.9064,0.0047884034,1442850,292,-1164,-3449,8832
55583279,4005,0,-0.32530588,0.8298264,-10.345395,0.0016591512,0.006968553,-0.0728044,59.454292,156.9064,0.0047884034,1442850,-1418,-416,-1184,8828
55687250,4000,0,1.1075078,-0.2581649,-10.767842,0.012365209,-0.010458881,-0.019476736,59.493073,156.9064,0.0047884034,1442850,1280,1198,-646,8842
55787250,3993,0,0.88760483,-0.94417715,-10.70715,0.0067043114,0.00016977737,-0.05201309,59.490303,156.9064,0.0047884034,1442850,1601,-30,688,8841
55891280,4029,0,-0.2470762,0.9144613,-9.192344,-0.0028007769,-0.0020182808,-0.012078487,59.518005,156.9064,0.0047884034,1442850,-14,-65,-2667,8851
55991303,4053,0,0.7684122,1.32313,-9.938783,-0.030871842,0.0012716753,-0.03695762,59.501385,156.9064,0.0047884034,1442850,2385,1141,-1749,8845
56091286,3995,0,0.4422881,0.55483127,-9.633785,-0.03685186,-0.003228874,-0.059794992,59.479225,156.9064,0.0047884034,1442850,2222,-223,-2999,8837
56195274,3980,0,-1.1246011,-0.9528029,-9.6149435,0.011136241,0.005080211,-0.058518246,59.509693,156.9064,0.0047884034,1442850,-2175,-918,-1746,8848
56295300,4026,0,-0.57171726,-1.0151826,-8.963724,-0.03063967,-0.0035436554,-0.061047114,59.481995,156.9064,0.0047884034,1442850,304,-562,-3522,8838
56395294,4012,0,-0.64128494,0.04578155,-9.611519,-0.033036903,0.009336236,-0.014151613,59.462605,156.9064,0.0047884034,1442850,662,-728,-2532,8831
56499282,4000,0,-0.66277593,1.2329832,-9.35206,-0.012107361,0.0022028198,-0.057745315,59.506924,156.9064,0.0047884034,1442850,-1193,-49,-2053,8847
56599282,4000,0,-1.0006931,0.6608825,-9.564325,0.011249719,-0.010461781,-0.01872807,59.506924,156.9064,0.0047884034,1442850,-1693,651,-3033,8847
56703282,4000,0,-1.2683965,-0.92835,-10.09092,0.019390684,-0.010852303,-0.034280166,59.498615,156.9064,0.0047884034,1442850,-1740,603,-1807,8844
56807282,4000,0,0.3808576,-0.2870377,-10.065835,-0.00096720504,0.004964135,-0.039705608,59.465374,156.9064,0.0047884034,1442850,559,-862,-459,8832
56907296,4008,0,0.37924767,1.2071748,-9.846823,0.035501264,-0.0026037754,-0.037708405,59.515236,156.9064,0.0047884034,1442850,-212,-303,-2465,8850
57011299,3995,0,1.2494792,0.3139604,-9.664884,-0.009446867,-0.0019179222,-0.03671875,59.495846,156.9064,0.0047884034,1442850,2017,-382,-940,8843
57111282,4000,0,1.402271,-0.779715,-10.3365555,-0.0002700137,-0.014730155,-0.025919009,59.506924,156.9064,0.0047884034,1442850,1645,223,-2351,8847
57211288,4002,0,-1.0423923,-0.6279842,-10.090311,0.030175017,-0.0075783907,-0.028977323,59.504154,156.9064,0.0047884034,1442850,-1833,374,-754,8846
57315282,3967,0,0.5904384,0.26200792,-9.098014,0.0203447,-0.0032541603,-0.023689866,59.495846,156.9064,0.0047884034,1442850,101,541,-2097,8843
57415250,3933,0,-1.4515624,1.3496091,-9.606041,-0.008253692,0.008926783,-0.0211993,59.473682,156.9064,0.0047884034,1442850,-1413,-372,-1043,8835
57515257,4007,0,1.4356593,1.4779997,-9.934641,-0.022625469,0.001187687,-0.022027278,59.495846,156.9064,0.0047884034,1442850,2468,530,-462,8843
57616109,4035,0,1.2269756,0.40600672,-10.622647,0.020683885,0.00024963423,-0.06287541,59.479225,156.9064,0.0047884034,1442850,993,1,-1535,8837
57720075,4000,0,0.06909342,-0.62974495,-9.683055,0.037326477,-0.0052343085,-0.041585874,59.468143,156.9064,0.0047884034,1442850,-249,537,-2796,8833
57820075,3994,0,-1.3706756,-0.598482,-10.010513,-0.014564152,0.001215841,-0.05308681,59.501385,156.9064,0.0047884034,1442850,-1411,-48,-1530,8845
57924075,3994,0,-1.5632983,1.1383755,-9.758777,0.013902491,0.0031276182,-0.034703486,59.506924,156.9064,0.0047884034,1442850,-2049,-152,-1205,8847
58024097,4022,0,-0.47220945,1.5029385,-10.037428,-0.044388518,-0.0012663658,-0.014132332,59.493073,156.9064,0.0047884034,1442850,987,177,-1855,8842
58128075,4000,0,-1.1511182,-0.067606956,-9.577094,-0.0037001274,-0.010163114,-0.05428342,59.504154,156.9064,0.0047884034,1442850,-2421,-8,-2982,8846
58228116,4041,0,-0.41801915,-0.9975083,-9.156729,-0.037107572,0.00095703395,-0.021437561,59.531857,156.9064,0.0047884034,1442850,1149,106,-4749,8856
58328074,3999,0,0.26731354,-1.1271253,-9.873327,-0.014459747,0.0153555535,-0.03590412,59.534626,156.9064,0.0047884034,1442850,2161,-956,-1976,8857
58432088,4013,0,-0.91722095,1.1768477,-10.476952,-0.017519496,0.0151886325,-0.014654523,59.487534,156.9064,0.0047884034,1442850,-154,115,-1507,8840
58532074,3974,0,0.49894494,1.6430879,-11.091967,-0.03151247,0.0071544265,-0.025891483,59.534626,156.9064,0.0047884034,1442850,1471,-424,1173,8857
58632074,4000,0,1.1740074,1.6615593,-10.730069,-0.013666084,-0.0008994882,-0.026604941,59.498615,156.9064,0.0047884034,1442850,2788,143,-1030,8844
58736050,4000,0,0.013390881,-0.60998493,-9.603422,-0.032196596,-0.0056661074,-0.014917962,59.506924,156.9064,0.0047884034,1442850,1162,763,-1389,8847
58836050,4000,0,0.7104852,-1.0507079,-10.197904,-0.009575068,0.003143547,-0.020774703,59.493073,156.9064,0.0047884034,1442850,1836,-328,-1652,8842
58940078,4028,0,0.15140699,0.6029567,-9.400486,-0.03543236,0.011971234,-0.035283063,59.509693,156.9064,0.0047884034,1442850,2098,-834,-2160,8848
59040082,4025,0,0.9661498,1.5834908,-9.2610035,-0.014545845,0.005040504,-0.036352683,59.540165,156.9064,0.0047884034,1442850,2458,81,-4109,8859
59140074,3993,0,0.9844563,0.7540915,-9.732903,0.017898012,-0.00055616326,-0.030813294,59.523544,156.9064,0.0047884034,1442850,733,-365,-1103,8853
59244080,4000,0,1.4908905,-0.60295767,-10.062304,0.0010389416,0.008337855,-0.046146154,59.501385,156.9064,0.0047884034,1442850,1901,-676,-2459,8845
59344080,4006,0,0.7893504,-1.2792678,-9.906642,0.018051691,0.0030277194,-0.068838745,59.537395,156.9064,0.0047884034,1442850,408,-930,-2658,8858
59444162,4080,0,-1.4863267,-0.31732276,-8.593916,0.029002886,0.0029005352,-0.06424077,59.531857,156.9064,0.0047884034,1442850,-2081,-534,-4695,8856
59548110,3996,0,0.86058104,1.8270237,-10.73226,0.019903999,0.001856952,-0.042157043,59.537395,156.9064,0.0047884034,1442850,389,479,-474,8858
59648082,4000,0,-0.5678807,1.7398417,-10.781915,0.028688325,0.002842445,-0.04898813,59.529087,156.9064,0.0047884034,1442850,-2267,690,-1140,8855
59752082,4000,0,0.54043376,-0.54087293,-10.3998785,0.021682547,-0.011034345,-0.022792753,59.551247,156.9064,0.0047884034,1442850,-34,125,-292,8863
59856082,3958,0,1.2603588,-0.97623116,-9.602947,-0.013539838,-0.0048100194,-0.049449414,59.545704,156.9064,0.0047884034,1442850,2597,-830,-2682,8861
59956092,4010,0,0.62143964,0.3809733,-9.399857,0.026838262,-0.003104669,-0.028166763,59.551247,156.9064,0.0047884034,1442850,529,207,-2322,8863
60060082,3986,0,0.94535875,1.1670032,-9.042736,-0.0012979433,-0.0012870203,-0.03738513,59.540165,156.9064,0.0047884034,1442850,1405,-346,-2467,8859
60160082,4000,0,1.9670842,0.63225573,-9.577339,-0.0112948865,-0.01008129,-0.028123055,59.565098,156.9064,0.0047884034,1442850,2764,581,-2508,8868
60260082,3994,0,0.58877116,-0.31240624,-10.547905,0.023861552,-0.005533412,-0.010919316,59.578945,156.9064,0.0047884034,1442850,236,319,-732,8873
60364085,4003,0,0.57940215,-0.24904136,-9.356117,-0.026156487,0.0035848566,-0.0347601,59.534626,156.9064,0.0047884034,1442850,2329,-447,-1075,8857
60464057,3999,0,0.4954885,0.77279425,-9.693029,0.013285631,0.0042326218,-0.017272476,59.523544,156.9064,0.0047884034,1442850,1419,-282,-877,8853
60564057,4006,0,1.1834744,1.286092,-10.254285,0.0012280708,-0.0022684233,-0.037102744,59.556786,156.9064,0.0047884034,1442850,2010,-81,-1667,8865
60668085,3993,0,0.8493332,0.4041829,-9.481539,-0.029410545,-0.0060106167,-0.023134781,59.565098,156.9064,0.0047884034,1442850,2101,528,-1993,8868
60768051,4001,0,1.1986365,-0.46139002,-10.591773,-0.023651674,-0.00036589886,-0.00820917,59.526314,156.9064,0.0047884034,1442850,2386,163,-1251,8854
60868875,4000,0,0.94547325,-0.81434083,-10.293302,-0.025457073,0.0016622699,-0.0138386935,59.565098,156.9064,0.0047884034,1442850,2596,-432,-996,8868
60972902,4027,0,-0.6070322,1.033111,-8.547111,-0.026703082,0.005013085,-0.039106686,59.531857,156.9064,0.0047884034,1442850,-266,-188,-4222,8856
61072875,3988,0,0.0070499075,1.3979106,-9.507074,-0.023991304,0.0071261427,-0.0085271755,59.556786,156.9064,0.0047884034,1442850,566,-38,-602,8865
61172887,4012,0,2.029819,0.7680994,-10.189836,-0.010048084,-0.0065087187,-0.038139876,59.58172,156.9064,0.0047884034,1442850,2734,-314,-1802,8874
61276874,3999,0,0.26235393,-1.3207608,-10.316642,-0.036786627,0.002033219,-0.06081298,59.554016,156.9064,0.0047884034,1442850,1306,-426,-1813,8864
61376881,4006,0,1.0855491,-1.0491072,-9.513351,-0.0059553115,0.00024443096,-0.044258095,59.567867,156.9064,0.0047884034,1442850,2070,-301,-3353,8869
61480875,3985,0,0.67199385,1.0235025,-10.263874,-0.013926834,0.008113711,-0.01774918,59.556786,156.9064,0.0047884034,1442850,1882,-89,-639,8865
61584881,3979,0,0.16076471,0.8568246,-9.57062,-0.0348441,-0.0014081469,-0.02681712,59.573406,156.9064,0.0047884034,1442850,1415,22,-2014,8871
61684898,4015,0,1.6048459,0.15654579,-10.0777645,-0.00823526,-0.0146844,-0.03605705,59.545704,156.9064,0.0047884034,1442850,2208,570,-1211,8861
61788881,4006,0,0.5785527,-0.8523491,-10.510008,-0.035100713,-0.0013628628,-0.04469431,59.559555,156.9064,0.0047884034,1442850,1672,81,-1514,8866
61888851,4000,0,0.694309,-0.43578258,-9.917156,-0.016047847,0.018371718,-0.05029677,59.606647,156.9064,0.0047884034,1442850,2589,-410,-1249,8883
61988851,4000,0,-0.18356916,0.2842498,-9.535262,0.038797453,0.006147223,-0.06715018,59.584488,156.9064,0.0047884034,1442850,-659,-825,-3347,8875
62092851,4000,0,0.9668625,1.0861597,-10.6159,0.022509223,-0.007422229,-0.039597623,59.573406,156.9064,0.0047884034,1442850,896,-12,-313,8871
62192881,3981,0,-1.4427968,0.071580276,-10.499574,0.026266111,-0.0058120983,-0.039186906,59.58172,156.9064,0.0047884034,1442850,-2751,502,-1846,8874
62292874,3994,0,-0.0790706,-0.60731894,-10.213019,-0.036481302,-0.0036554765,-0.039328575,59.570637,156.9064,0.0047884034,1442850,1393,757,-1447,8870
62396874,4000,0,-0.9706613,-0.2503978,-8.819649,-0.02881852,-0.00026153435,-0.042402588,59.59834,156.9064,0.0047884034,1442850,136,-261,-3150,8880
62496888,4007,0,-0.55607605,0.77529365,-9.115175,-0.018535247,0.006185597,-0.009055379,59.570637,156.9064,0.0047884034,1442850,77,-24,-1965,8870
62600882,3994,0,-1.2533838,1.4152644,-9.3274555,0.0064897574,0.00034791912,-0.06152841,59.59834,156.9064,0.0047884034,1442850,-1534,119,-3906,8880
62700913,4026,0,-0.81341714,0.7915561,-9.506381,-0.011768417,-0.0026905776,-0.063554935,59.6205,156.9064,0.0047884034,1442850,-789,8,-3799,8888
62800882,4000,0,-0.861402,-0.61584926,-8.610373,0.00670872,-0.009265914,-0.042846166,59.590027,156.9064,0.0047884034,1442850,-1356,153,-4113,8877
62904915,4033,0,0.44112375,-0.74302757,-10.383538,0.022338286,0.010806012,-0.054577388,59.61773,156.9064,0.0047884034,1442850,580,-1025,-1780,8887
63004882,4000,0,0.4955552,-0.27760118,-9.705761,-0.023012899,0.012404468,-0.04828056,59.58172,156.9064,0.0047884034,1442850,1908,-1957,-2584,8874
63104888,4006,0,-0.3589823,0.82789963,-8.795067,0.006230373,0.0037582493,-0.0406067,59.59834,156.9064,0.0047884034,1442850,-735,-777,-3518,8880
63208881,3967,0,0.2739798,-0.005861378,-10.336728,0.01619557,-0.0031082795,-0.042225733,59.59834,156.9064,0.0047884034,1442850,-267,-33,-2841,8880
63308882,4000,0,0.3536155,-0.7306892,-9.668135,0.0012103635,-0.012785289,-0.021841351,59.606647,156.9064,0.0047884034,1442850,211,157,-1318,8883
63408897,4015,0,0.32827014,-0.5332159,-9.394243,-0.026538957,-0.006333409,-0.031386763,59.567867,156.9064,0.0047884034,1442850,1382,559,-2760,8869
63512903,4046,0,-0.3462461,0.72901726,-9.973916,0.010848422,0.0006428611,-0.015743269,59.60111,156.9064,0.0047884034,1442850,-444,199,39,8881
63612851,3956,0,0.10928887,1.195083,-10.460891,0.006892342,0.002510067,-0.011104721,59.606647,156.9064,0.0047884034,1442850,222,265,1096,8883
63716897,4047,0,0.6747294,0.10309044,-10.7649355,0.004801052,-0.015850972,-0.050125804,59.60111,156.9064,0.0047884034,1442850,461,475,-721,8881
63816857,4006,0,0.83619153,-1.0269947,-10.001144,-0.016522998,-0.00041266577,-0.05731172,59.59834,156.9064,0.0047884034,1442850,1844,-1120,-1952,8880
63916880,3979,0,-0.6537564,-0.50440955,-9.590215,-0.028201189,0.0034014732,-0.014087153,59.590027,156.9064,0.0047884034,1442850,450,-695,-1308,8877
64020874,3984,0,0.89746153,1.0077999,-9.739098,0.026152119,-0.0064199828,-0.022540603,59.595566,156.9064,0.0047884034,1442850,307,298,-1443,8879
64120901,4027,0,1.2146481,1.5775772,-10.1076,-0.017576719,0.0032837351,-0.024430204,59.6205,156.9064,0.0047884034,1442850,2299,692,-1517,8888
64224874,4000,0,-0.20931244,-0.18330903,-11.090318,0.0224808,-0.0046110824,-0.040409848,59.628807,156.9064,0.0047884034,1442850,-1333,474,-1340,8891
64328913,4038,0,-0.26345694,-0.15336905,-9.572769,-0.027422233,0.020008642,-0.05186723,59.612186,156.9064,0.0047884034,1442850,863,-252,-2755,8885
64428874,3999,0,-0.84198284,0.6227226,-8.934065,-0.006339857,0.011040796,-0.05851783,59.614956,156.9064,0.0047884034,1442850,-1359,-969,-4361,8886
64529676,4002,0,-0.32312533,1.0325527,-9.971753,0.032069944,-0.0050113006,-0.031493068,59.631577,156.9064,0.0047884034,1442850,-1763,938,-1012,8892
64633675,3994,0,-0.40510684,-0.7956776,-9.920545,-0.041932806,-0.0040593273,-0.027351895,59.628807,156.9064,0.0047884034,1442850,303,-281,-1085,8891
64733675,4000,0,-0.8751023,-0.7415468,-10.263583,-0.0031074747,0.0038012092,-0.02027888,59.606647,156.9064,0.0047884034,1442850,-1524,611,-1873,8883
64833699,4048,0,-0.2755793,-0.10750824,-9.413701,0.006005541,0.005994889,-0.07553873,59.65097,156.9064,0.0047884034,1442850,-263,28,-4008,8899
64937703,4052,0,0.5943912,0.8615744,-9.626624,0.01801012,0.011572245,-0.03487964,59.63989,156.9064,0.0047884034,1442850,1154,-1010,-2390,8895
65037657,3999,0,-0.00044488977,1.2083366,-8.599297,-0.029925749,-0.00046737422,-0.027130777,59.609417,156.9064,0.0047884034,1442850,1329,427,-3473,8884
65141650,3999,0,-0.5058703,-0.56436914,-10.294825,0.023522392,-0.012236921,-0.021874193,59.6205,156.9064,0.0047884034,1442850,-1343,301,-974,8888
65241674,3953,0,1.1508946,-0.58113134,-10.186639,-0.02069054,0.0061013987,-0.011473178,59.645428,156.9064,0.0047884034,1442850,2671,-154,-1411,8897
65341680,4006,0,-1.3063506,0.16907245,-10.242039,-0.012264612,0.016688539,-0.07105161,59.626038,156.9064,0.0047884034,1442850,-1135,-586,-1017,8890
65445678,3961,0,0.5031359,1.5062662,-10.192798,-0.024726562,0.0017659869,-0.03159115,59.648197,156.9064,0.0047884034,1442850,2315,106,-1843,8898
65545721,4036,0,-0.8478921,0.7786268,-9.972441,-0.008581476,0.01235642,-0.07410343,59.626038,156.9064,0.0047884034,1442850,-1436,-872,-2409,8890
65649681,3999,0,0.808948,-0.9369664,-10.674654,-0.017393244,-0.0009246219,-0.05724244,59.65374,156.9064,0.0047884034,1442850,2173,-90,-1684,8900
65753682,4000,0,-0.24624078,0.7191883,-10.033561,0.00081355125,0.0072039315,-0.054049328,59.64266,156.9064,0.0047884034,1442850,-859,486,-2291,8896
65857686,3998,0,1.0509379,1.0009493,-10.331092,0.01029969,0.010643557,-0.059229933,59.65928,156.9064,0.0047884034,1442850,1512,-280,-844,8902
65957730,4044,0,0.41511694,0.05882279,-9.260357,0.0020861896,-0.011668714,-0.032662172,59.64266,156.9064,0.0047884034,1442850,1193,186,-2546,8896
66061688,3989,0,-1.0990744,-0.8332328,-8.9392605,-0.006705077,0.0009953431,-0.022620257,59.628807,156.9064,0.0047884034,1442850,-1020,228,-4321,8891
66161693,3994,0,-0.9420047,-0.47807944,-9.740066,-0.03596847,0.00053900725,-0.04742761,59.645428,156.9064,0.0047884034,1442850,-18,-469,-1416,8897
66261682,3994,0,-0.5919775,1.0032682,-9.704424,0.00909679,0.0104341,-0.037400745,59.664818,156.9064,0.0047884034,1442850,-698,-554,-2715,8904
66365732,4031,0,0.67302746,0.97584045,-9.735169,0.0056378893,-0.0067281197,-0.021805758,59.65097,156.9064,0.0047884034,1442850,965,-279,-997,8899
66465688,3999,0,0.5818577,0.30325687,-10.558961,-0.034273263,-0.0018514451,-0.020195413,59.609417,156.9064,0.0047884034,1442850,1971,-287,243,8884
66569680,4029,0,-0.1066958,-0.13039467,-9.761395,0.02706592,-0.009192657,-0.02925956,59.65651,156.9064,0.0047884034,1442850,-797,959,-921,8901
66673657,4006,0,-0.9723684,0.093851015,-9.556894,-0.026137171,0.010951605,-0.019286457,59.626038,156.9064,0.0047884034,1442850,-194,-710,-2395,8890
66773653,4003,0,-0.81668735,1.6114651,-10.321141,0.03144104,0.008262433,-0.044558935,59.66205,156.9064,0.0047884034,1442850,-2146,540,-1918,8903
66877681,4007,0,0.541494,0.2704884,-10.714928,-0.03227725,0.0021580062,-0.04405375,59.67036,156.9064,0.0047884034,1442850,1101,13,-2319,8906
66977674,3993,0,-1.1443499,-1.0447803,-9.925078,0.0163677,0.0018652634,-0.055585504,59.65097,156.9064,0.0047884034,1442850,-1733,-472,-4150,8899
67077674,4000,0,-0.45212516,-0.3832337,-10.996256,0.025318455,-0.0084350705,-0.0065220846,59.664818,156.9064,0.0047884034,1442850,-702,378,-1343,8904
67181674,4000,0,0.23104666,1.4062034,-10.853009,0.0027268014,0.009075837,-0.048696358,59.65374,156.9064,0.0047884034,1442850,47,362,75,8900
67281674,3965,0,-0.12676553,0.8551835,-9.508987,-0.015438482,0.0003878991,-0.04054945,59.67036,156.9064,0.0047884034,1442850,908,-827,-2053,8906
67385678,4003,0,-0.86541617,0.34522167,-10.132725,0.0293422,-0.012496003,-0.024695043,59.645428,156.9064,0.0047884034,1442850,-2127,675,-1835,8897
67489675,3988,0,-0.35349613,-0.6236842,-10.235773,-0.017160848,-0.0065702335,-0.050058417,59.64266,156.9064,0.0047884034,1442850,325,-10,-2153,8896
