timestamp,integral_dt,error_count,x,y,z,x_integral,y_integral,z_integral,temperature,range_m_s2,scaling,device_id,x_raw,y_raw,z_raw,temperature_raw
35297223,4000,0,-0.7300235,0.4225255,-9.9587,0.001839767,-0.0016486474,-0.042397264,57.573406,156.9064,0.0047884034,1442850,-183,-32,-2085,8149
35397231,3967,0,-0.17710383,0.45286384,-9.961236,0.0014568343,-0.00067836465,-0.039160497,57.565098,156.9064,0.0047884034,1442850,48,18,-2019,8146
35501258,4035,0,-0.21854745,-0.10485223,-9.950208,-0.0023375433,0.0041905735,-0.04134269,57.587257,156.9064,0.0047884034,1442850,-211,-356,-1689,8154
35601223,4000,0,-0.2178888,-0.8162907,-10.298328,-0.0012576876,-0.0043894043,-0.037883464,57.573406,156.9064,0.0047884034,1442850,383,-240,-2002,8149
35701223,4000,0,-0.056186352,0.07144525,-10.356988,-0.008444553,-0.01473045,-0.042642646,57.587257,156.9064,0.0047884034,1442850,383,806,-1673,8154
35805234,4011,0,-0.69619393,-0.5732301,-9.994754,-0.007953452,-0.0075518396,-0.04240917,57.592796,156.9064,0.0047884034,1442850,-50,238,-2667,8156
35905224,3989,0,-0.5857107,-0.6390692,-9.912084,-0.0076573854,-0.008391446,-0.03400272,57.562325,156.9064,0.0047884034,1442850,478,85,-1515,8145
36009223,3945,0,-0.030644165,-0.2779285,-9.744708,-0.00014033871,0.0068873446,-0.034623668,57.587257,156.9064,0.0047884034,1442850,61,-657,-2214,8154
36109223,4000,0,0.7440082,0.5638535,-10.054355,-0.0016561784,0.0055189924,-0.03800757,57.60111,156.9064,0.0047884034,1442850,420,-442,-1997,8159
36209223,4000,0,0.037538998,0.87171847,-10.381198,-0.0046044816,-0.0027554252,-0.037083466,57.61773,156.9064,0.0047884034,1442850,306,81,-1015,8165
36313229,4006,0,-0.6423469,-0.121937275,-9.621298,-0.006298191,0.0032502683,-0.037146866,57.587257,156.9064,0.0047884034,1442850,52,-369,-2550,8154
36413223,3979,0,0.43704847,0.7547157,-9.905159,0.0024349405,0.0036168545,-0.03776373,57.595566,156.9064,0.0047884034,1442850,-331,-221,-2207,8157
36517222,3999,0,-0.48658764,-0.32874292,-9.932958,-0.00874032,-0.005929645,-0.041165903,57.609417,156.9064,0.0047884034,1442850,557,213,-1649,8162
36621223,4000,0,0.77837306,0.8808315,-10.130945,-0.0035014483,0.012772461,-0.049705297,57.645428,156.9064,0.0047884034,1442850,412,-150,-1620,8175
36721223,4000,0,-1.0896325,0.45174092,-9.958539,-0.011464671,-0.0109854685,-0.03309602,57.62327,156.9064,0.0047884034,1442850,90,607,-1610,8167
36821228,4005,0,0.83569676,0.0075914967,-9.693612,0.008603811,0.009614997,-0.04763624,57.595566,156.9064,0.0047884034,1442850,-46,-564,-2354,8157
36925247,3986,0,-1.0305864,-0.5151432,-10.090118,0.01055019,-0.00018336874,-0.0419521,57.631577,156.9064,0.0047884034,1442850,-683,-297,-1572,8170
37025223,4001,0,-0.06365422,0.49480176,-9.817007,-0.01142097,-0.0058233747,-0.045633763,57.628807,156.9064,0.0047884034,1442850,664,391,-2589,8169
37129245,4019,0,0.6632755,1.0435705,-10.04619,-0.017522527,-0.0077100587,-0.045814842,57.65097,156.9064,0.0047884034,1442850,1024,476,-2379,8177
37229223,3994,0,1.6485404,1.5081887,-9.917631,-0.004819457,0.0049931463,-0.042952843,57.626038,156.9064,0.0047884034,1442850,758,403,-1835,8168
37329270,4047,0,1.4460065,1.0243567,-9.807695,0.006365419,0.015631825,-0.039940163,57.63989,156.9064,0.0047884034,1442850,188,-600,-2451,8173
37433275,4052,0,1.7165182,1.5144869,-9.805998,-0.004320459,-0.0013120861,-0.037069194,57.628807,156.9064,0.0047884034,1442850,898,929,-2156,8169
37533260,4037,0,1.5428872,1.5527495,-10.030406,-0.00771476,0.0005380049,-0.03904531,57.65097,156.9064,0.0047884034,1442850,631,693,-1320,8177
37633223,4000,0,-0.030462705,0.8743134,-9.877336,-0.016571864,-0.011156246,-0.036431797,57.648197,156.9064,0.0047884034,1442850,1107,914,-2330,8176
37737247,4024,0,-0.7814255,-0.25151917,-9.727182,0.01934719,0.0031112982,-0.042221986,57.61773,156.9064,0.0047884034,1442850,-992,-617,-2755,8165
37837223,3992,0,1.1925867,0.97962254,-9.983696,0.0023959174,0.0062301834,-0.033230186,57.6759,156.9064,0.0047884034,1442850,336,195,-1507,8186
37941223,3973,0,-1.0456942,-0.44492298,-9.38229,0.009115739,0.0075919675,-0.034665607,57.65097,156.9064,0.0047884034,1442850,-303,-709,-3466,8177
38041223,4000,0,0.91026306,1.6064895,-10.009389,0.009270468,-0.003431108,-0.03331209,57.66205,156.9064,0.0047884034,1442850,173,779,-1662,8181
38141231,4002,0,-0.6174315,-0.7039282,-9.960051,-0.012825719,-0.014678311,-0.040450595,57.64266,156.9064,0.0047884034,1442850,341,251,-1432,8174
38245222,4000,0,1.3667129,1.8385102,-9.972003,0.0026468667,0.012059443,-0.04522959,57.664818,156.9064,0.0047884034,1442850,475,230,-2179,8182
38345222,3997,0,-1.0396197,-0.058662683,-9.871456,-0.018758148,-0.02397063,-0.031559788,57.7036,156.9064,0.0047884034,1442850,402,1626,-1732,8196
38445229,4004,0,-0.13539453,-0.60308146,-9.403466,0.02562879,0.031119645,-0.03351238,57.65097,156.9064,0.0047884034,1442850,-1165,-1302,-2190,8177
38549268,4039,0,-1.5890669,-0.7111584,-9.8569145,-0.020985574,-0.022515506,-0.03805288,57.65651,156.9064,0.0047884034,1442850,215,1086,-1958,8179
38649222,4000,0,0.14263813,0.90495735,-9.582343,0.02963448,0.014217821,-0.045688286,57.68421,156.9064,0.0047884034,1442850,-842,-571,-3267,8189
38753229,4007,0,-1.3122976,-1.7957346,-9.700684,0.006107689,0.00524534,-0.03156814,57.68144,156.9064,0.0047884034,1442850,-650,-1030,-1579,8188
38853222,4000,0,-0.21343186,1.2849455,-10.0668335,-0.016622577,-0.022109728,-0.038362466,57.68698,156.9064,0.0047884034,1442850,503,876,-1740,8190
38953262,4040,0,1.4331311,1.3299173,-10.017852,-0.0069282297,0.023580823,-0.045507014,57.67313,156.9064,0.0047884034,1442850,1153,167,-2150,8185
39057222,4000,0,1.5242943,0.8240088,-9.994985,-0.0012274603,0.02421009,-0.035130545,57.65097,156.9064,0.0047884034,1442850,976,-1063,-1918,8177
39157222,3990,0,0.18328491,-0.7864365,-9.564109,0.017771684,0.022507517,-0.048543848,57.71745,156.9064,0.0047884034,1442850,-398,-1014,-3280,8201
39257222,4000,0,-0.8391829,-1.2661567,-9.500573,0.017570466,-0.0015141133,-0.04361879,57.68698,156.9064,0.0047884034,1442850,-836,-705,-3082,8190
39362031,4008,0,1.1243361,0.7839809,-10.001046,0.0005284343,0.0044488553,-0.0414996,57.68421,156.9064,0.0047884034,1442850,769,-355,-1697,8189
39462023,3967,0,1.2806641,0.5721141,-10.007766,-0.008797533,0.008056253,-0.040084295,57.7313,156.9064,0.0047884034,1442850,1390,109,-2512,8206
39562049,4026,0,-0.005317147,1.8121662,-9.994274,-0.02778069,0.009340119,-0.03172622,57.70914,156.9064,0.0047884034,1442850,905,812,-1903,8198
39666022,3999,0,-0.9723929,-0.907192,-9.73763,0.033477545,0.00020787911,-0.030056542,57.7313,156.9064,0.0047884034,1442850,-1997,-367,-1561,8206
39766022,3999,0,1.7829161,0.07665901,-10.237948,-0.0033319397,0.013411714,-0.04079889,57.70914,156.9064,0.0047884034,1442850,1224,-502,-1447,8198
39870048,4017,0,-1.24439,-0.037843898,-9.637291,0.022333767,-0.003275373,-0.042490378,57.73407,156.9064,0.0047884034,1442850,-1295,-641,-2297,8207
39970055,4032,0,1.7834045,0.12259579,-10.178262,-0.006411357,0.014791392,-0.053525083,57.68975,156.9064,0.0047884034,1442850,1304,-251,-1961,8191
40070044,3996,0,-0.9093902,0.98399675,-10.229968,-0.024636159,-0.0087502375,-0.030435015,57.7036,156.9064,0.0047884034,1442850,842,686,-1805,8196
40174022,3993,0,1.9959984,-0.43586206,-9.68735,0.011442492,0.009422928,-0.044281412,57.72853,156.9064,0.0047884034,1442850,938,-1108,-2290,8205
40278023,4000,0,-2.0195875,0.41890085,-9.595189,0.014152171,-0.010423994,-0.03449989,57.72576,156.9064,0.0047884034,1442850,-1580,99,-2525,8204
40378022,3963,0,1.1546372,0.0039434405,-9.980956,0.008029338,-0.001362202,-0.03753925,57.72853,156.9064,0.0047884034,1442850,504,-188,-2123,8205
40482023,3994,0,-0.54743487,-0.20263648,-9.950371,0.028887458,0.0022920482,-0.03464349,57.72853,156.9064,0.0047884034,1442850,-1358,-329,-1233,8205
40582022,3993,0,0.12595478,0.8556351,-9.924824,-0.039283954,0.0006856518,-0.03685109,57.7313,156.9064,0.0047884034,1442850,1830,173,-1764,8206
40682049,4026,0,0.36202338,-0.5109098,-10.035506,0.039535865,0.0059784134,-0.04898578,57.78393,156.9064,0.0047884034,1442850,-923,-764,-2626,8225
40786028,4005,0,0.056114938,0.10367805,-9.354924,0.03564063,0.0056363083,-0.054804433,57.739613,156.9064,0.0047884034,1442850,-1178,-298,-3497,8209
40886035,4012,0,-0.50939715,0.044027746,-9.298739,0.034551904,0.012095021,-0.04614261,57.742382,156.9064,0.0047884034,1442850,-1326,-974,-2983,8210
40986822,3999,0,-2.1721349,-0.5941805,-9.543768,0.044503365,0.009883017,-0.053689256,57.75069,156.9064,0.0047884034,1442850,-3741,-989,-3323,8213
41090832,4009,0,3.1129124,0.72003627,-11.181698,0.0070286277,0.014027946,-0.04602693,57.759003,156.9064,0.0047884034,1442850,2607,-443,-915,8216
41190822,3999,0,-2.0550978,0.032465287,-8.571606,-0.008322798,-0.0032638786,-0.048713334,57.739613,156.9064,0.0047884034,1442850,-1727,124,-3643,8209
41290829,4007,0,2.018437,0.6436909,-10.329658,-0.0310552,-0.0024886495,-0.04876306,57.775623,156.9064,0.0047884034,1442850,3529,273,-1863,8222
41394873,4045,0,1.1487118,-0.34782276,-9.175023,0.047046237,0.02038372,-0.084712654,57.72576,156.9064,0.0047884034,1442850,-471,-925,-4628,8204
41494822,3999,0,-2.842171,-0.30296674,-9.014542,0.02421122,-0.0027527192,-0.036112785,57.74792,156.9064,0.0047884034,1442850,-3588,-768,-2198,8212
41598829,4007,0,-1.6964363,0.19291623,-9.077927,0.02048708,0.004060249,-0.051330753,57.75069,156.9064,0.0047884034,1442850,-2453,-248,-3946,8213
41698849,4027,0,2.6049004,0.7215495,-11.380236,-0.03156186,0.0076216604,-0.06559081,57.778393,156.9064,0.0047884034,1442850,3643,639,-1037,8223
41798822,4000,0,-1.1084591,-0.44743022,-9.502769,0.05910988,0.0073481286,-0.0611498,57.772854,156.9064,0.0047884034,1442850,-2749,-1154,-3459,8221
41902823,3953,0,1.6144127,1.2920829,-11.376052,-0.024630237,-0.00022470811,-0.03108973,57.753464,156.9064,0.0047884034,1442850,2929,836,-728,8214
42006822,3986,0,1.3450983,-0.032970604,-9.195607,-0.05279337,-0.004577337,-0.055838615,57.775623,156.9064,0.0047884034,1442850,3706,-60,-2640,8222
42106822,3990,0,0.6096165,-0.5539883,-9.602815,-0.032590207,0.011582229,-0.04319213,57.772854,156.9064,0.0047884034,1442850,1846,-1105,-2441,8221
42210823,4001,0,-1.5555604,-0.083492935,-9.547208,0.03327125,-0.006953818,-0.012991308,57.778393,156.9064,0.0047884034,1442850,-2939,-612,-1421,8223
42310838,4016,0,0.07390253,-0.04747149,-8.66786,0.041127898,0.013126251,-0.068035856,57.772854,156.9064,0.0047884034,1442850,-931,-892,-4346,8221
42410822,4000,0,0.8265189,0.21769643,-10.184729,0.04525981,-0.013500785,-0.021906858,57.775623,156.9064,0.0047884034,1442850,-621,206,-1172,8222
42514846,4017,0,-1.0150156,0.45885924,-10.860548,-0.03647466,0.0017253093,-0.033445522,57.795013,156.9064,0.0047884034,1442850,475,239,-1673,8229
42614823,3994,0,-0.7725699,0.27332067,-8.485642,-0.00919027,-0.010498455,-0.015137495,57.792244,156.9064,0.0047884034,1442850,-513,510,-3287,8228
42715640,4014,0,-0.29653546,0.4243747,-11.50273,0.04389704,0.013713301,-0.05416423,57.808865,156.9064,0.0047884034,1442850,-1489,-492,32,8234
42819623,3993,0,-0.8931491,-0.60969317,-8.605163,0.042151157,0.015385693,-0.06779713,57.781162,156.9064,0.0047884034,1442850,-2749,-1330,-5043,8224
42919623,4001,0,0.06271381,0.30625266,-9.516291,-0.0074259713,-0.015675869,-0.0017490303,57.792244,156.9064,0.0047884034,1442850,1113,555,-1146,8228
43023622,4000,0,0.6570124,0.49076822,-9.619702,-0.03161979,-0.008414261,-0.016092494,57.817173,156.9064,0.0047884034,1442850,2617,567,-1944,8237
43127622,3996,0,0.53787655,-0.21823888,-10.11634,0.010834608,0.002273201,-0.022684142,57.817173,156.9064,0.0047884034,1442850,397,-380,-1189,8237
43231622,4000,0,0.6748374,0.34659508,-9.177286,0.015797108,3.7206337e-05,-0.035032496,57.819942,156.9064,0.0047884034,1442850,49,-459,-2653,8238
43331623,3990,0,-1.2332059,0.8140649,-9.807032,-0.020724058,-0.010181744,-0.005009376,57.797783,156.9064,0.0047884034,1442850,-450,-18,138,8230
43435622,4000,0,-0.80356973,-0.5206056,-9.117135,-0.03304709,-0.015800431,-0.023206422,57.822716,156.9064,0.0047884034,1442850,230,391,-3102,8239
43535633,4004,0,0.6183533,-0.6331143,-10.556781,0.028650062,-0.00093774253,-0.009910832,57.814404,156.9064,0.0047884034,1442850,375,349,60,8236
43639623,4000,0,-0.20956884,0.3117061,-11.34384,0.002864458,-0.0018284393,-0.0016927756,57.819942,156.9064,0.0047884034,1442850,595,-21,1399,8238
43743632,4009,0,-1.0669847,1.0423512,-8.543337,-0.004514778,-0.0074994294,-0.040690713,57.808865,156.9064,0.0047884034,1442850,-1440,312,-4907,8234
43843623,3994,0,0.03318241,-0.07511865,-9.040346,0.014044472,0.01078641,-0.07882705,57.811634,156.9064,0.0047884034,1442850,-876,-431,-4584,8235
43943622,3944,0,-0.98226094,-0.4149152,-11.474564,0.027263628,-0.002736956,-0.05964341,57.833794,156.9064,0.0047884034,1442850,-1303,-4,-1208,8243
44047632,4010,0,0.7153126,0.7245112,-10.642204,-0.003339775,0.007999689,-0.069439344,57.828255,156.9064,0.0047884034,1442850,902,-1084,-353,8241
44147629,4006,0,-1.8275148,1.1764321,-10.078885,0.012577819,-0.008959873,-0.023975208,57.867035,156.9064,0.0047884034,1442850,-2168,1280,-1996,8255
44251623,4001,0,-0.8224599,-0.3660879,-10.531464,-0.0064764274,0.0013178061,-0.04195879,57.867035,156.9064,0.0047884034,1442850,612,308,-2110,8255
44351635,4013,0,0.8416484,-0.78870904,-9.102897,-0.02329206,0.007434416,-0.05978044,57.844875,156.9064,0.0047884034,1442850,1910,-648,-4378,8247
44452430,4007,0,-1.0237278,-0.89432955,-10.289272,0.02169403,0.00785296,-0.04632008,57.839336,156.9064,0.0047884034,1442850,-1845,-608,-1287,8245
44556436,4013,0,-0.47725672,0.7850585,-8.879266,0.028354455,0.0020818007,-0.03202191,57.850414,156.9064,0.0047884034,1442850,-944,-1024,-2562,8249
44656422,3993,0,0.10538168,1.6084826,-11.008834,-0.023688974,-0.006832099,-0.014801003,57.811634,156.9064,0.0047884034,1442850,1553,1470,-661,8235
44756422,3993,0,-0.24286276,1.3358856,-10.411222,-0.018516686,-0.00065936265,-0.046954587,57.855953,156.9064,0.0047884034,1442850,453,602,-3074,8251
44860429,4007,0,-0.5367235,-0.43999773,-9.337918,-0.028261423,0.0016616754,-0.021588776,57.828255,156.9064,0.0047884034,1442850,411,-405,-3454,8241
44960429,3995,0,-1.9008074,-0.7481854,-9.821848,0.002680908,0.005735754,-0.053463213,57.819942,156.9064,0.0047884034,1442850,-2447,-620,-2269,8238
45060437,3987,0,-0.5428831,-0.26973125,-9.2634945,-0.032242484,0.0042800955,-0.046665605,57.842106,156.9064,0.0047884034,1442850,878,-795,-3974,8246
45164468,4046,0,-1.2496403,0.7356657,-8.612813,-0.006528612,-0.0036165654,-0.031485014,57.850414,156.9064,0.0047884034,1442850,-1536,23,-3637,8249
45264422,3999,0,1.9201467,0.90722483,-10.109773,-0.006085934,-0.014330151,-0.03345945,57.822716,156.9064,0.0047884034,1442850,2177,396,-246,8239
45368422,4000,0,1.089214,-1.0019917,-11.470669,-0.01785057,-0.0106816925,-0.018540904,57.867035,156.9064,0.0047884034,1442850,2192,463,1091,8255
45472422,3999,0,0.36818492,-0.2164041,-9.948439,-0.022335552,0.005547779,-0.011521577,57.842106,156.9064,0.0047884034,1442850,1911,-634,-886,8246
45572422,3993,0,0.0033083793,0.82624286,-9.501768,0.029188324,0.0010932174,-0.022639789,57.878117,156.9064,0.0047884034,1442850,111,-393,-2173,8259
45676423,4001,0,-0.54852873,2.6517544,-9.915867,0.022468891,0.011037302,-0.07101286,57.872574,156.9064,0.0047884034,1442850,-2157,88,-1838,8257
45776443,4021,0,0.6073042,1.2276922,-10.275812,-0.028295185,-0.001213754,-0.04978391,57.861496,156.9064,0.0047884034,1442850,1880,58,-1537,8253
45877223,3994,0,0.11411693,0.0585637,-10.054639,0.02686058,-0.0024574467,-0.051325765,57.886425,156.9064,0.0047884034,1442850,-695,-211,-4605,8262
45977223,4000,0,-0.3186345,-1.5189667,-9.4299755,0.030120198,-0.0063752574,-0.03258034,57.883656,156.9064,0.0047884034,1442850,-1155,-845,-2006,8261
46081229,4006,0,0.24137986,-1.3193387,-10.447728,0.02503461,0.017567977,-0.051404767,57.883656,156.9064,0.0047884034,1442850,-65,-615,-1768,8261
46181223,4000,0,-0.8186273,0.4933411,-9.213212,0.026238894,0.0053607626,-0.010213004,57.858727,156.9064,0.0047884034,1442850,-1416,-508,-2327,8252
46285222,3989,0,-0.044331647,1.5215778,-10.179463,-0.03962431,-0.007882139,-0.0063102213,57.905815,156.9064,0.0047884034,1442850,1611,170,-255,8269
46385222,4000,0,0.96175206,1.2705159,-10.260774,-0.0047407895,0.008948796,-0.08483703,57.92798,156.9064,0.0047884034,1442850,786,98,-1393,8277
46485231,4009,0,-0.18260954,-0.4581388,-8.303308,0.02073205,-0.0061427485,-0.053469807,57.872574,156.9064,0.0047884034,1442850,-739,-3,-5021,8257
46589271,4046,0,0.46725833,-0.23108748,-9.357219,0.02160171,-0.009206861,-0.041732665,57.897507,156.9064,0.0047884034,1442850,-140,689,-2691,8266
46689222,3955,0,-1.6147194,-0.36975017,-8.037093,0.01714117,0.012035284,-0.04624667,57.903046,156.9064,0.0047884034,1442850,-2474,-1119,-4493,8268
46789222,3994,0,-0.6299074,1.5633677,-8.855838,-0.02509236,0.0083783455,-0.039790705,57.914127,156.9064,0.0047884034,1442850,927,-521,-3092,8272
46893267,4045,0,0.40215054,0.18493834,-8.537862,0.0043127243,0.0072839363,-0.065060936,57.886425,156.9064,0.0047884034,1442850,-219,-435,-4330,8262
46993228,3997,0,0.36266544,-0.43622378,-8.931001,-0.02014286,-0.0022549606,-0.031083116,57.916897,156.9064,0.0047884034,1442850,1455,-293,-1126,8273
47097222,3960,0,0.2547146,0.15062201,-10.257777,-0.0015610275,-0.0118158795,0.027691182,57.905815,156.9064,0.0047884034,1442850,1084,407,1955,8269
47197231,4009,0,-0.028937517,0.15941314,-9.2491455,0.016924687,0.010390116,-0.054086678,57.94737,156.9064,0.0047884034,1442850,-485,-816,-1122,8284
47297248,4026,0,0.05231791,1.1625912,-11.971822,0.01623853,-0.0032680493,-0.046883106,57.914127,156.9064,0.0047884034,1442850,235,591,1605,8272
47401222,4000,0,0.060385454,0.28459963,-9.907151,-0.00028992968,0.013795824,-0.10569964,57.911358,156.9064,0.0047884034,1442850,341,69,-6383,8271
47501222,4000,0,-0.41540408,-0.80449617,-10.90506,0.0011927409,-0.007754378,-0.024070144,57.933517,156.9064,0.0047884034,1442850,-643,-589,-1249,8279
47601229,3951,0,-0.33697423,-0.35186124,-11.146161,0.016930511,0.0036316796,-0.0673957,57.914127,156.9064,0.0047884034,1442850,-1539,540,-2582,8272
47705261,4022,0,-0.057996225,-0.614522,-10.834815,-0.00655354,0.012451156,-0.049702205,57.916897,156.9064,0.0047884034,1442850,1476,-1324,-2349,8273
47806029,3991,0,-0.049232464,0.6942621,-10.687529,-0.006846796,-0.011223149,-0.02555991,57.930748,156.9064,0.0047884034,1442850,651,-351,-1020,8278
47906049,4026,0,0.2002269,2.1728408,-10.235534,0.014251982,0.006582437,-0.06193095,57.939056,156.9064,0.0047884034,1442850,-16,888,-2134,8281
48010023,4001,0,-0.2130307,0.3219249,-10.474482,0.021819897,-0.010235798,-0.033642262,57.9446,156.9064,0.0047884034,1442850,-1417,886,-1550,8283
48110023,4001,0,1.4076396,-0.43086618,-11.57857,-0.01681648,-0.014890617,-0.011373875,57.925205,156.9064,0.0047884034,1442850,2304,815,473,8276
48214048,4025,0,0.48501766,-0.3614388,-10.396161,-0.024164245,0.008172185,-0.024986656,57.939056,156.9064,0.0047884034,1442850,2505,-484,-995,8281
48314028,4006,0,-0.62943673,0.97222054,-9.309478,0.006544104,-0.00220174,-0.035105195,57.930748,156.9064,0.0047884034,1442850,-1161,-123,-2961,8278
48414022,3974,0,0.6642255,1.6489692,-10.4343815,-0.016671116,0.0045858244,-0.025933167,57.97784,156.9064,0.0047884034,1442850,2231,-497,-640,8295
48518031,4008,0,-0.105236426,1.0074034,-10.184417,0.014512258,-0.0010620017,-0.09503627,57.905815,156.9064,0.0047884034,1442850,49,-231,-3849,8269
48618023,4000,0,0.13532437,-0.07388113,-10.00934,-0.0066455095,0.0032926244,-0.047488466,57.930748,156.9064,0.0047884034,1442850,10,398,-3943,8278
48718038,4016,0,-0.46253338,-1.2255921,-11.0259075,-0.011729708,-0.010977782,-0.08875136,57.9446,156.9064,0.0047884034,1442850,-547,183,-3088,8283
48822022,3993,0,-0.8140694,-1.0383393,-9.590548,-0.020130372,-0.0027024166,-0.024702981,57.950138,156.9064,0.0047884034,1442850,189,-186,-2656,8285
48922023,4000,0,-0.62454456,0.39088365,-10.456774,0.01887424,0.015412611,-0.083249606,57.939056,156.9064,0.0047884034,1442850,-428,-1497,-2455,8281
49026054,4023,0,0.1753617,2.1322093,-8.169099,-0.001113731,-0.006547427,-0.031892106,57.96399,156.9064,0.0047884034,1442850,205,435,-4643,8290
49126038,4015,0,-0.42077023,1.2084532,-9.071352,0.024530448,0.001830834,-0.07459079,57.9446,156.9064,0.0047884034,1442850,-1747,-755,-3692,8283
49226022,3936,0,-0.9708065,-0.67101187,-8.416045,-0.016136209,0.0008547781,-0.08477692,57.98892,156.9064,0.0047884034,1442850,-534,-1097,-4331,8299
49330044,4022,0,-1.3768152,-0.9071251,-8.707741,-0.017242579,0.0029445249,-0.04469518,57.903046,156.9064,0.0047884034,1442850,-1303,-59,-3211,8268
49434823,3964,0,-0.71593213,1.7419844,-9.793678,0.0063235974,0.01726155,-0.09267407,57.9446,156.9064,0.0047884034,1442850,-699,-470,-1628,8283
49534823,3994,0,-1.131874,1.6629814,-8.588054,-0.002235741,0.010234458,-0.0698598,57.950138,156.9064,0.0047884034,1442850,-1803,-572,-3520,8285
49634825,3996,0,-1.0469793,1.1156511,-7.9363747,0.019821227,-0.014711965,-0.023729706,57.936287,156.9064,0.0047884034,1442850,-2143,277,-3329,8280
49738847,4024,0,-0.40565985,-1.3307409,-9.931453,0.007758569,0.0018574819,-0.031009361,57.950138,156.9064,0.0047884034,1442850,-975,-572,-860,8285
49838829,3970,0,-0.37481079,-1.4285222,-10.24236,0.02773048,0.001184179,-0.0148251895,57.941826,156.9064,0.0047884034,1442850,-802,-390,-1168,8282
49942823,3994,0,-0.07985573,1.7636751,-9.435221,0.017258765,0.005772291,-0.03282817,57.972298,156.9064,0.0047884034,1442850,-80,1285,547,8293
50042847,4024,0,1.2559994,1.4702904,-8.650056,-0.025684278,-0.0032564313,-0.009077965,57.96399,156.9064,0.0047884034,1442850,2801,702,-1970,8290
50142822,4000,0,-0.91548586,0.91940016,-8.712204,-0.0016219085,-0.010470255,-0.005510958,57.952908,156.9064,0.0047884034,1442850,-1040,1084,-412,8286
50246823,4001,0,-0.38765052,-1.2123888,-9.254667,-0.034176186,-0.0077800276,-0.080369234,57.950138,156.9064,0.0047884034,1442850,370,-113,-2842,8285
50346823,4001,0,0.48491752,-0.6232602,-10.120137,-0.027872903,-0.00053652393,0.005426196,57.991688,156.9064,0.0047884034,1442850,2032,269,-43,8300
50446822,3999,0,-0.58232826,-0.16905224,-10.566223,0.03701525,0.012575936,-0.03588116,57.98892,156.9064,0.0047884034,1442850,-1216,-75,-924,8299
50550830,4008,0,-0.26685157,1.8825889,-10.223636,-0.029204162,0.0046964856,-0.028118966,58.00831,156.9064,0.0047884034,1442850,1509,-511,-268,8306
50650822,4000,0,-0.006420608,2.1636553,-10.5005245,-0.0072548063,0.009638917,-0.023986636,57.991688,156.9064,0.0047884034,1442850,511,789,823,8300
50754822,3993,0,-0.7107907,-0.09109721,-10.160675,-0.022653077,-0.027096154,-0.0118421065,57.99446,156.9064,0.0047884034,1442850,141,1595,-796,8301
50854822,3942,0,0.5013465,-1.2161119,-10.191513,-0.008406987,-0.01508981,-0.023604147,57.98338,156.9064,0.0047884034,1442850,622,732,-1972,8297
50954822,3995,0,-0.5727901,-0.6367769,-10.192618,-0.020151777,0.0018291268,-0.020624701,57.98615,156.9064,0.0047884034,1442850,1018,-52,-2654,8298
51058829,3999,0,-0.53191835,0.25322053,-9.579145,-0.004255434,0.014740938,-0.025391985,57.98615,156.9064,0.0047884034,1442850,-617,-1487,-2446,8298
51158838,4016,0,-1.1205868,0.32484296,-9.466973,-0.031298805,0.0008336939,-0.058453538,58.01939,156.9064,0.0047884034,1442850,608,-995,-3090,8310
51259636,4013,0,-0.16986543,0.8094443,-10.006072,-0.023788592,-0.023346428,-0.009139172,58.0,156.9064,0.0047884034,1442850,1420,258,-1670,8303
51363623,4000,0,0.070633374,-0.89131373,-10.2688055,-0.008591309,-0.011568524,-0.025808068,58.00277,156.9064,0.0047884034,1442850,-53,507,-1927,8304
51467623,3954,0,-0.79456496,-1.913135,-10.668206,0.016090518,-0.0023387268,-0.033440962,57.99446,156.9064,0.0047884034,1442850,-581,37,-1931,8301
51567622,3991,0,-0.9025156,0.29899648,-10.804201,-0.001044101,0.024271557,-0.07754732,58.011078,156.9064,0.0047884034,1442850,528,-466,-1233,8307
51671634,4011,0,0.055233546,2.466481,-11.708064,-0.022494294,0.003431166,-0.005892873,57.991688,156.9064,0.0047884034,1442850,1333,-871,2674,8300
51771623,4001,0,-0.48559618,1.7268322,-10.814892,-0.0046396353,-0.002682878,-0.06513637,58.02493,156.9064,0.0047884034,1442850,266,1010,-1603,8312
51871631,4009,0,-0.5562284,0.7539485,-10.427466,0.010844031,-0.0038792845,-0.042152297,57.99446,156.9064,0.0047884034,1442850,-1790,404,-2009,8301
51975623,3994,0,0.06751056,-1.4422032,-10.860744,-0.025995519,-0.011800885,0.0021556835,58.00554,156.9064,0.0047884034,1442850,1172,374,-882,8305
52075657,4035,0,-0.53886515,-0.94118917,-10.556527,0.004562784,-0.0035890606,-0.039875604,58.0277,156.9064,0.0047884034,1442850,82,-1062,-1081,8313
52179629,4006,0,0.01504009,0.63499516,-11.9121275,-0.00922078,0.004743929,-0.03667337,58.00554,156.9064,0.0047884034,1442850,1119,-31,900,8305
52283622,4000,0,-0.8305617,1.1937575,-9.708113,-0.0076471507,-0.0016007253,-0.07714045,58.02493,156.9064,0.0047884034,1442850,-1149,-105,-3556,8312
52383622,4000,0,0.9017358,1.1115863,-10.770956,0.028357606,-0.023592107,-0.022201993,58.00554,156.9064,0.0047884034,1442850,-367,1539,-308,8305
52483622,3986,0,-0.28876367,-0.6255469,-9.904445,0.022271648,0.0011171903,-0.05658023,58.03324,156.9064,0.0047884034,1442850,-1512,-204,-2780,8315
52587652,4017,0,-0.040930063,-0.6799658,-9.797664,-0.028011136,0.008384324,-0.08076851,58.03601,156.9064,0.0047884034,1442850,1082,344,-3891,8316
53400422,3999,0,-0.9509475,1.2856634,-9.537591,0.01170728,0.0003413433,-0.05019587,58.01939,156.9064,0.0047884034,1442850,-900,117,-1866,8310
53500423,4000,0,1.2944592,0.8709704,-10.180987,-0.0027377298,0.0021988838,-0.06812966,58.04432,156.9064,0.0047884034,1442850,1575,966,-2566,8319
53600422,3967,0,-0.49834204,-0.8216851,-9.298421,0.016662126,-0.021434871,-0.024422416,58.03047,156.9064,0.0047884034,1442850,-1016,874,-3191,8314
53704443,4021,0,-0.873361,-1.5192516,-7.9647326,0.009541066,0.003146281,-0.055305094,58.0554,156.9064,0.0047884034,1442850,-422,-1392,-5720,8323
53804433,4011,0,-1.4194719,0.19088428,-10.53831,0.00090289325,0.018033044,-0.022913158,58.04432,156.9064,0.0047884034,1442850,-610,-579,87,8319
53908422,3984,0,-1.3655527,1.5923764,-8.723034,-0.01808156,0.016457822,-0.018677121,58.03324,156.9064,0.0047884034,1442850,-975,-799,-2457,8315
54012422,3999,0,-0.5194801,1.7015955,-11.329903,0.019625576,-2.2669323e-05,-0.068339124,58.03878,156.9064,0.0047884034,1442850,-1685,1046,-668,8317
54112437,4014,0,0.9181503,-0.01577509,-10.485436,0.0029317718,-0.004215844,-0.06339681,58.07479,156.9064,0.0047884034,1442850,999,1398,-2484,8330
54216444,4015,0,0.87608945,-0.9207226,-9.618418,-0.015186196,0.004197763,-0.039181605,58.03047,156.9064,0.0047884034,1442850,2254,-223,-2245,8314
54316454,4032,0,-0.42404774,0.09243961,-10.514859,0.022854611,0.0022677311,-0.075697675,58.03601,156.9064,0.0047884034,1442850,-1057,-86,-2076,8316
54416422,3999,0,0.1087031,1.6754428,-10.58476,3.4793513e-05,0.004296077,-0.07634601,58.07479,156.9064,0.0047884034,1442850,666,879,-1614,8330
54520422,4000,0,0.75948167,0.8405796,-8.898327,-0.032563545,-0.0033425887,-0.021648265,58.049862,156.9064,0.0047884034,1442850,1965,267,-2751,8321
54620422,3988,0,-1.7139196,0.16796102,-9.3158,0.017654352,0.0057440726,-0.041878298,58.049862,156.9064,0.0047884034,1442850,-1734,-652,-4178,8321
54721223,3979,0,-0.36349744,0.10232136,-11.400362,0.004160724,0.002815764,-0.07564419,58.069252,156.9064,0.0047884034,1442850,-1147,1048,-1628,8328
54825223,3960,0,-0.6953304,-1.6253539,-8.935682,-0.034057796,0.002557844,-0.01246109,58.07202,156.9064,0.0047884034,1442850,513,-1179,-2796,8329
54925229,4006,0,-0.57514614,-0.7191294,-8.237441,0.009393226,0.014778507,-0.016275218,58.083103,156.9064,0.0047884034,1442850,-510,-1328,-4220,8333
55025229,4007,0,0.77108276,1.3218496,-9.418946,-0.004767631,0.0066239093,-0.05975352,58.07479,156.9064,0.0047884034,1442850,1005,554,-3704,8330
55129222,4000,0,-0.545689,0.76664823,-8.01055,0.01701691,0.001811651,-0.07364498,58.099724,156.9064,0.0047884034,1442850,-971,120,-5981,8339
55229222,3996,0,1.2255074,0.32516494,-9.169987,-0.00073624076,-0.0073500914,-0.06236303,58.083103,156.9064,0.0047884034,1442850,1436,855,-2570,8333
55329222,3998,0,-0.4069978,-0.8220468,-9.237125,-0.017420473,-0.008016317,-0.006542086,58.124653,156.9064,0.0047884034,1442850,-596,-281,-1847,8348
55433237,4014,0,-0.35351783,-1.2516807,-9.349915,0.0061496743,0.006899193,-0.02771277,58.088642,156.9064,0.0047884034,1442850,-839,-1905,-2894,8335
55533222,3999,0,-0.5893371,-0.12128127,-9.245186,-0.009567721,-0.0013341194,-0.0846964,58.1108,156.9064,0.0047884034,1442850,-251,-183,-3716,8343
55637222,4000,0,0.12998663,0.76818943,-8.116893,0.007972652,0.02785445,-0.072096884,58.108032,156.9064,0.0047884034,1442850,-164,-605,-5914,8342
55741222,4000,0,-1.696871,-0.13612352,-9.7523,0.020816159,0.0036677953,-0.08236936,58.121883,156.9064,0.0047884034,1442850,-1674,262,-4206,8347
55841222,3981,0,0.42518184,-0.5065445,-9.87799,-0.0054569244,0.013935964,-0.033433676,58.102493,156.9064,0.0047884034,1442850,-19,-1140,-2721,8340
55945261,4039,0,0.103669554,-0.16925761,-10.713272,0.023625337,0.0014407022,-0.0021332796,58.09141,156.9064,0.0047884034,1442850,-1566,-350,-636,8336
56045228,4006,0,-0.51003724,1.1571889,-9.416749,0.0023370052,0.011873606,-0.09393296,58.132965,156.9064,0.0047884034,1442850,-190,-99,-4460,8351
56145236,4009,0,0.44712323,0.15115762,-9.231092,-0.01061015,-0.0051497025,0.0035443648,58.07479,156.9064,0.0047884034,1442850,1083,-576,368,8330
56249264,4035,0,-0.7596262,0.30449533,-10.105061,0.0017149337,-0.011627197,-0.053231817,58.138504,156.9064,0.0047884034,1442850,-359,476,18,8353
56349222,4000,0,0.24570651,0.5370757,-9.919923,0.0028883878,-0.017920095,0.0053308974,58.11357,156.9064,0.0047884034,1442850,-394,20,-1399,8344
56449260,4038,0,1.6334766,-0.541995,-10.131509,-0.0014794236,0.010154276,-0.09998481,58.152355,156.9064,0.0047884034,1442850,1425,151,-4642,8358
56554023,4000,0,0.6235704,-0.027279673,-10.190327,0.006755937,0.02176562,-0.026015647,58.193905,156.9064,0.0047884034,1442850,803,-1358,-96,8373
56654023,3994,0,-1.2373338,0.8078492,-8.515727,-0.024314012,0.007966148,-0.00038082618,58.135735,156.9064,0.0047884034,1442850,-432,-689,-2000,8352
56754049,4002,0,0.084006555,1.4744068,-9.47381,0.010613499,0.013614365,-0.036060274,58.13019,156.9064,0.0047884034,1442850,-435,-52,-2814,8350
56858022,3996,0,-0.15101548,0.64682055,-10.675121,0.02112312,-0.003926832,-0.07683782,58.152355,156.9064,0.0047884034,1442850,-571,243,-1774,8358
56958029,3975,0,0.6665048,-1.0436531,-9.5984125,-0.009972986,-0.014235748,-0.05073257,58.116344,156.9064,0.0047884034,1442850,1330,403,-1710,8345
57062067,4038,0,0.06333297,-1.0126501,-9.573199,-0.005693591,0.0004315651,0.012142727,58.155125,156.9064,0.0047884034,1442850,955,-1137,-16,8359
57162022,3999,0,0.113636896,0.902667,-11.835026,-0.021482155,0.0016086573,-0.020889565,58.152355,156.9064,0.0047884034,1442850,1156,-18,2442,8358
57262023,3975,0,1.2751069,1.3124977,-10.391751,0.019732324,0.015605571,-0.057728607,58.157894,156.9064,0.0047884034,1442850,1079,-749,-788,8360
57366023,4001,0,0.79345155,0.95382655,-10.085888,-0.0048767673,0.0047983695,-0.019704435,58.168976,156.9064,0.0047884034,1442850,181,-504,-1126,8364
57466029,4006,0,-0.19041999,0.15614778,-10.410082,0.00855683,-0.00082632934,-0.022164494,58.174515,156.9064,0.0047884034,1442850,-677,385,-2355,8366
57566049,4026,0,0.09977437,-1.0512943,-11.249257,-0.021739386,-0.00043302123,-0.03310182,58.171745,156.9064,0.0047884034,1442850,421,-776,-317,8365
57670022,4000,0,-0.908812,-0.9261012,-9.768852,-0.015555467,0.01015789,-0.007908412,58.191135,156.9064,0.0047884034,1442850,-951,-1305,-1443,8372
57770023,4001,0,-0.067599006,0.3227097,-9.540744,-0.036489293,-0.0007466397,-0.022103388,58.204987,156.9064,0.0047884034,1442850,1533,-847,-1281,8377
57874054,4019,0,-0.99577975,2.196743,-10.313865,-0.027173674,0.011560768,-0.04655603,58.182823,156.9064,0.0047884034,1442850,-733,-506,-1465,8369
57974022,3993,0,0.48095796,0.96298444,-10.825092,-0.022362709,-0.021971196,-0.015812347,58.185596,156.9064,0.0047884034,1442850,1727,1367,-282,8370
58074022,3974,0,1.1746287,-0.24662565,-9.535905,0.0003312463,-0.013922911,-0.053489864,58.171745,156.9064,0.0047884034,1442850,513,1073,-3900,8365
58178041,4018,0,-1.1328753,-0.710125,-10.654407,0.018602706,0.0042923633,-0.04209298,58.196674,156.9064,0.0047884034,1442850,-1924,656,-1437,8374
58278029,4006,0,-0.44975507,-0.5959545,-10.034443,-0.015571373,-0.0018890905,0.00065287016,58.218838,156.9064,0.0047884034,1442850,864,-387,-839,8382
58378049,4021,0,-1.3792719,1.302544,-10.351134,0.02421252,0.015414735,-0.06757271,58.193905,156.9064,0.0047884034,1442850,-2464,151,-1452,8373
58482823,4000,0,1.0442002,1.3591857,-10.685345,0.007249649,0.0076825502,-0.066888295,58.216064,156.9064,0.0047884034,1442850,1598,324,-989,8381
58582859,4037,0,-0.44113472,0.28665003,-8.52304,-0.020144708,-0.002581366,-0.04931263,58.216064,156.9064,0.0047884034,1442850,-65,468,-5013,8381
58682828,4006,0,0.34475318,-0.3977678,-11.723005,0.008325572,-0.012463555,-0.04241193,58.210526,156.9064,0.0047884034,1442850,-343,565,1133,8379
58786823,3982,0,-0.543571,-0.50048447,-10.841876,0.027902538,0.009792811,-0.049652062,58.249306,156.9064,0.0047884034,1442850,-1005,-223,14,8393
58886832,4003,0,-0.53052264,0.25002408,-8.396299,0.005166912,0.01114229,-0.025413271,58.221607,156.9064,0.0047884034,1442850,-617,-540,-3519,8383
58986847,4025,0,0.102779694,1.1708938,-10.342494,0.030043595,-0.013825556,-0.022554534,58.224377,156.9064,0.0047884034,1442850,-535,414,616,8384
59090833,4011,0,1.414416,1.0148978,-10.682976,0.008271283,-0.0058298344,-0.042811587,58.191135,156.9064,0.0047884034,1442850,1421,1305,-863,8372
59190822,3996,0,0.6914721,-0.3889465,-8.199191,-0.020750802,0.00016740628,-0.06372736,58.240997,156.9064,0.0047884034,1442850,1177,355,-6022,8390
59294824,4001,0,-1.1074758,-1.4008285,-9.74262,-0.019820727,0.0038243157,-0.01484966,58.265926,156.9064,0.0047884034,1442850,-104,-155,-1454,8399
59394823,3960,0,-1.1483554,0.036552414,-11.004326,0.03260361,0.0088888975,-0.04850496,58.285316,156.9064,0.0047884034,1442850,-2265,-149,-336,8406
59494822,4000,0,-0.266296,0.5439137,-9.006377,0.005524691,0.013407034,-0.0176574,58.240997,156.9064,0.0047884034,1442850,95,-617,-2406,8390
59598835,4013,0,1.5218064,1.1437627,-9.634299,-0.013497454,0.0026182649,-0.042919498,58.27424,156.9064,0.0047884034,1442850,2209,-131,-2318,8402
59698822,3993,0,0.34201688,0.49467272,-9.430666,-0.028119072,-0.021075465,-0.023163471,58.25485,156.9064,0.0047884034,1442850,843,1282,-3351,8395
59798822,3993,0,-0.008018411,-0.8604616,-11.967857,-0.0074224044,0.0004052614,-0.057362933,58.25485,156.9064,0.0047884034,1442850,417,5,157,8395
59902843,4021,0,-0.58950245,-0.29811227,-9.759082,0.028946575,0.0042770607,-0.06673793,58.265926,156.9064,0.0047884034,1442850,-1329,176,-2370,8399
60002868,4041,0,0.75203884,0.39852202,-9.084637,-0.008177536,0.0034865786,-0.029883184,58.227146,156.9064,0.0047884034,1442850,2015,-685,-1537,8385
60106822,3999,0,-0.09163524,1.4227245,-10.134613,0.0034037672,-0.0019848212,-0.037236415,58.282547,156.9064,0.0047884034,1442850,-285,116,-1339,8405
60207623,4000,0,0.71425396,0.6072161,-9.755834,-0.0006549823,-0.019738289,0.0047997236,58.277008,156.9064,0.0047884034,1442850,696,1197,-1536,8403
60307622,3999,0,-0.17669784,-1.0638837,-10.3214035,-4.8725167e-05,-0.017721105,-0.06554867,58.25485,156.9064,0.0047884034,1442850,-142,963,-2897,8395
60411623,4000,0,-0.23372693,-1.0592307,-10.56061,-0.0004795601,-0.00027863547,0.011071841,58.299168,156.9064,0.0047884034,1442850,230,-79,-280,8411
60511623,3965,0,-0.47242495,0.03459394,-9.13295,0.019930974,-0.0055598165,0.007367548,58.27147,156.9064,0.0047884034,1442850,-205,116,-2773,8401
60611634,4006,0,0.5604826,0.65691876,-8.81523,-0.00010795519,-0.0030019619,-0.04327981,58.265926,156.9064,0.0047884034,1442850,236,-419,-3733,8399
60715629,4007,0,0.7729774,1.451292,-10.064513,4.6096276e-05,0.015075888,-0.0442049,58.279778,156.9064,0.0047884034,1442850,1229,-363,-1729,8404
60815636,4014,0,0.9328745,0.8852258,-10.559354,-0.01540113,0.004980938,-0.040427133,58.29363,156.9064,0.0047884034,1442850,1891,765,-1013,8409
60915626,3999,0,0.21039027,-0.6091332,-11.185871,-0.024243547,0.0052741277,-0.039703455,58.31302,156.9064,0.0047884034,1442850,718,176,-343,8416
61019633,4010,0,-0.43077537,-0.9967913,-9.506626,-0.0016453613,0.0014382738,-0.05099429,58.28809,156.9064,0.0047884034,1442850,14,-663,-2754,8407
61119653,4031,0,-0.92100626,-0.59585357,-9.68379,0.01618177,0.017080901,-0.052426122,58.25485,156.9064,0.0047884034,1442850,-1363,-1492,-3367,8395
61223627,4005,0,-0.011239933,2.0694625,-10.254724,-0.025987748,-0.0010469849,-0.0100981025,58.33241,156.9064,0.0047884034,1442850,1290,700,520,8423
61327623,4000,0,-0.6611629,-0.07073313,-9.659064,-0.013833869,-0.018498464,-0.080529705,58.30471,156.9064,0.0047884034,1442850,-696,469,-4394,8413
61427622,3955,0,-0.24692465,-0.88483423,-10.331651,-0.0073007676,-0.012138506,-0.03851966,58.301937,156.9064,0.0047884034,1442850,-704,1274,-2342,8412
61531623,3991,0,-0.6011929,-1.8225937,-9.744023,0.009519341,0.0043317615,-0.063093916,58.30748,156.9064,0.0047884034,1442850,-1494,-1316,-4106,8414
61631627,4005,0,-1.5024608,0.14896409,-10.147878,-0.018110005,0.003732559,-0.068125755,58.29086,156.9064,0.0047884034,1442850,-677,-655,-2628,8408
61731622,3993,0,0.43106836,1.0191685,-9.983997,0.0056286124,0.0049834996,-0.010969546,58.282547,156.9064,0.0047884034,1442850,1364,129,36,8405
61835622,4000,0,1.0803782,2.6268954,-9.806039,0.0065657236,-0.0010212143,-0.063754246,58.279778,156.9064,0.0047884034,1442850,1809,541,-2848,8404
61935629,4007,0,-0.9917872,1.184985,-10.156721,0.017809266,-0.0025203684,-0.03312406,58.282547,156.9064,0.0047884034,1442850,-2292,147,-1581,8405
62035654,4032,0,1.0060669,-0.101655945,-9.605993,-0.033413045,-0.015818102,-0.01706339,58.29086,156.9064,0.0047884034,1442850,1928,358,-2204,8408
62140423,3997,0,0.76451916,-1.2235999,-10.308027,-0.03182416,-0.0019969605,0.004626888,58.30748,156.9064,0.0047884034,1442850,1631,257,225,8414
62240423,4000,0,-1.9275248,-2.5083706,-10.080329,0.014978355,0.01813908,-0.058289867,58.33518,156.9064,0.0047884034,1442850,-1945,-1918,-1598,8424
62340423,4000,0,-0.33829635,0.28044167,-10.227229,-0.031786025,0.0117271235,-0.038488846,58.318558,156.9064,0.0047884034,1442850,1369,89,-239,8418
62444423,4001,0,-0.029432159,1.4523612,-9.262159,-0.03077608,0.01557398,-0.08291373,58.31579,156.9064,0.0047884034,1442850,381,-1163,-2041,8417
62544422,3993,0,0.6183027,2.1781175,-9.933195,-0.020686887,-0.019041859,-0.015098305,58.299168,156.9064,0.0047884034,1442850,2294,1104,-21,8411
62644422,3983,0,0.26311213,1.0657604,-9.574027,0.024062622,-0.0029800804,-0.05292593,58.32687,156.9064,0.0047884034,1442850,-958,392,-2951,8421
62748454,4032,0,0.65685296,-1.247394,-9.885322,0.0034366194,-0.002022679,-0.030383151,58.34903,156.9064,0.0047884034,1442850,1353,158,-1966,8429
62848437,4006,0,-1.6268555,-1.6050302,-11.361665,0.007948317,0.004766268,-0.058760658,58.33518,156.9064,0.0047884034,1442850,-2149,-76,345,8424
62952433,4011,0,-0.6219704,0.8828295,-9.628698,0.012778339,0.013228118,-0.071350336,58.34903,156.9064,0.0047884034,1442850,-527,-885,-2391,8429
63056429,4006,0,0.42111355,1.8753519,-9.549066,0.0028994328,-0.008738544,-0.05161733,58.35457,156.9064,0.0047884034,1442850,719,-233,-1991,8431
63156428,3991,0,0.20571934,0.9178781,-10.468859,0.020302463,0.0004807266,-0.07559625,58.35734,156.9064,0.0047884034,1442850,-879,412,-1082,8432
63260423,4001,0,0.38038504,-1.3325793,-10.349473,-0.01680715,0.004643673,-0.06407562,58.32687,156.9064,0.0047884034,1442850,2081,-498,-3941,8421
63360437,4015,0,0.65814805,-1.2057761,-11.153961,-0.0071422616,0.00330842,-0.010991539,58.36565,156.9064,0.0047884034,1442850,1371,65,724,8435
63460431,4008,0,-0.43229473,-0.86353153,-9.99156,-0.016377414,0.014649997,-0.020310253,58.34349,156.9064,0.0047884034,1442850,1154,-1043,-744,8427
63564423,4000,0,-0.5036463,2.0348597,-9.4280815,-0.00872454,0.009700774,-0.013521101,58.34072,156.9064,0.0047884034,1442850,-742,-260,-988,8426
63664422,4000,0,-0.59515977,2.0157998,-8.408038,-0.014465019,0.0016911477,-0.05906003,58.32687,156.9064,0.0047884034,1442850,-84,-114,-5478,8421
63764429,4001,0,-0.99226177,0.9350462,-9.891295,-0.011078874,0.0013234103,-0.04156084,58.33241,156.9064,0.0047884034,1442850,-645,317,-2818,8423
63868422,4000,0,-0.6578693,-1.6238794,-9.999289,0.018703561,-0.015397664,-0.030704727,58.38227,156.9064,0.0047884034,1442850,-1618,318,-2498,8441
63968429,4007,0,-0.139177,-1.4211135,-9.220865,0.0035092563,-0.0042238655,-0.042466525,58.318558,156.9064,0.0047884034,1442850,20,37,-1994,8418
64373223,4000,0,0.29548684,0.96823543,-9.235614,0.023425536,-0.0105592385,-0.06489029,58.36011,156.9064,0.0047884034,1442850,-98,-38,-3717,8433
64477247,4025,0,-0.31719637,-1.3964937,-10.8722,-0.005691779,-0.014588963,-0.060626812,58.37673,156.9064,0.0047884034,1442850,-496,789,-2008,8439
64577223,3994,0,0.022420624,-1.8101625,-12.024293,0.00975484,-0.004466355,-0.016884554,58.34903,156.9064,0.0047884034,1442850,329,22,1280,8429
64681222,4000,0,0.26967832,-0.38416597,-10.182323,-0.0056632445,-0.007860412,-0.038689174,58.37673,156.9064,0.0047884034,1442850,1657,-222,-1734,8439
64785222,3993,0,-0.7456193,1.958125,-8.452755,0.01943931,-0.005012808,-0.03916911,58.38227,156.9064,0.0047884034,1442850,-1571,378,-2315,8441
64885222,3946,0,0.1726153,1.1056315,-10.557328,0.005207457,-0.009714531,-0.0048929965,58.34903,156.9064,0.0047884034,1442850,452,0,1385,8429
64989226,3954,0,1.2775474,-0.763886,-11.075195,-0.024413064,-0.02189663,-0.01940434,58.38227,156.9064,0.0047884034,1442850,2497,370,-663,8441
65089228,4006,0,-1.1739504,-1.0994475,-11.108449,-0.0072655785,0.0029339895,-0.08022414,58.373962,156.9064,0.0047884034,1442850,-967,-238,-1510,8438
65189229,4007,0,-1.6307443,-0.9208311,-9.326741,-0.018729331,0.018157952,-0.02384565,58.36011,156.9064,0.0047884034,1442850,-405,-1029,-3461,8433
65293261,4039,0,-0.5000669,0.93972915,-8.198944,0.017293941,0.024418466,-0.045517392,58.39058,156.9064,0.0047884034,1442850,-988,-1495,-5102,8444
65393261,4039,0,0.32585242,1.5707612,-8.603087,-0.0067660715,-0.006902097,-0.0075506736,58.39058,156.9064,0.0047884034,1442850,1155,-434,-2209,8444
65493222,3998,0,0.9439628,1.4543431,-10.862201,0.022541778,-0.007496343,-0.032520752,58.40166,156.9064,0.0047884034,1442850,549,505,852,8448
65597254,4032,0,0.99538577,-0.8390638,-11.747086,-0.02629121,-0.023317141,-0.032839984,58.373962,156.9064,0.0047884034,1442850,2347,583,110,8438
65697222,4000,0,0.5859255,-1.2332487,-10.005704,-0.022782473,0.00486421,-0.091002405,58.415512,156.9064,0.0047884034,1442850,1840,-612,-4249,8453
65801222,3999,0,-1.4182875,-0.15766442,-10.470964,0.008790163,0.0022605616,-0.04461576,58.40443,156.9064,0.0047884034,1442850,-870,-1132,-662,8449
65905222,4000,0,0.60181224,1.0519929,-8.977174,0.009119294,-0.012364509,-0.038681705,58.38781,156.9064,0.0047884034,1442850,963,-340,-2170,8443
66005222,3993,0,-0.69392717,1.1359375,-9.594888,0.03515783,0.006090218,-0.069679394,58.43767,156.9064,0.0047884034,1442850,-1925,-508,-2907,8461
66106075,4052,0,-0.4420395,-0.31817323,-8.70815,-0.001435599,-0.0057771406,-0.017974887,58.37673,156.9064,0.0047884034,1442850,-578,96,-3164,8439
66210029,4006,0,0.34115705,-1.0799071,-9.544344,-0.014382184,0.007794833,-0.0065777185,58.40166,156.9064,0.0047884034,1442850,1303,-264,-1222,8448
66310022,3999,0,0.32903445,-0.32192284,-9.917137,0.008002065,0.012436256,-0.0794005,58.40166,156.9064,0.0047884034,1442850,994,-117,-2973,8448
66414048,3979,0,-0.5151523,2.3119245,-9.8967495,0.0013791742,0.017971892,-0.0707802,58.36842,156.9064,0.0047884034,1442850,-494,-529,-1848,8436
66514032,3963,0,-0.6407399,1.6102521,-8.679206,-0.011371703,0.00013062006,-0.017146401,58.432133,156.9064,0.0047884034,1442850,-875,54,-3203,8459
66614023,3975,0,-0.4605394,0.67979085,-10.546153,0.033304185,-0.013384455,-0.029917127,58.42105,156.9064,0.0047884034,1442850,-1360,348,-717,8455
66718022,3999,0,-0.0547665,-1.1221837,-10.124062,-0.015823642,-0.024032895,-0.05215943,58.396122,156.9064,0.0047884034,1442850,686,840,-1695,8446
66818022,3993,0,-0.49490947,-1.3876964,-11.06664,-0.007607136,-0.0038967773,0.008056659,58.426594,156.9064,0.0047884034,1442850,237,-109,639,8457
66918049,4002,0,-0.6930527,-0.76386154,-9.849343,0.028069504,0.0038134495,-0.02555578,58.412743,156.9064,0.0047884034,1442850,-1173,-491,-1160,8452
67022029,3993,0,-0.8546346,1.4446993,-8.197785,-0.021079823,0.0042294194,-0.03833518,58.415512,156.9064,0.0047884034,1442850,-237,-695,-4042,8453
67122029,4007,0,-0.29923284,1.7633951,-8.675217,0.030188363,-0.010257544,-0.035653427,58.40443,156.9064,0.0047884034,1442850,-1511,-69,-3197,8449
67226048,4025,0,0.58318937,-0.67984957,-9.157546,-0.032793187,-0.010053572,-0.04372136,58.4072,156.9064,0.0047884034,1442850,1379,209,-2847,8450
67330029,4006,0,0.178276,-1.3815707,-10.857132,0.022409737,0.014727872,-0.061254643,58.451523,156.9064,0.0047884034,1442850,61,-852,-1363,8466
67430029,3996,0,-0.4702591,-0.49944076,-9.864397,-0.030081816,0.013433798,-0.059615593,58.44044,156.9064,0.0047884034,1442850,1062,-333,-3898,8462
67530022,3995,0,-1.0197263,0.112649016,-9.042712,-0.0011463873,0.018968776,-0.05375083,58.41828,156.9064,0.0047884034,1442850,-1357,-948,-4408,8454
67634053,4030,0,-0.2098198,1.5355085,-9.501565,-0.031682443,0.0058137863,-0.07010636,58.468143,156.9064,0.0047884034,1442850,1946,-648,-2572,8472
67734022,3974,0,-0.99313587,1.5824145,-8.492372,-0.0013242695,0.0044075493,-0.033542294,58.415512,156.9064,0.0047884034,1442850,-1156,-19,-5084,8453
67838031,4008,0,1.1998739,-0.5372031,-10.105129,-0.0029136091,-0.00034598482,-0.057822593,58.443214,156.9064,0.0047884034,1442850,1934,-179,-2480,8463
67938832,4009,0,-0.304428,-1.3444456,-8.932876,-0.023503397,-0.0056220316,-0.0028523272,58.43767,156.9064,0.0047884034,1442850,399,421,-3129,8461
68042832,4009,0,0.33300072,-0.20988888,-9.469361,-0.013628086,0.017684162,-0.030948216,58.445984,156.9064,0.0047884034,1442850,2209,-522,-2193,8464
68142829,3982,0,-0.67623556,1.3540971,-10.102242,-0.015884083,-0.0068162708,0.010782245,58.429363,156.9064,0.0047884034,1442850,295,550,-463,8458
68246854,4026,0,1.4200656,1.0007808,-10.143832,0.014242675,-0.014102675,-0.019581161,58.45983,156.9064,0.0047884034,1442850,1547,1397,-719,8469
68346864,4042,0,0.045239992,-0.52450824,-10.479254,-0.028610079,-0.0046461658,-0.06132033,58.43767,156.9064,0.0047884034,1442850,357,-147,-539,8461
68450829,4007,0,0.34637308,-1.3549292,-10.9007015,0.018384999,0.0017626493,-0.055347685,58.448753,156.9064,0.0047884034,1442850,430,-368,-1210,8465
68554822,3999,0,-1.4072895,0.9453104,-10.272993,0.015223585,0.017883526,-0.046624877,58.454292,156.9064,0.0047884034,1442850,-2391,290,-786,8467
69978822,3990,0,0.12736085,0.981725,-9.591865,-0.026137177,0.0013255039,-0.03231754,58.462605,156.9064,0.0047884034,1442850,993,328,-2519,8470
70078830,4007,0,0.98043793,-0.12707576,-9.755689,-0.018981332,0.00018053436,-0.054384053,58.501385,156.9064,0.0047884034,1442850,2095,47,-3273,8484
70183623,4000,0,-0.43127906,-1.2496759,-10.27279,-0.006770842,-0.0144852735,-0.037165485,58.470913,156.9064,0.0047884034,1442850,-207,268,-2389,8473
70283648,4026,0,-0.32695693,-0.12915911,-9.342572,-0.018786281,-0.0043664677,-0.010386661,58.473682,156.9064,0.0047884034,1442850,395,-231,-1317,8474
70383630,3964,0,-0.13222528,0.1417532,-9.027944,-0.028473288,0.0026354706,-0.028921802,58.504154,156.9064,0.0047884034,1442850,1591,-804,-2666,8485
70487623,3995,0,-0.6498699,2.3579025,-10.003576,0.002261239,-0.001925564,-0.02971481,58.520775,156.9064,0.0047884034,1442850,-1289,485,-1674,8491
70587623,4001,0,-0.5470813,0.6230253,-8.595637,0.0036353501,-0.0037716557,-0.033952154,58.468143,156.9064,0.0047884034,1442850,-792,-525,-3368,8472
70687623,4000,0,0.046465944,-0.45867148,-9.557217,-0.023689803,-0.0040400615,-0.053128384,58.484764,156.9064,0.0047884034,1442850,21,-612,-1961,8478
70791622,4000,0,-0.620921,-1.1494892,-10.760044,-0.017873522,-0.008887876,-0.03683401,58.465374,156.9064,0.0047884034,1442850,-55,11,-1883,8471
70891622,4000,0,0.13718815,-0.94789904,-9.465283,-0.022460807,0.011754467,-0.00630521,58.501385,156.9064,0.0047884034,1442850,1598,-1079,-214,8484
70995623,3990,0,-1.1774429,1.6558496,-9.437917,-0.025865994,0.017829968,-0.053121105,58.443214,156.9064,0.0047884034,1442850,-295,-653,-2160,8463
71095622,3999,0,-0.056760404,2.5272293,-10.580013,-0.026133783,-0.0021665203,-0.0354273,58.487534,156.9064,0.0047884034,1442850,1261,898,745,8479
71195622,3999,0,0.77227217,1.2006339,-10.455838,-0.00067531224,-0.012094615,-0.017956689,58.47645,156.9064,0.0047884034,1442850,1043,555,1143,8475
71299631,4002,0,0.9217073,-1.5846239,-10.077259,-0.02613554,0.0061023952,-0.054553352,58.487534,156.9064,0.0047884034,1442850,2132,-912,-2745,8479
71399630,3994,0,-0.21897149,-2.4824357,-10.444766,0.016298767,0.015323696,-0.08166757,58.501385,156.9064,0.0047884034,1442850,193,-1248,-2265,8484
71499628,4006,0,-1.7529452,-1.1064674,-10.705703,0.0029282481,0.007311412,-0.06550235,58.465374,156.9064,0.0047884034,1442850,-1477,-789,-581,8471
71603628,4006,0,-0.95824504,1.6159323,-8.794913,0.016974676,0.019256545,-0.02655366,58.484764,156.9064,0.0047884034,1442850,-1792,-1073,-3333,8478
71703622,4000,0,-0.3024454,1.7685791,-8.650299,-0.03117323,0.013737799,-0.061471917,58.506924,156.9064,0.0047884034,1442850,1032,-661,-4284,8486
71807623,4001,0,-0.45866287,0.5999106,-9.173917,-0.014189201,-0.015218154,-0.016202107,58.509693,156.9064,0.0047884034,1442850,-231,867,-1756,8487
71907667,4015,0,1.2667274,-0.42436892,-9.896801,-0.008797165,-0.0064846743,-0.020756701,58.509693,156.9064,0.0047884034,1442850,1711,-164,-2887,8487
72108438,4015,0,-0.31161666,-1.7310463,-11.244707,0.014829426,0.009807301,-0.02663197,58.531857,156.9064,0.0047884034,1442850,341,-617,703,8495
72212423,4000,0,-0.15054703,0.96939546,-9.816461,-0.007631621,0.023528995,-0.053605597,58.548477,156.9064,0.0047884034,1442850,1051,-338,-672,8501
72312423,4001,0,-0.25080812,1.8314704,-10.502794,-0.008188352,0.006069375,-0.009215767,58.531857,156.9064,0.0047884034,1442850,856,542,300,8495
72416423,4000,0,-0.33104044,0.7403372,-8.747429,-0.025009708,-0.019363541,-0.03426923,58.554016,156.9064,0.0047884034,1442850,91,276,-4431,8503
72516422,3972,0,-0.7359283,-0.6777354,-9.251887,0.004696997,-0.0070915474,-0.0661082,58.515236,156.9064,0.0047884034,1442850,-1368,-650,-4338,8489
72616422,3999,0,-0.40465212,-1.5667863,-10.303641,-0.019828899,-0.0021485218,-0.08535349,58.534626,156.9064,0.0047884034,1442850,-275,-142,-3913,8496
72720422,3999,0,0.24063393,-0.4426839,-11.007307,0.012973834,-0.0023036094,-0.011910188,58.542934,156.9064,0.0047884034,1442850,1000,-34,23,8499
72820423,4001,0,-0.1918277,0.8293623,-10.918011,-0.020400375,0.012028098,-0.0348512,58.526314,156.9064,0.0047884034,1442850,1010,-644,563,8493
72920422,3997,0,-1.0066106,1.2070957,-8.760012,-0.01454133,0.021823367,-0.058242366,58.578945,156.9064,0.0047884034,1442850,-385,-1146,-4928,8512
73024429,4000,0,0.673406,0.92940205,-9.398973,-0.018495534,6.7038985e-05,-0.05731735,58.554016,156.9064,0.0047884034,1442850,1788,102,-4071,8503
73124422,3993,0,-0.39990994,-0.5995371,-10.09355,-0.0041178586,-0.0050760596,-0.071483165,58.548477,156.9064,0.0047884034,1442850,-114,-640,-3552,8501
73228428,4006,0,-0.6386924,-1.6776755,-9.19703,0.019485336,0.0070764488,-0.074928656,58.576176,156.9064,0.0047884034,1442850,-973,-1398,-4952,8511
73332422,3993,0,-1.4241756,0.9245463,-10.251704,0.008325376,0.012738666,-0.08233855,58.567867,156.9064,0.0047884034,1442850,-1541,-395,-2029,8508
73432437,4015,0,-1.0017043,1.5980458,-8.924124,-0.0050014257,0.01715976,-0.035411846,58.578945,156.9064,0.0047884034,1442850,-1208,-771,-3743,8512
73536477,4054,0,0.25854555,0.9767393,-8.555579,-0.018259745,-0.0023249346,-0.047806364,58.556786,156.9064,0.0047884034,1442850,1083,-303,-5687,8504
73636475,4053,0,0.4316828,-0.12583993,-10.225042,-0.013792858,-0.014153166,-0.045986872,58.556786,156.9064,0.0047884034,1442850,1163,414,-2343,8504
73736422,3999,0,0.2844863,-0.71209514,-11.222077,-0.010391461,-0.0027621419,-0.019080833,58.567867,156.9064,0.0047884034,1442850,1126,440,-410,8508
73840423,4001,0,0.40113652,0.21229617,-11.008648,0.007409257,0.013115097,-0.041301686,58.559555,156.9064,0.0047884034,1442850,900,405,-614,8505
73940422,3992,0,-0.61297196,0.9003488,-9.267075,-0.036080893,0.0069839135,-0.041230276,58.534626,156.9064,0.0047884034,1442850,806,-630,-2580,8496
74040446,4023,0,-1.2987363,1.2761929,-8.501698,0.00026081875,-0.005936278,-0.023646716,58.60111,156.9064,0.0047884034,1442850,-1566,53,-2500,8520
74144423,3994,0,1.0381969,-0.4462712,-9.962363,-0.018593095,-0.0094936155,-0.046775587,58.590027,156.9064,0.0047884034,1442850,1941,-140,-2051,8516
74244422,3993,0,-0.10762256,-1.3913798,-9.420358,-0.016474102,-0.012596846,-0.020621799,58.570637,156.9064,0.0047884034,1442850,533,457,-1861,8509
74345223,4000,0,0.06931657,-1.3996103,-8.853802,-0.031921033,-0.0007266066,-0.027883604,58.590027,156.9064,0.0047884034,1442850,1408,-453,-2827,8516
74449223,4001,0,0.2102427,1.4908762,-9.542357,0.020839058,0.009698565,-0.046666164,58.612186,156.9064,0.0047884034,1442850,308,-338,-3280,8524
74549222,3961,0,0.5428726,2.1407378,-8.83267,-0.02204451,0.011491133,-0.04780951,58.592796,156.9064,0.0047884034,1442850,2042,-520,-4428,8517
74653229,4007,0,0.30778188,0.74145585,-11.020841,0.030331116,-0.008010897,-0.026712127,58.609417,156.9064,0.0047884034,1442850,-957,983,75,8523
74753247,4025,0,1.4281337,0.22602351,-10.834034,-0.008805934,-0.015305971,-0.024447154,58.590027,156.9064,0.0047884034,1442850,2132,1737,-589,8516
74853222,4000,0,0.029250978,-0.81209433,-10.714038,-0.031600904,0.005449389,-0.047002185,58.595566,156.9064,0.0047884034,1442850,764,-232,21,8518
74957222,4000,0,-0.01230282,0.7205885,-10.122644,0.029132657,0.015663423,-0.048728436,58.612186,156.9064,0.0047884034,1442850,-495,80,-1444,8524
75061222,4000,0,-0.83895093,1.7296195,-10.044676,-0.011424916,0.011927785,-0.028436216,58.612186,156.9064,0.0047884034,1442850,-656,65,-885,8524
75161222,3999,0,-1.1597111,1.4309013,-8.502682,0.01776927,0.00069833826,-0.046476737,58.606647,156.9064,0.0047884034,1442850,-2207,-30,-3976,8522
75265226,3998,0,0.8698895,-1.5871273,-9.01819,-0.03407083,-0.0048156567,-0.054310698,58.60111,156.9064,0.0047884034,1442850,2152,-351,-4129,8520
75365222,3993,0,-0.022935618,-0.8616138,-9.515132,-0.035125535,-0.0049396874,-0.045786988,58.603878,156.9064,0.0047884034,1442850,1250,-505,-2839,8521
75465231,4009,0,-0.54604787,0.11661138,-11.341916,-0.0069459933,0.008802861,-0.052097626,58.65097,156.9064,0.0047884034,1442850,-36,-501,675,8538
75569278,4056,0,-0.5932184,1.8687105,-8.987432,0.022124968,-0.0014850113,-0.04605148,58.626038,156.9064,0.0047884034,1442850,-1306,313,-3495,8529
75669222,4000,0,0.463055,1.029783,-8.54271,0.017114056,-0.0037094161,-0.07231626,58.6205,156.9064,0.0047884034,1442850,-274,-267,-4453,8527
75769222,4000,0,1.1098179,0.4818763,-10.679989,-0.015553756,-0.015315028,-0.011828517,58.61773,156.9064,0.0047884034,1442850,2291,820,361,8526
75873239,4017,0,-0.7618866,-2.157191,-10.558301,0.011746224,-0.0014881296,-0.04054349,58.6205,156.9064,0.0047884034,1442850,-535,-937,-1289,8527
75973222,3952,0,-0.06048129,-1.342226,-9.177152,-0.009091474,0.016601391,-0.014636798,58.603878,156.9064,0.0047884034,1442850,619,-982,-2192,8521
76077222,3992,0,-0.77795684,1.0574567,-10.278933,-0.015739828,0.022438187,-0.045506753,58.61773,156.9064,0.0047884034,1442850,668,-1577,-1793,8526
76178023,3981,0,-0.91502935,2.5630977,-8.908806,0.028428745,0.009946326,-0.06902556,58.614956,156.9064,0.0047884034,1442850,-1958,4,-2856,8525
76278023,4000,0,0.4091133,1.8923354,-10.8103075,0.005932893,-0.00025170867,-0.087349266,58.626038,156.9064,0.0047884034,1442850,718,323,-1289,8529
76382042,4019,0,0.5297203,-0.43553934,-9.640553,0.002952907,-0.02502686,-0.025908245,58.63712,156.9064,0.0047884034,1442850,250,1131,-3762,8533
76482023,4000,0,-0.7109178,-1.9825672,-10.362357,-0.0052797897,-0.021102589,-0.03481791,58.65928,156.9064,0.0047884034,1442850,-877,-234,-1692,8541
76582023,3975,0,-0.15094216,-1.432464,-9.695134,0.015601934,0.0036347655,-0.038149558,58.65097,156.9064,0.0047884034,1442850,-108,-561,-2223,8538
76686023,4000,0,0.005409575,0.20291552,-10.261191,-0.0018078838,0.0060681165,-0.029570874,58.63989,156.9064,0.0047884034,1442850,1029,-39,-1020,8534
76786060,4036,0,-0.21473671,1.3512328,-10.582937,-0.013142156,0.013702319,-0.028354775,58.63712,156.9064,0.0047884034,1442850,803,-422,1417,8533
76886048,4026,0,0.7084193,2.0913754,-10.51876,-0.022703402,-0.0031018208,-0.021492312,58.648197,156.9064,0.0047884034,1442850,2191,915,-203,8537
76990023,3994,0,0.17355494,-0.18119277,-8.745313,-0.028060341,-0.022974594,-0.040277135,58.645428,156.9064,0.0047884034,1442850,565,1083,-5037,8536
77090022,3993,0,-0.083401665,-1.8058441,-8.955339,-0.024289189,-0.0066962307,-0.052495822,58.65374,156.9064,0.0047884034,1442850,400,-130,-4005,8539
77194048,4025,0,-1.4472718,-0.3754846,-10.588628,0.020047963,0.0077435765,-0.02458641,58.628807,156.9064,0.0047884034,1442850,-1930,-794,-1448,8530
77294029,4007,0,-0.35646397,0.78053254,-9.781185,0.0064642616,0.010787876,-0.047726315,58.664818,156.9064,0.0047884034,1442850,-823,-1303,-2440,8543
77394029,3981,0,-0.3318536,1.5495147,-9.143573,0.023755942,0.019747457,-0.051582776,58.65374,156.9064,0.0047884034,1442850,-1438,-764,-2069,8539
77498034,4011,0,0.5284059,1.186754,-10.5873995,-0.016719576,0.0018498268,-0.03601651,58.65928,156.9064,0.0047884034,1442850,1316,499,235,8541
77598022,3999,0,1.1618707,-0.2246753,-10.317382,0.014870148,0.0011059302,-0.05942223,58.66205,156.9064,0.0047884034,1442850,647,-543,-1785,8542
77698048,3993,0,1.1718162,-1.0569786,-9.86975,-0.024191625,0.00014543405,-0.055549704,58.66205,156.9064,0.0047884034,1442850,2318,-416,-3489,8542
77802059,4037,0,-1.1569799,-0.06457434,-10.065593,0.02225682,0.016121073,-0.05669274,58.65097,156.9064,0.0047884034,1442850,-1949,-983,-1731,8538
77902022,4000,0,-0.3646004,1.1685016,-9.513882,0.0050898595,0.023412019,-0.075749874,58.63435,156.9064,0.0047884034,1442850,-532,-790,-2955,8532
78006048,4013,0,0.60037434,2.350543,-10.210208,0.0024233041,-0.007570351,-0.010577916,58.68421,156.9064,0.0047884034,1442850,1128,350,-838,8550
78110022,3987,0,-1.1231169,-0.5912621,-9.257341,-0.0071353083,-0.012256077,-0.049459208,58.68421,156.9064,0.0047884034,1442850,-1345,144,-3563,8550
78210023,3984,0,-0.49361736,-1.0700289,-9.91075,0.020458288,-0.013858333,-0.02786861,58.6759,156.9064,0.0047884034,1442850,-1271,655,-932,8547
78314039,4016,0,-0.47333753,-0.5194924,-9.535998,-0.029838305,0.011581622,-0.024065789,58.68421,156.9064,0.0047884034,1442850,716,-1276,-2194,8550
78414827,4004,0,-0.39898595,1.3004088,-8.121987,-0.0100117745,0.015037558,-0.035315037,58.7036,156.9064,0.0047884034,1442850,104,-352,-5109,8557
78514823,3999,0,-0.6178315,1.9543458,-8.398515,-0.022714969,0.0014257856,-0.018586833,58.68144,156.9064,0.0047884034,1442850,-321,83,-2296,8549
78614823,4000,0,-0.46937498,1.6614901,-8.553181,-0.02545204,-0.013193598,-0.044963405,58.67867,156.9064,0.0047884034,1442850,848,54,-4597,8548
78718822,3999,0,0.5485432,0.09096327,-10.785244,0.028336383,-0.009429518,-0.047201164,58.70637,156.9064,0.0047884034,1442850,-764,1247,-1146,8558
78818823,4001,0,-0.40895244,-1.4361424,-11.125886,0.022327336,-0.017048292,-0.034585223,58.72576,156.9064,0.0047884034,1442850,-884,711,-503,8565
78922822,3985,0,-0.5835392,-0.734858,-10.005523,-0.0018956474,0.015937794,-0.021043219,58.69252,156.9064,0.0047884034,1442850,183,-779,-2073,8553
79022822,3993,0,0.2495914,0.664221,-8.922762,0.003497817,0.008089853,-0.045265235,58.70637,156.9064,0.0047884034,1442850,1308,-253,-4790,8558
79122822,3994,0,0.011895102,1.6342533,-9.110915,0.0012263301,0.0048613013,-0.034403846,58.74515,156.9064,0.0047884034,1442850,271,0,-1880,8572
79226829,4006,0,0.030914892,0.9431507,-10.403441,-0.011931732,0.008000838,-0.04670214,58.67867,156.9064,0.0047884034,1442850,561,-119,-244,8548
79326828,3964,0,1.3936838,-0.11189212,-10.396633,-0.00052923337,-0.003940125,-0.063000254,58.7036,156.9064,0.0047884034,1442850,1782,194,-3245,8557
