timestamp,integral_dt,error_count,x,y,z,x_integral,y_integral,z_integral,temperature,range_m_s2,scaling,device_id,x_raw,y_raw,z_raw,temperature_raw
35298095,4002,0,-0.300325,0.3213571,-9.928558,0.0037649125,-0.0021638363,-0.038613107,60.761772,156.9064,0.0047884034,1442826,196,-275,2071,9300
35398094,3975,0,0.062792964,0.3352247,-9.910091,0.0012394676,-0.0008875675,-0.04164914,60.778393,156.9064,0.0047884034,1442826,357,-54,1886,9306
35502113,4001,0,0.14137675,0.14837672,-9.759554,0.0010427183,0.0047686873,-0.03432821,60.808865,156.9064,0.0047884034,1442826,-369,-4,1500,9317
35602142,4048,0,-0.100948416,-0.528829,-10.288446,-0.0009829074,0.00271562,-0.040271007,60.831024,156.9064,0.0047884034,1442826,-95,-17,2171,9325
35702094,3974,0,0.020688636,-0.45626348,-10.276426,-0.0029772546,-0.010915458,-0.04236852,60.795013,156.9064,0.0047884034,1442826,502,44,2127,9312
35803740,4034,0,0.007060277,0.03726174,-10.022143,-0.0052305367,-0.0073870663,-0.042789448,60.825485,156.9064,0.0047884034,1442826,472,207,2486,9323
35907712,4019,0,-0.44703868,-0.59435964,-9.920437,0.0008440825,0.000717863,-0.0397046,60.819942,156.9064,0.0047884034,1442826,34,-217,1818,9321
36007695,4002,0,-0.046949446,-0.4100687,-9.774486,0.0028745923,0.00677325,-0.038109124,60.831024,156.9064,0.0047884034,1442826,-405,-175,2103,9325
36107697,4004,0,0.6695065,0.2714444,-9.771941,0.0019856424,0.006671363,-0.038964547,60.875347,156.9064,0.0047884034,1442826,-319,90,2331,9341
36211693,3954,0,-0.15156382,0.47692895,-9.75133,-0.0036016176,-0.002983128,-0.036403358,60.869804,156.9064,0.0047884034,1442826,169,145,1976,9339
36311693,3965,0,-0.45392752,0.0348441,-9.751951,0.0013321524,0.0036917455,-0.039948445,60.858727,156.9064,0.0047884034,1442826,192,-136,2215,9335
36415696,3986,0,0.7430379,0.6138566,-9.589222,-0.00019323232,-0.002091982,-0.0366116,60.869804,156.9064,0.0047884034,1442826,4,271,2151,9339
36515671,3953,0,-0.10390085,-0.06352721,-9.725412,-0.004599795,-0.0058910837,-0.041512784,60.897507,156.9064,0.0047884034,1442826,80,292,2242,9349
36619686,4016,0,0.6035198,0.43242794,-9.841791,0.0035847498,0.0076805213,-0.041693244,60.90859,156.9064,0.0047884034,1442826,-163,-71,1722,9353
36723670,4000,0,-0.6714289,-0.32227153,-9.9478445,0.001693201,-0.0045858924,-0.040380433,60.891968,156.9064,0.0047884034,1442826,119,-298,2112,9347
36821319,4005,0,0.77108353,0.11545078,-9.716148,0.005027031,0.0070066815,-0.038319632,60.903046,156.9064,0.0047884034,1442826,-274,32,2068,9351
36925341,3989,0,-0.48732546,-0.25053236,-10.126412,0.009041717,0.0013605731,-0.038357656,60.94737,156.9064,0.0047884034,1442826,-255,-607,1719,9367
37025314,3958,0,0.06824278,0.30513272,-9.701931,-0.0106036095,-0.0032509998,-0.04442246,60.950138,156.9064,0.0047884034,1442826,252,553,1921,9368
37129337,4017,0,0.54970354,0.66924995,-9.756353,-0.0100934515,-0.004591462,-0.043595046,60.933517,156.9064,0.0047884034,1442826,672,480,2009,9362
37229314,3956,0,1.2741953,1.0075086,-9.364344,-0.0009485699,-0.0011871941,-0.037483662,60.958447,156.9064,0.0047884034,1442826,183,528,2091,9371
37329367,4053,0,1.2625717,0.92718005,-9.582601,0.00639957,0.0042577265,-0.04003215,60.955677,156.9064,0.0047884034,1442826,283,85,1757,9370
37433366,4052,0,1.2160493,0.8337158,-9.33554,-0.0059563015,-0.005674011,-0.04031738,60.98338,156.9064,0.0047884034,1442826,3,826,2368,9380
37533351,4037,0,1.1635242,0.9155348,-9.311698,-0.0031287468,-0.007450488,-0.03626188,60.994457,156.9064,0.0047884034,1442826,402,908,2721,9384
37633314,4000,0,-0.1324689,0.31831035,-9.769939,-0.012345331,-0.008130864,-0.04640501,61.011078,156.9064,0.0047884034,1442826,201,300,2327,9390
37737338,4024,0,-0.042742964,0.18205962,-10.041197,0.012141514,0.008802921,-0.040091045,61.01662,156.9064,0.0047884034,1442826,-205,-672,1472,9392
37837314,3989,0,0.9497392,0.64659774,-9.444068,-0.00035468338,-0.0006383715,-0.036135055,60.991688,156.9064,0.0047884034,1442826,243,719,2486,9383
37941314,3972,0,-0.4408497,0.04036565,-9.970631,0.0024091909,0.008232279,-0.043006957,61.02216,156.9064,0.0047884034,1442826,-234,-724,1160,9394
38042897,4003,0,0.8460547,0.7074769,-9.582321,-0.0030264058,-0.0063204714,-0.045104582,61.05263,156.9064,0.0047884034,1442826,401,177,1686,9405
38142895,4000,0,-0.5485746,-0.8547332,-10.174561,-0.003902682,-0.0045639416,-0.046646643,61.047092,156.9064,0.0047884034,1442826,-428,-270,2053,9403
38246902,4004,0,0.9486566,1.1960225,-9.349838,-0.003091942,-0.0015609714,-0.038663507,61.063713,156.9064,0.0047884034,1442826,262,666,2372,9409
38346934,4034,0,-1.0450345,-1.0667458,-10.328513,-0.003382858,-0.0045451,-0.049271192,61.083103,156.9064,0.0047884034,1442826,-1065,-260,1339,9416
38446894,4000,0,1.0527043,0.7640526,-9.552203,0.012052806,0.017143808,-0.037775747,61.085873,156.9064,0.0047884034,1442826,-481,21,1909,9417
38550894,4001,0,-1.2495053,-0.73537695,-10.357935,-0.0009201844,0.008934261,-0.03950411,61.08033,156.9064,0.0047884034,1442826,-41,-405,1742,9415
38650895,4002,0,0.90732116,1.176023,-9.450461,0.0060839523,0.005930123,-0.0370598,61.07202,156.9064,0.0047884034,1442826,346,-238,2224,9412
38750920,3985,0,-0.6006224,-0.66444147,-10.116334,-0.0019643668,-0.0031680837,-0.04213816,61.144043,156.9064,0.0047884034,1442826,187,-87,2239,9438
38854973,4074,0,-0.5488923,-0.27713954,-9.812339,-0.0049431166,-0.015016405,-0.045961723,61.099724,156.9064,0.0047884034,1442826,238,-304,2555,9422
38954903,4002,0,0.54942894,1.1638293,-9.276162,-0.008800187,0.0045301924,-0.035302445,61.135735,156.9064,0.0047884034,1442826,839,913,2024,9435
39056513,4037,0,1.0733094,0.6256254,-9.6380005,0.0021101336,0.017976169,-0.03340417,61.157894,156.9064,0.0047884034,1442826,-603,416,1419,9443
39156470,4000,0,0.16193053,-0.32731786,-10.272801,0.008709186,0.0062840446,-0.040467612,61.121883,156.9064,0.0047884034,1442826,-1000,-676,1180,9430
39260470,4000,0,0.650765,0.05546641,-10.016935,0.006187857,0.0069737076,-0.03507565,61.149582,156.9064,0.0047884034,1442826,-477,48,1935,9440
39360470,3974,0,0.6323903,0.502007,-9.648066,0.0061722132,0.008401075,-0.032436453,61.180054,156.9064,0.0047884034,1442826,-141,174,2041,9451
39460470,4000,0,0.8687524,0.12137308,-9.816916,-0.0009880974,0.001561682,-0.040645625,61.157894,156.9064,0.0047884034,1442826,-206,297,1823,9443
39564470,3962,0,-0.8598668,0.74285233,-9.5281925,-0.011523237,-0.00061888515,-0.042854227,61.171745,156.9064,0.0047884034,1442826,329,-114,2862,9448
39664501,3981,0,-0.46110559,-0.21880229,-10.023293,0.017250432,-0.0034340555,-0.034702286,61.204987,156.9064,0.0047884034,1442826,113,-959,2492,9460
39768515,4022,0,0.41236433,0.32082257,-9.420808,-0.013045751,0.00076297636,-0.035204012,61.168976,156.9064,0.0047884034,1442826,445,742,2194,9447
39868493,4000,0,-0.66289634,0.24243307,-9.865256,0.006128533,0.004017392,-0.046358824,61.235455,156.9064,0.0047884034,1442826,-101,-889,1662,9471
39968500,4007,0,1.0890273,0.09547363,-9.990768,0.005363318,0.0004008342,-0.039778106,61.224377,156.9064,0.0047884034,1442826,-328,208,1706,9467
40070135,3987,0,-0.64049906,0.35494494,-9.771469,-0.013739384,-0.0020793842,-0.041192133,61.25485,156.9064,0.0047884034,1442826,574,92,2838,9478
40174120,4000,0,1.2510082,0.17162965,-9.778071,-0.00017295149,0.0070244065,-0.040494587,61.224377,156.9064,0.0047884034,1442826,-365,559,2284,9467
40278114,4000,0,-0.6953399,0.36530453,-9.862742,0.008858046,0.0038540086,-0.04186507,61.260387,156.9064,0.0047884034,1442826,139,-923,1850,9480
40378114,3961,0,0.8210185,0.12818973,-9.881516,-0.002033047,0.00275901,-0.042385545,61.28809,156.9064,0.0047884034,1442826,147,715,2440,9490
40482114,3994,0,0.1891431,0.044982344,-9.876551,0.010903992,0.0035967925,-0.034688666,61.277008,156.9064,0.0047884034,1442826,-549,-470,2008,9486
40582114,3987,0,-0.3439875,0.46295625,-9.645645,-0.01517481,-0.002215295,-0.044320486,61.31579,156.9064,0.0047884034,1442826,420,188,2255,9500
40682186,4072,0,0.87107074,0.032241665,-10.295021,0.0112641305,0.005727001,-0.042939685,61.304707,156.9064,0.0047884034,1442826,-29,4,767,9496
40786120,4006,0,0.6928914,0.2996226,-9.803851,0.014690535,0.0020659138,-0.04553599,61.31302,156.9064,0.0047884034,1442826,53,-77,1914,9499
40886126,4012,0,0.4789512,0.45744362,-9.678121,0.01352664,0.00061518315,-0.038080513,61.33241,156.9064,0.0047884034,1442826,353,-392,1378,9506
40990118,4048,0,1.6565045,0.179626,-9.634992,-0.006692133,0.00076734263,-0.034297258,61.2964,156.9064,0.0047884034,1442826,-352,1563,1614,9493
41090094,3964,0,0.85962504,0.51707065,-10.20664,-0.016713716,0.0052151578,-0.043078337,61.32964,156.9064,0.0047884034,1442826,469,1408,1900,9505
41191700,4005,0,-0.033954505,0.17671624,-9.745166,0.017086554,0.0020195786,-0.049356088,61.34072,156.9064,0.0047884034,1442826,-685,-646,1878,9509
41291694,3962,0,-0.32462758,0.21518923,-10.012087,-0.01586166,0.0007884316,-0.046501983,61.37673,156.9064,0.0047884034,1442826,196,253,1836,9522
41395721,3986,0,0.7203816,0.05389638,-9.864353,-0.02889739,0.004038811,-0.0670162,61.37396,156.9064,0.0047884034,1442826,172,1280,2294,9521
41495701,4007,0,0.43649778,0.4464441,-9.669977,0.018776296,0.008970816,-0.037365586,61.3795,156.9064,0.0047884034,1442826,-153,-143,2452,9523
41599719,4025,0,0.5739681,0.45419344,-9.910711,0.016190918,0.0014973189,-0.041926943,61.37119,156.9064,0.0047884034,1442826,11,-108,1515,9520
41699700,4006,0,-0.42314312,-0.05647053,-10.666924,-0.011118652,-0.002447972,-0.043494336,61.409973,156.9064,0.0047884034,1442826,37,-240,1326,9534
41799737,4043,0,0.9850339,0.24504726,-9.978968,-0.0016036846,0.003173768,-0.042768575,61.41828,156.9064,0.0047884034,1442826,370,518,1499,9537
41903694,4000,0,-0.40423468,0.4890559,-10.152384,-0.014567637,0.0031484093,-0.036309578,61.42105,156.9064,0.0047884034,1442826,36,-459,920,9538
42007733,4039,0,-0.8108483,0.05633657,-10.035396,-0.002540136,0.00207358,-0.056499563,61.39058,156.9064,0.0047884034,1442826,-102,-1188,2842,9527
42107694,3988,0,0.078257084,-0.0056007006,-10.316829,0.0040877857,-0.0028255007,-0.05451486,61.426594,156.9064,0.0047884034,1442826,-538,-40,1418,9540
42208494,3967,0,-0.25429904,-0.014969938,-10.773411,0.009241141,-0.0010423781,-0.024402045,61.43767,156.9064,0.0047884034,1442826,-468,-918,181,9544
42312526,4033,0,0.47674197,0.119916916,-9.471826,-0.0023379554,-0.004235365,-0.046057798,61.451523,156.9064,0.0047884034,1442826,181,524,2361,9549
42412504,4011,0,0.5091417,-0.05135743,-8.921583,-0.0118196085,-0.006765166,-0.034927644,61.445984,156.9064,0.0047884034,1442826,900,736,3632,9547
42516493,3961,0,-0.49258497,0.43880168,-10.882902,0.009674869,0.0011002121,-0.024483874,61.473682,156.9064,0.0047884034,1442826,337,-1504,-454,9557
42616494,4001,0,0.17716418,0.1767086,-8.811769,0.0034211397,0.0038972548,-0.03294347,61.47645,156.9064,0.0047884034,1442826,-102,242,2691,9558
42716494,4000,0,0.38570744,0.23390444,-10.228383,-0.00077483745,-0.0070263804,-0.03150895,61.490303,156.9064,0.0047884034,1442826,297,931,2769,9563
42820494,4000,0,0.87616056,0.15049087,-9.658009,0.0048499997,-0.0013056736,-0.049151704,61.484764,156.9064,0.0047884034,1442826,-528,745,1721,9561
42920543,4024,0,-0.0530212,0.20511408,-9.170879,0.004202324,0.0034734844,-0.028152354,61.512466,156.9064,0.0047884034,1442826,-342,-1036,2305,9571
43024515,4022,0,-0.50080156,0.14594384,-9.340947,-0.008887606,-0.0011412331,-0.042859036,61.506924,156.9064,0.0047884034,1442826,-229,-1022,1479,9569
43128504,4010,0,0.061267152,-0.21710159,-9.571106,-0.007881847,-0.0010527262,-0.04618389,61.512466,156.9064,0.0047884034,1442826,-166,483,2149,9571
43232520,4026,0,0.22968149,0.5933966,-8.988686,-0.010207031,0.009827405,-0.038014337,61.498615,156.9064,0.0047884034,1442826,77,795,2724,9566
43332494,4000,0,0.13471423,0.60416454,-9.010519,0.013430874,-0.004106473,-0.014665337,61.556786,156.9064,0.0047884034,1442826,116,-367,2840,9587
43436494,3994,0,0.03779593,-0.44494107,-10.05199,0.009346999,-0.002603516,-0.047098532,61.556786,156.9064,0.0047884034,1442826,357,-662,2080,9587
43536494,4000,0,0.058313865,-0.6142236,-9.337289,-0.0068062004,0.002807049,-0.02828743,61.551247,156.9064,0.0047884034,1442826,-349,225,2170,9585
43638098,4005,0,-0.30227563,-0.12673979,-11.070024,-0.008038417,0.0046779737,-0.024171839,61.578945,156.9064,0.0047884034,1442826,-627,-342,268,9595
43742093,3946,0,0.05247424,1.1540504,-9.321607,0.011807476,0.00047910056,-0.044221338,61.606647,156.9064,0.0047884034,1442826,129,-346,3483,9605
43846132,4039,0,0.121452376,-0.23273018,-10.21725,-0.013660185,0.0003039783,-0.045110244,61.60111,156.9064,0.0047884034,1442826,157,397,2378,9603
43946132,4039,0,-0.038406633,-0.39804485,-9.870115,0.0039955643,0.0028350423,-0.0148270205,61.66759,156.9064,0.0047884034,1442826,-143,-486,2484,9627
44046131,3997,0,0.1369507,0.46663487,-9.629906,-0.011739319,0.010380792,-0.04896193,61.648197,156.9064,0.0047884034,1442826,-616,-286,1174,9620
44150101,4002,0,-0.26229677,0.28383142,-9.641212,-0.0056385566,0.008388358,-0.03379957,61.626038,156.9064,0.0047884034,1442826,-697,-213,2691,9612
44250100,4007,0,-0.47371513,-0.28478464,-10.036338,-0.0082778055,-0.0033985376,-0.048760273,61.631577,156.9064,0.0047884034,1442826,-82,275,3618,9614
44350106,4013,0,0.4067146,-0.3176963,-9.520815,-0.0028077846,0.002706008,-0.05720886,61.66205,156.9064,0.0047884034,1442826,-58,-3,2124,9625
44454101,4006,0,0.21028937,-0.34184408,-9.658865,-0.0024089315,0.0011632647,-0.024089556,61.66759,156.9064,0.0047884034,1442826,689,627,933,9627
44554094,3976,0,-0.005334483,0.4901927,-9.183908,0.0025605913,-0.0018890188,-0.025761116,61.69806,156.9064,0.0047884034,1442826,-1267,233,1063,9638
44655670,4000,0,-0.2017988,0.77285093,-9.927091,-0.0103035895,-0.005935095,-0.05326375,61.68144,156.9064,0.0047884034,1442826,-1062,-86,2654,9632
44759670,4000,0,-0.096911475,-0.12056195,-10.385709,-0.00033700466,-0.006029002,-0.030944206,61.70083,156.9064,0.0047884034,1442826,-657,-151,1849,9639
44859671,3989,0,-0.077973165,-0.04010773,-10.100213,0.0004623399,0.006998039,-0.045995176,61.69529,156.9064,0.0047884034,1442826,-356,-273,2052,9637
44959674,3992,0,-0.13603048,-0.3615986,-10.483643,0.015119845,0.0019025884,-0.032197267,61.71745,156.9064,0.0047884034,1442826,37,-506,1875,9645
45063706,4036,0,-0.116279975,0.38801733,-10.442914,0.0022937101,-0.00856912,-0.04662529,61.69529,156.9064,0.0047884034,1442826,-531,-1,1537,9637
45163671,4001,0,-0.01601356,0.93549544,-9.405572,0.013739379,0.00039465132,-0.03701404,61.739613,156.9064,0.0047884034,1442826,-91,-52,3090,9653
45263676,4001,0,0.5316846,0.76287353,-9.300422,-0.0023515173,-0.0051355506,-0.02763406,61.753464,156.9064,0.0047884034,1442826,341,137,3788,9658
45367670,4000,0,0.036362,-1.0873266,-10.465766,-0.006750035,-0.00084089977,-0.03882471,61.72576,156.9064,0.0047884034,1442826,274,-369,1665,9648
45471670,4000,0,-0.36636046,-0.19254884,-9.685686,-0.0057628592,0.011921508,-0.030442182,61.74515,156.9064,0.0047884034,1442826,-691,-116,3104,9655
45572513,4804,0,-0.19418047,0.6142364,-9.173516,-0.008708949,0.009979244,-0.038638115,61.78393,156.9064,0.0047884034,1442826,-80,753,2358,9669
45677300,4000,0,0.64424896,1.9229183,-9.346236,0.0019919348,-0.00010593821,-0.02381514,61.781162,156.9064,0.0047884034,1442826,342,414,1075,9668
45777294,3993,0,-0.25532806,0.8344441,-10.179895,0.0010995438,-0.006846625,-0.048749052,61.77008,156.9064,0.0047884034,1442826,581,-263,2674,9664
45877390,4070,0,0.49611142,0.14616041,-10.466096,-0.004541035,-0.0050438615,-0.06290253,61.7867,156.9064,0.0047884034,1442826,312,454,1934,9670
45977314,3993,0,0.32456145,-0.96065986,-9.529989,0.00061818294,-8.462081e-05,-0.030492993,61.833794,156.9064,0.0047884034,1442826,-2,584,3965,9687
46081326,4012,0,0.18374185,-1.1573687,-10.13549,-0.0063690315,0.00311619,-0.037855323,61.831024,156.9064,0.0047884034,1442826,180,-109,1088,9686
46181314,3997,0,-0.0225932,0.550173,-9.186306,-0.00054820674,0.0102504175,-0.026115503,61.811634,156.9064,0.0047884034,1442826,88,807,1914,9679
46285314,3990,0,-0.43909702,1.2821722,-9.574659,0.0044294572,0.010834783,-0.03950402,61.836563,156.9064,0.0047884034,1442826,725,-724,1615,9688
46385314,3975,0,0.38437864,0.6863428,-9.613382,-0.012052922,-0.0064714854,-0.04457535,61.795013,156.9064,0.0047884034,1442826,-873,645,2497,9673
46485317,4003,0,0.2915367,-0.28430882,-9.330408,-0.0018857121,-0.007617929,-0.044792548,61.850414,156.9064,0.0047884034,1442826,131,704,2699,9693
46589362,4045,0,0.40501282,-0.5858177,-9.146677,-0.0065578613,-0.002594873,-0.02982725,61.867035,156.9064,0.0047884034,1442826,-583,197,1101,9699
46690906,4005,0,0.72165364,0.42417532,-9.157644,0.003299958,-0.00029501336,-0.03384929,61.883656,156.9064,0.0047884034,1442826,-437,507,1765,9705
46790893,3999,0,-0.3481578,1.6645246,-9.806806,0.008610224,0.0012560491,-0.05357057,61.914127,156.9064,0.0047884034,1442826,395,-365,1243,9716
46894904,4010,0,0.6898444,0.094073966,-9.6629715,-0.0028785605,-0.013453514,-0.03865983,61.900276,156.9064,0.0047884034,1442826,566,432,1671,9711
46994937,4044,0,-0.23593485,-0.45331714,-8.580659,0.00040936307,-0.0012389352,-0.039850105,61.894737,156.9064,0.0047884034,1442826,-731,-870,3782,9709
47098894,3994,0,0.18309097,0.2930006,-8.5920725,0.011892964,0.011176064,-0.03421124,61.952908,156.9064,0.0047884034,1442826,26,285,2129,9730
47198894,4000,0,-0.079198815,1.1513759,-9.136005,-0.0020616457,0.020919973,-0.045382995,61.941826,156.9064,0.0047884034,1442826,74,-807,1640,9726
47298894,3990,0,-0.12684438,0.72828484,-9.806961,0.0059295306,0.009362634,-0.023234343,61.90859,156.9064,0.0047884034,1442826,-312,-1323,875,9714
47402893,3991,0,-0.77828854,-0.3892049,-11.415968,-0.014436898,-0.0073382384,-0.045452356,61.936287,156.9064,0.0047884034,1442826,-565,-193,808,9724
47502894,3973,0,0.85404366,-0.39842835,-10.894505,0.012720141,-0.0058803065,-0.037532564,61.922436,156.9064,0.0047884034,1442826,1391,714,922,9719
47602894,4001,0,0.10329393,-0.838212,-11.048171,-0.011079099,-0.004633805,-0.036608525,61.98892,156.9064,0.0047884034,1442826,-356,-202,859,9743
47704470,4000,0,-0.40460956,-0.36709458,-10.655042,-0.006100955,0.013593576,-0.061186872,61.955677,156.9064,0.0047884034,1442826,-781,-429,1947,9731
47804477,4007,0,-0.011793838,0.42111,-10.217879,-0.008365921,0.0042946534,-0.03682521,61.99723,156.9064,0.0047884034,1442826,-418,-9,1883,9746
47908481,4011,0,0.055481672,0.7044524,-10.118596,-0.005790314,-0.003089164,-0.047361497,61.955677,156.9064,0.0047884034,1442826,-190,-329,1479,9731
48008470,3942,0,0.42809024,0.47174272,-10.729562,0.010758754,-0.008374908,-0.03615698,61.99723,156.9064,0.0047884034,1442826,880,-17,-28,9746
48112516,4023,0,0.3043299,-0.6224724,-10.391405,0.0062907008,0.0011668138,-0.040680483,62.01939,156.9064,0.0047884034,1442826,514,121,2492,9754
48212570,4077,0,-0.31412306,-0.55391634,-10.264564,-0.016365176,0.006598037,-0.03532965,61.97784,156.9064,0.0047884034,1442826,-417,152,2225,9739
48312493,4000,0,-0.101128116,0.7351369,-10.169065,0.011008215,0.0074774968,-0.032230612,62.066483,156.9064,0.0047884034,1442826,240,-527,940,9771
48416497,4004,0,-0.53578234,1.9280876,-9.943541,0.0023216389,0.009941008,-0.050157603,62.03324,156.9064,0.0047884034,1442826,803,-677,2393,9759
48516499,4006,0,0.024415018,1.2313718,-9.850238,0.00021022628,-0.00600087,-0.057762645,62.05263,156.9064,0.0047884034,1442826,1014,345,1722,9766
48616506,4013,0,0.29958183,0.3067164,-10.455146,0.0037950824,-0.0013132268,-0.05344084,62.07756,156.9064,0.0047884034,1442826,598,-863,1682,9775
48718124,4010,0,0.3609619,-1.1525396,-11.206234,-0.005252118,-0.01293113,-0.04733783,62.124653,156.9064,0.0047884034,1442826,764,751,2172,9792
48822114,3949,0,-0.2729613,-0.6403801,-10.296035,0.0062285317,0.0072129546,-0.038495004,62.083103,156.9064,0.0047884034,1442826,-301,336,3779,9777
48922114,3963,0,-0.3157797,0.5288337,-10.172672,-0.008968565,0.0045749806,-0.036887247,62.102493,156.9064,0.0047884034,1442826,-402,323,2036,9784
49026148,4026,0,0.2976188,1.8124378,-9.06968,0.0038874333,-0.00039842346,-0.05325286,62.121883,156.9064,0.0047884034,1442826,-96,441,3280,9791
49126129,4015,0,0.6219801,1.218039,-9.420213,0.0032161996,-0.008049041,-0.03269235,62.1108,156.9064,0.0047884034,1442826,751,324,2399,9787
49226114,3934,0,0.11677239,-0.053182103,-9.528151,0.0045339605,-0.0053358823,-0.040092897,62.108032,156.9064,0.0047884034,1442826,494,-184,1908,9786
49330142,4028,0,0.11285081,-0.49947682,-9.474396,0.0081730625,-0.00045185047,-0.037237354,62.09695,156.9064,0.0047884034,1442826,-153,225,794,9782
49434093,4000,0,-0.10504202,1.1527057,-9.242441,-0.007395296,0.0052561127,-0.04635743,62.166203,156.9064,0.0047884034,1442826,-385,-183,872,9807
49534093,3975,0,0.2130586,1.5801731,-8.895098,0.0032490813,0.0019089126,-0.039580263,62.152355,156.9064,0.0047884034,1442826,-26,363,3475,9802
49634919,4817,0,0.26561472,1.1573052,-8.613849,0.01521466,-0.0028152778,-0.035830706,62.149582,156.9064,0.0047884034,1442826,71,128,3250,9801
49739701,4007,0,0.0865702,-0.81485516,-9.81422,-0.0033335625,0.005531423,-0.053772252,62.182823,156.9064,0.0047884034,1442826,-131,255,2735,9813
49839694,4001,0,0.023495033,-1.0129937,-9.525023,-0.0066085784,0.008474454,-0.015892878,62.196674,156.9064,0.0047884034,1442826,9,293,1223,9818
49943693,3999,0,-0.2437045,0.96666545,-8.077093,-0.0063516367,0.011599093,-0.030353721,62.177284,156.9064,0.0047884034,1442826,-524,784,2213,9811
50043740,4047,0,-0.3625985,0.9468787,-8.430009,-0.013083879,0.0040433663,-0.04686173,62.196674,156.9064,0.0047884034,1442826,25,-574,-433,9818
50143736,4042,0,0.1429397,0.23874167,-8.584716,0.005376648,-0.008640802,-0.041147284,62.224377,156.9064,0.0047884034,1442826,-156,-25,1182,9828
50247694,4000,0,0.093299106,-1.0578549,-9.859775,0.008200107,-0.0058033,-0.026958512,62.202217,156.9064,0.0047884034,1442826,317,451,3179,9820
50347694,3994,0,-0.36273208,-0.5918017,-9.611359,-0.0028710424,0.00082317577,-0.039859314,62.224377,156.9064,0.0047884034,1442826,-1101,-800,774,9828
50447694,3994,0,-0.019811131,0.09218137,-9.392576,0.0039111255,0.011547603,-0.022972358,62.210526,156.9064,0.0047884034,1442826,-102,-506,1352,9823
50551694,3960,0,-0.42286527,1.8513464,-9.3374195,0.008670897,0.0062900954,-0.02980462,62.249306,156.9064,0.0047884034,1442826,278,-1062,1786,9837
50651708,4014,0,-0.11611457,1.3401688,-9.53032,0.005006556,-0.0018656959,-0.03966497,62.25485,156.9064,0.0047884034,1442826,136,-377,1456,9839
50753294,3937,0,-0.20824587,0.0060880603,-9.819681,0.0040506157,-0.011326883,-0.029410178,62.29086,156.9064,0.0047884034,1442826,342,14,3292,9852
50853351,4040,0,0.46539405,-1.0513674,-10.321471,0.0024983229,-0.0052844654,-0.049296223,62.25485,156.9064,0.0047884034,1442826,-522,-208,1194,9839
50957331,4003,0,-0.56750643,0.043992054,-10.647542,-0.0059602726,0.00925977,-0.040043827,62.31025,156.9064,0.0047884034,1442826,-225,499,2130,9859
51057293,3980,0,-0.056460883,0.3117581,-9.826983,0.0063615595,0.015042569,-0.02115919,62.28809,156.9064,0.0047884034,1442826,-1093,-128,4164,9851
51161300,4000,0,-0.1356131,0.985096,-10.19072,0.012537824,-0.0020288182,-0.037002154,62.304707,156.9064,0.0047884034,1442826,105,226,1807,9857
51261300,3993,0,0.0010817131,0.4881261,-9.746148,0.01322546,-0.0083666,-0.027932381,62.321327,156.9064,0.0047884034,1442826,184,-546,2990,9863
51365300,4007,0,0.5724591,-1.3438706,-9.701426,-0.0012003107,-0.013583723,-0.017199762,62.337948,156.9064,0.0047884034,1442826,53,1377,5404,9869
51469320,4026,0,0.14023422,-1.7808233,-9.25469,0.0011235743,-0.0030391875,-0.007765705,62.36842,156.9064,0.0047884034,1442826,-1092,985,5240,9880
51569294,3989,0,-1.1461226,1.0353204,-10.247202,-0.0061879177,0.019856796,-0.04245713,62.34903,156.9064,0.0047884034,1442826,-233,-264,-918,9873
51670094,3980,0,-0.41078657,1.6925265,-10.038735,-0.00878234,0.016707815,-0.034172725,62.34072,156.9064,0.0047884034,1442826,-936,-297,1001,9870
51770870,4000,0,-0.3503082,1.0711409,-9.81253,-0.009506121,-0.008252778,-0.0587424,62.35734,156.9064,0.0047884034,1442826,-251,-481,2178,9876
51874911,4041,0,0.6624024,-0.6845529,-10.554519,-0.004692654,-0.012115456,-0.032690942,62.39058,156.9064,0.0047884034,1442826,-526,183,1210,9888
51974889,4019,0,0.029933827,-1.2267629,-10.785295,-0.0032758135,0.0016433275,-0.04460961,62.38504,156.9064,0.0047884034,1442826,-394,-672,1924,9886
52074897,4027,0,-0.43507904,-0.5809778,-10.274238,-0.0063562687,0.008794593,-0.02488701,62.412743,156.9064,0.0047884034,1442826,-882,156,3533,9896
52178870,3994,0,-0.32390338,0.1732622,-10.601686,-0.0118912365,0.004557448,-0.037289027,62.396122,156.9064,0.0047884034,1442826,-1180,429,3070,9890
52282870,4000,0,0.15926817,1.2198694,-10.098477,0.0083458945,-0.0004977174,-0.05260276,62.393353,156.9064,0.0047884034,1442826,1219,-245,2705,9889
52382871,3959,0,0.8339402,0.42418087,-9.866853,-0.0005016693,-0.008174366,-0.0307211,62.40166,156.9064,0.0047884034,1442826,-531,352,1068,9892
52486870,3953,0,-0.06875679,-1.5836757,-10.301251,-0.014833204,-0.012142298,-0.04575161,62.409973,156.9064,0.0047884034,1442826,-616,-16,959,9895
52586917,4047,0,0.13166837,-0.7166812,-10.398786,-0.004217234,-0.009808269,-0.059193935,62.465374,156.9064,0.0047884034,1442826,95,321,1226,9915
53308514,4000,0,-0.3385946,0.40260535,-9.860883,0.0062676007,-0.0046988484,-0.028840257,62.473682,156.9064,0.0047884034,1442826,125,-1032,1871,9918
53408520,4006,0,0.41901278,-0.6635516,-9.575805,-0.01291629,-0.011151396,-0.041980613,62.523544,156.9064,0.0047884034,1442826,-528,-10,1269,9936
53512514,3951,0,0.14420429,-0.6894725,-9.4105425,-0.008622543,-0.0007898414,-0.03659355,62.515236,156.9064,0.0047884034,1442826,-1312,868,3528,9933
53612514,3992,0,0.61301804,0.07862957,-9.730202,0.0013032034,0.005819585,-0.023924517,62.490303,156.9064,0.0047884034,1442826,-651,611,303,9924
53714094,4000,0,-0.22979026,0.9710791,-9.027397,0.016242553,0.0013766673,-0.040186197,62.545704,156.9064,0.0047884034,1442826,-695,-519,1499,9944
53814131,4018,0,-0.26505408,1.4653027,-9.034558,-0.0027411832,0.022683058,-0.043696366,62.520775,156.9064,0.0047884034,1442826,-55,-766,1861,9935
53918119,4010,0,0.19778204,0.16963446,-9.962001,-0.0010559574,-0.0055153864,-0.045794677,62.542934,156.9064,0.0047884034,1442826,1297,24,290,9943
54022101,4006,0,-0.13582452,-1.1149752,-10.3141,-0.010765289,-0.006758504,-0.048209094,62.58172,156.9064,0.0047884034,1442826,-385,519,2518,9957
54126131,3998,0,-0.629591,0.21588005,-9.883399,-0.0098350765,0.016130453,-0.038820203,62.559555,156.9064,0.0047884034,1442826,-811,-925,458,9949
54226094,4000,0,0.34794202,0.77398926,-8.763781,-0.0031416907,0.012518028,-0.015065932,62.542934,156.9064,0.0047884034,1442826,-508,191,3121,9943
54326094,3994,0,-0.5458465,1.009719,-9.459317,-0.0065498445,0.002419499,-0.04548724,62.60111,156.9064,0.0047884034,1442826,175,-759,2377,9964
54430142,4048,0,-0.36676306,0.118159465,-10.535688,0.000321856,0.0089053465,-0.037818518,62.59834,156.9064,0.0047884034,1442826,603,-567,1684,9963
54530093,3999,0,0.44946307,-0.2523198,-9.6814165,0.009040318,0.007949345,-0.024464406,62.584488,156.9064,0.0047884034,1442826,681,322,3061,9958
54631670,4777,0,0.49354017,-0.8678217,-10.236178,0.0032868295,-0.009767196,-0.047263857,62.6205,156.9064,0.0047884034,1442826,229,804,2036,9971
54735676,4006,0,-0.72737896,0.28275663,-10.2629595,0.012210529,0.008957849,-0.031203028,62.614956,156.9064,0.0047884034,1442826,-518,-1332,1022,9969
54839670,4000,0,-0.3238102,1.1106815,-9.774182,-0.008823984,0.0034749263,-0.054906525,62.628807,156.9064,0.0047884034,1442826,429,-478,1584,9974
54939670,3907,0,0.08230347,0.6624901,-9.005623,0.0014126552,0.0025751842,-0.047421142,62.66205,156.9064,0.0047884034,1442826,-319,-477,4095,9986
55039743,4049,0,-0.041518062,-0.041856162,-9.760799,0.0058065103,0.0060178665,-0.051550638,62.65928,156.9064,0.0047884034,1442826,125,-139,3876,9985
55143733,4040,0,0.12564415,-0.67009896,-10.385509,0.012392245,0.01006213,-0.04213535,62.67313,156.9064,0.0047884034,1442826,301,-1993,644,9990
55243693,4000,0,0.3333641,0.22084938,-9.655473,0.008237945,0.0068753036,-0.05434151,62.69529,156.9064,0.0047884034,1442826,498,863,1844,9998
55347693,3999,0,0.27255479,1.7628773,-9.923102,0.022549344,0.005598846,-0.031648684,62.67313,156.9064,0.0047884034,1442826,336,268,1376,9990
55451693,3985,0,-0.16699657,0.65984917,-10.164991,0.007901494,0.009981494,-0.03871397,62.70914,156.9064,0.0047884034,1442826,1044,-87,1830,10003
55551694,3977,0,0.47978428,-0.64586204,-10.467511,-0.010126301,-0.016395386,-0.045814727,62.7036,156.9064,0.0047884034,1442826,-180,295,1132,10001
55653314,3994,0,0.1925368,-0.293274,-10.847352,0.009888766,0.010477995,-0.043530565,62.70637,156.9064,0.0047884034,1442826,525,186,2029,10002
55753314,3949,0,-0.45942768,-0.0041516526,-10.385645,-0.00529124,0.009512149,-0.052109614,62.73407,156.9064,0.0047884034,1442826,-701,-967,2408,10012
55857344,4030,0,-0.9189173,0.51892173,-10.345121,0.0079396255,0.02359926,-0.041340955,62.72853,156.9064,0.0047884034,1442826,-1203,-1426,1541,10010
55957357,4044,0,-0.11340788,0.5523589,-10.055475,-0.0007082033,-0.006091761,-0.040525615,62.739613,156.9064,0.0047884034,1442826,-277,1124,1552,10014
56057314,4000,0,-0.58252144,0.2226373,-10.159611,-0.0154766925,0.01792221,-0.0665402,62.739613,156.9064,0.0047884034,1442826,-213,-660,2194,10014
56161316,4002,0,0.54262584,-0.4432822,-9.823112,-0.010114415,0.0015920036,-0.06052824,62.72853,156.9064,0.0047884034,1442826,87,-9,2120,10010
56261362,4046,0,-0.058864597,-0.78471065,-9.974978,0.01273811,0.008043629,-0.034030933,62.756233,156.9064,0.0047884034,1442826,46,-348,1894,10020
56365314,4000,0,-0.47219202,0.46436882,-9.000484,0.006216703,0.013806005,-0.034999795,62.792244,156.9064,0.0047884034,1442826,-866,-672,2565,10033
56469352,4038,0,0.49623802,0.48199406,-9.067857,-0.0014838184,-0.010934839,-0.037465945,62.772854,156.9064,0.0047884034,1442826,-735,-93,2020,10026
56570927,4027,0,-0.4162547,-0.12965754,-10.028869,-0.017856188,0.0031081284,-0.03552627,62.800552,156.9064,0.0047884034,1442826,-592,2,882,10036
56670894,4000,0,-0.17839405,-0.504579,-10.174869,0.008322364,0.010915476,-0.05172593,62.822716,156.9064,0.0047884034,1442826,-730,-629,2004,10044
56774894,4001,0,-0.03190223,-0.17380086,-9.23807,0.0042931037,-0.0028175511,-0.041693926,62.806095,156.9064,0.0047884034,1442826,-214,160,3066,10038
56874894,3986,0,0.57563984,0.55192256,-9.363039,8.863374e-05,0.0006763613,-0.024252946,62.811634,156.9064,0.0047884034,1442826,-121,1116,2023,10040
56978894,3963,0,-0.15953024,0.90176386,-9.948012,0.0003609273,-0.003830389,-0.031883083,62.811634,156.9064,0.0047884034,1442826,-459,1,1582,10040
57078894,3957,0,0.22998405,0.21915056,-9.56013,-0.013300905,-0.0069936668,-0.059596524,62.833794,156.9064,0.0047884034,1442826,-255,332,2546,10048
57178894,4001,0,0.15260845,-0.5319707,-9.943499,0.0023823993,-0.016984133,-0.03152705,62.844875,156.9064,0.0047884034,1442826,-709,-64,1540,10052
57282894,4000,0,-0.679219,-1.4621073,-9.859645,0.0020614571,0.0028252117,-0.03465372,62.872574,156.9064,0.0047884034,1442826,-1720,-769,3352,10062
57382894,4000,0,-0.88546133,-0.2269747,-9.802092,-0.006139048,0.014013153,-0.03896184,62.880886,156.9064,0.0047884034,1442826,-694,-1488,1711,10065
57482900,3982,0,-0.007750479,0.57777715,-9.073209,-0.007933516,0.013016264,-0.031866685,62.875347,156.9064,0.0047884034,1442826,-575,-309,2093,10063
57584493,3981,0,-0.03442791,1.3712571,-8.643461,0.0039040016,0.011351026,-0.02559888,62.891968,156.9064,0.0047884034,1442826,-216,-784,2386,10069
57688500,4000,0,0.6469951,0.46426514,-9.710166,0.013773134,0.00486282,-0.046495706,62.905815,156.9064,0.0047884034,1442826,1278,-2,2495,10074
57788555,4061,0,0.43427974,-0.7700937,-10.449944,0.0011390881,-0.0005045959,-0.039058547,62.911358,156.9064,0.0047884034,1442826,-546,258,1735,10076
57888493,4000,0,0.19786279,-1.5607281,-10.708488,-0.0099973,-0.0081145875,-0.0245569,62.941826,156.9064,0.0047884034,1442826,-139,101,984,10087
57992493,3994,0,-0.117575295,0.061467454,-9.755433,-0.0057221474,0.010630778,-0.042520795,62.919666,156.9064,0.0047884034,1442826,-737,319,1744,10079
58096494,3984,0,0.4923991,0.8763719,-9.125554,-0.009775697,-0.00032125675,-0.04258758,62.911358,156.9064,0.0047884034,1442826,-192,212,1925,10076
58196500,3961,0,0.39075568,1.0726382,-9.289967,0.006240152,-0.0033850325,-0.05163042,62.922436,156.9064,0.0047884034,1442826,525,323,2726,10080
58300533,4033,0,0.13900551,-0.4085605,-10.083011,0.0052792337,0.00367574,-0.03552726,62.952908,156.9064,0.0047884034,1442826,1104,-115,2929,10091
58400493,3992,0,-0.17062584,-0.9472679,-10.702572,-0.003300213,-0.0031465976,-0.04383057,62.955677,156.9064,0.0047884034,1442826,-489,-603,1739,10092
58501269,3922,0,0.15341671,-0.71686035,-9.913121,-0.0015206716,-0.0025001543,-0.03882385,62.972298,156.9064,0.0047884034,1442826,-739,332,2987,10098
58602094,4016,0,-0.19433168,0.68841463,-9.475714,0.012010669,0.013723173,-0.020716649,62.98892,156.9064,0.0047884034,1442826,-160,-411,1710,10104
58706072,3993,0,-0.09180756,0.67312485,-9.709843,-0.001914708,0.0066364305,-0.03787662,62.97784,156.9064,0.0047884034,1442826,-237,-823,1199,10100
58806076,4006,0,0.31763193,0.16917537,-10.030059,-0.0017500368,-0.004413349,-0.046473682,63.01939,156.9064,0.0047884034,1442826,503,307,2873,10115
58910095,3996,0,0.42432082,-0.7287702,-10.082608,0.0070737265,-0.003844677,-0.04367951,62.98892,156.9064,0.0047884034,1442826,61,47,1695,10104
59010070,4000,0,0.02695531,-0.7411647,-10.039373,0.011279455,0.0070311637,-0.02746953,63.011078,156.9064,0.0047884034,1442826,-950,-677,1080,10112
59110070,3966,0,-0.0853247,0.43233722,-9.950952,-0.0010323548,0.0015747678,-0.0371361,63.01662,156.9064,0.0047884034,1442826,-538,117,1075,10114
59214070,4000,0,0.336609,1.2509284,-9.152982,-0.0033358505,-0.0037775694,-0.04741408,63.01385,156.9064,0.0047884034,1442826,411,852,3353,10113
59318070,4000,0,0.35002056,-0.53855294,-10.128891,0.01096786,-0.005441956,-0.04475178,63.049862,156.9064,0.0047884034,1442826,962,71,2234,10126
59419693,4000,0,-0.06695906,-1.4397107,-10.5972595,0.00176834,0.0024529607,-0.025847316,63.01939,156.9064,0.0047884034,1442826,-382,-433,1469,10115
59519700,3986,0,0.28560373,-1.0195553,-10.3685465,0.007876416,-0.0004963752,-0.043839246,63.03324,156.9064,0.0047884034,1442826,144,31,1229,10120
59623694,3963,0,-0.17997025,1.2169027,-9.372869,-0.00014252518,0.009781347,-0.06198525,63.05817,156.9064,0.0047884034,1442826,-142,-314,1604,10129
59723702,3970,0,0.4351009,0.97390336,-9.259218,-0.005109874,0.004369426,-0.037668124,63.09141,156.9064,0.0047884034,1442826,-351,360,2715,10141
59827729,4029,0,0.6878182,-0.30732155,-9.442061,0.0078759855,-0.008285895,-0.032407843,63.08033,156.9064,0.0047884034,1442826,268,609,2888,10137
59927694,3994,0,0.33288038,-1.0212219,-10.097409,-0.010470604,0.0012082311,-0.034259155,63.07479,156.9064,0.0047884034,1442826,-422,398,2288,10135
60027694,4000,0,0.19676872,-0.35554868,-10.203727,0.0007602824,0.001935621,-0.05946241,63.1108,156.9064,0.0047884034,1442826,794,-159,1090,10148
60131723,4009,0,-0.24512057,1.2535652,-9.634527,0.0047837445,0.011612572,-0.045508027,63.102493,156.9064,0.0047884034,1442826,-307,-1009,1585,10145
60231747,4016,0,0.3126278,1.475393,-8.842702,0.0091828955,-0.0008191108,-0.027211796,63.09695,156.9064,0.0047884034,1442826,725,195,2460,10143
60331727,4010,0,0.39616334,0.7961696,-9.6000595,-0.0012533669,-0.007693259,-0.033312645,63.07756,156.9064,0.0047884034,1442826,-65,759,1933,10136
60436500,3993,0,0.8453018,-1.2235781,-10.250802,0.005673212,-0.0077593834,-0.04578727,63.132965,156.9064,0.0047884034,1442826,477,-216,1970,10156
60537347,4017,0,0.0034450765,-1.3438275,-10.086758,-0.009562906,-0.00374809,-0.046949107,63.141273,156.9064,0.0047884034,1442826,-586,828,3451,10159
60637294,3999,0,-0.37153295,-0.6846613,-10.144072,-0.009149258,0.011722773,-0.04512452,63.135735,156.9064,0.0047884034,1442826,-186,300,1718,10157
60737294,4001,0,-0.5928878,0.24348082,-9.919581,-0.0011158909,0.015982658,-0.037499778,63.155125,156.9064,0.0047884034,1442826,93,-322,865,10164
60841298,3967,0,-0.03707879,1.1032959,-9.437815,0.0052453782,-0.00020386162,-0.038217377,63.144043,156.9064,0.0047884034,1442826,816,-266,1808,10160
60945297,3992,0,0.60325724,-0.32334706,-9.668905,-0.007437736,-0.005446922,-0.052877296,63.157894,156.9064,0.0047884034,1442826,109,306,2734,10165
61049294,3962,0,0.4342567,-0.91791934,-10.353678,0.0107333055,0.002195844,-0.029164676,63.168976,156.9064,0.0047884034,1442826,-98,-32,1735,10169
61149295,4001,0,-0.112526454,-0.26769826,-9.937997,-0.0016947908,0.007936982,-0.041303646,63.171745,156.9064,0.0047884034,1442826,-44,-165,1544,10170
61249335,4042,0,0.14038113,1.0206826,-9.46988,0.008615198,0.008820493,-0.04196813,63.202217,156.9064,0.0047884034,1442826,-420,56,1320,10181
61350870,4000,0,0.36354625,1.6641632,-9.858676,0.0068181534,0.0005613858,-0.042367097,63.168976,156.9064,0.0047884034,1442826,-23,156,1880,10169
61450908,4038,0,-0.029586734,1.340562,-9.715113,0.012915852,-0.003420983,-0.044936024,63.185596,156.9064,0.0047884034,1442826,736,-96,1254,10175
61554909,4025,0,0.7337918,-0.7470346,-10.751557,0.0007597993,-0.0070234844,-0.04130049,63.191135,156.9064,0.0047884034,1442826,78,294,1445,10177
61654870,3961,0,-0.083067566,-1.5072433,-10.8850355,0.0024775458,-0.007120717,-0.040471524,63.224377,156.9064,0.0047884034,1442826,347,62,1125,10189
61758885,4009,0,-0.35325918,-0.26068538,-9.997815,0.0019657186,0.014439061,-0.052307986,63.224377,156.9064,0.0047884034,1442826,19,-186,1066,10189
61858870,3996,0,-0.4300437,0.30844858,-9.771484,-0.0076045324,0.011355346,-0.040417366,63.218834,156.9064,0.0047884034,1442826,-386,41,880,10187
61958870,3958,0,0.10952245,1.803454,-8.712616,0.0049274345,0.010536392,-0.020168073,63.240997,156.9064,0.0047884034,1442826,270,25,1599,10195
62062870,3921,0,0.6227979,1.5493866,-9.297294,0.009652558,-0.0068753157,-0.024961825,63.229916,156.9064,0.0047884034,1442826,356,264,3027,10191
62162943,4073,0,-0.025349524,0.13132755,-9.551951,-0.00058268034,-0.009795386,-0.03771313,63.246536,156.9064,0.0047884034,1442826,298,-692,2746,10197
62263722,4029,0,0.7007416,-1.0537093,-10.545116,0.00796466,-0.009334488,-0.032048598,63.252075,156.9064,0.0047884034,1442826,196,-47,2596,10199
62364549,4035,0,0.07834119,-1.3750232,-10.451304,0.00073998433,0.0002114859,-0.042712886,63.279778,156.9064,0.0047884034,1442826,326,613,2680,10209
62468514,3994,0,-0.08424138,-0.22769585,-9.975151,0.008820339,0.0037895723,-0.02729765,63.318558,156.9064,0.0047884034,1442826,-310,67,2015,10223
62568514,4000,0,-0.24859388,0.8163764,-9.037408,0.0013826747,0.00930477,-0.04404098,63.263157,156.9064,0.0047884034,1442826,-1007,43,4178,10203
62672514,4000,0,-0.010252071,1.7203468,-9.086973,0.007988928,-0.0013806296,-0.034843028,63.31302,156.9064,0.0047884034,1442826,156,-740,2983,10221
62776514,4000,0,0.049870312,-0.47432837,-10.48068,0.003575805,-0.009805417,-0.03845023,63.27424,156.9064,0.0047884034,1442826,774,-87,1103,10207
62876538,4024,0,0.20199274,-0.9977062,-9.987483,-0.0038632578,-0.0051091285,-0.03749768,63.29363,156.9064,0.0047884034,1442826,365,-151,3532,10214
62980514,3987,0,-0.5065465,0.118486576,-9.50465,0.0024607214,0.015263078,-0.027356446,63.299168,156.9064,0.0047884034,1442826,64,-569,2473,10216
63080551,4031,0,-0.58041996,0.9337077,-9.736794,-0.0049558375,0.010077558,-0.035497613,63.35734,156.9064,0.0047884034,1442826,-737,-397,1977,10237
63180514,3994,0,-0.29947755,1.4456459,-8.856658,-0.009550072,0.0048000356,-0.035325866,63.2964,156.9064,0.0047884034,1442826,-856,489,2809,10215
63286120,3978,0,0.26510042,0.56981754,-9.937826,0.012110454,-0.011927415,-0.035338156,63.34349,156.9064,0.0047884034,1442826,842,11,2661,10232
63386102,4007,0,0.4480309,-0.81590956,-10.175475,0.00031357107,-0.0053740265,-0.05337401,63.36011,156.9064,0.0047884034,1442826,430,584,3020,10238
63486119,3986,0,-0.12949528,-1.1351013,-10.785703,0.0022640151,-0.0025884123,-0.037864145,63.36288,156.9064,0.0047884034,1442826,996,235,855,10239
63590096,3982,0,0.05233633,0.2103655,-9.85265,-0.006732688,0.010010118,-0.046693556,63.35457,156.9064,0.0047884034,1442826,246,464,1128,10236
63690140,4034,0,-0.33057293,1.3575064,-9.461862,-0.0047441255,0.0048174113,-0.02639487,63.34072,156.9064,0.0047884034,1442826,38,58,1257,10231
63794093,3993,0,-0.36470714,1.1778449,-9.424202,-0.00720467,0.007121522,-0.05115193,63.40166,156.9064,0.0047884034,1442826,802,-578,1564,10253
63894121,4027,0,0.6508619,0.24726802,-9.579867,-0.0014112508,-0.00069222786,-0.040929545,63.38504,156.9064,0.0047884034,1442826,663,283,2818,10247
63994144,4050,0,0.2337257,-0.72435147,-10.36978,-0.009332966,0.0006011012,-0.05854346,63.393353,156.9064,0.0047884034,1442826,662,-484,1209,10250
64299675,3956,0,-0.15291157,1.4855254,-9.126106,-0.00016083848,0.016772477,-0.024561878,63.432133,156.9064,0.0047884034,1442826,-429,436,2993,10264
64399670,4000,0,-0.10371304,2.1720936,-9.293607,0.0063012918,-0.00199679,-0.039282758,63.432133,156.9064,0.0047884034,1442826,-386,-45,2349,10264
64499696,4003,0,0.14189792,1.4416485,-9.8316765,-0.0015541487,-0.0050242837,-0.036731362,63.45706,156.9064,0.0047884034,1442826,504,-261,1804,10273
64603694,4001,0,0.7943949,-0.35753095,-9.532634,0.0044833776,-0.01044595,-0.039616697,63.412743,156.9064,0.0047884034,1442826,1421,892,3439,10257
64703693,3946,0,0.034146648,-1.555267,-10.115586,-0.013262644,-0.0041064527,-0.044585783,63.445984,156.9064,0.0047884034,1442826,-456,261,1556,10269
64807704,3972,0,-0.42816377,-0.67291373,-9.651389,-0.0049797315,-0.003209964,-0.02937578,63.41828,156.9064,0.0047884034,1442826,-1814,-54,2149,10259
64907694,3989,0,-0.26938894,0.7753139,-9.600797,0.011288362,0.008080599,-0.022489063,63.445984,156.9064,0.0047884034,1442826,-595,-129,1403,10269
65007709,4015,0,0.20764042,1.2788709,-8.834073,-0.004641255,0.0010565456,-0.027003631,63.473682,156.9064,0.0047884034,1442826,137,657,3466,10279
65109323,4006,0,0.36603683,0.77333826,-9.404278,-0.003488694,-0.0134595735,-0.059576493,63.473682,156.9064,0.0047884034,1442826,712,935,3422,10279
65213313,3993,0,0.16100161,-0.85804594,-10.301083,-0.0017925976,-0.019840114,-0.048420962,63.451523,156.9064,0.0047884034,1442826,628,432,3285,10271
65313314,3998,0,0.023855805,-0.806399,-10.27744,0.008413264,-0.0028454573,-0.044131476,63.473682,156.9064,0.0047884034,1442826,70,191,2901,10279
65413352,4038,0,-0.48925662,-0.7119204,-10.446629,0.0069006654,0.002646796,-0.038520373,63.512466,156.9064,0.0047884034,1442826,-677,-917,945,10293
65517314,4000,0,0.07776658,1.5919249,-8.833812,0.0058729975,0.0114964135,-0.022037182,63.490303,156.9064,0.0047884034,1442826,609,497,3077,10285
65617351,4042,0,-0.13731657,1.3885883,-9.097886,0.00040345147,0.008948292,-0.04518581,63.515236,156.9064,0.0047884034,1442826,118,-244,2887,10294
65717314,3988,0,0.14274281,1.0651284,-9.035026,-0.0035695434,0.003889212,-0.03025283,63.531857,156.9064,0.0047884034,1442826,390,196,2588,10300
65821314,3950,0,0.09410991,-1.2763845,-10.372268,-0.011021265,-0.0070031593,-0.04804607,63.501385,156.9064,0.0047884034,1442826,-491,110,1007,10289
65921314,3962,0,0.20213795,-0.6336316,-10.334214,-0.0027042485,-0.0034344355,-0.054537114,63.540165,156.9064,0.0047884034,1442826,909,2,381,10303
66025334,4014,0,-0.10269511,0.8359239,-9.821108,0.0018475883,0.008402102,-0.04962234,63.565098,156.9064,0.0047884034,1442826,592,280,1528,10312
66130894,3981,0,0.062034715,1.3886513,-9.292787,-0.0037468,-0.0018695955,-0.04477877,63.540165,156.9064,0.0047884034,1442826,380,66,1443,10303
66234894,4000,0,0.4867395,-0.653047,-9.408496,-0.008270514,-0.019073466,-0.0474896,63.590027,156.9064,0.0047884034,1442826,161,965,3705,10321
66334909,4015,0,-0.0063283276,-1.1663464,-10.359183,-0.0051404224,-0.0023660734,-0.0448082,63.556786,156.9064,0.0047884034,1442826,-372,-347,1927,10309
66438894,4000,0,-0.6481783,0.08089909,-10.330532,0.005819656,0.0107366955,-0.03643149,63.584488,156.9064,0.0047884034,1442826,-291,-1131,1061,10319
66538894,4000,0,-0.20348987,1.0725528,-9.309864,-0.00034616518,0.0011901688,-0.03594087,63.590027,156.9064,0.0047884034,1442826,-484,101,963,10321
66638894,4001,0,-0.124180436,1.7939198,-8.617506,0.011267096,0.007631096,-0.017123021,63.595566,156.9064,0.0047884034,1442826,251,74,4862,10323
66742935,4039,0,-0.10607473,0.21562794,-9.713572,0.0038869446,0.0034238133,-0.04951137,63.603878,156.9064,0.0047884034,1442826,907,-994,2078,10326
66842894,4000,0,0.64428073,-0.67332304,-10.022038,0.0016852218,-0.012262142,-0.042373046,63.609417,156.9064,0.0047884034,1442826,-23,364,1434,10328
66946920,4020,0,0.024463145,-0.7196624,-10.838421,0.0014398689,0.0041164896,-0.057208475,63.626038,156.9064,0.0047884034,1442826,341,-54,1602,10334
67048571,4078,0,-0.31289595,0.22346266,-10.21489,-0.0026788558,0.011043298,-0.037580866,63.626038,156.9064,0.0047884034,1442826,-599,-160,-395,10334
67152506,4013,0,0.043958783,1.5129672,-9.495917,0.004311865,0.0020868443,-0.029602502,63.62327,156.9064,0.0047884034,1442826,348,157,1616,10333
67252493,4000,0,0.17415346,0.99924755,-9.9396305,0.0011324334,-0.015822612,-0.03489356,63.67036,156.9064,0.0047884034,1442826,-17,-487,1299,10350
67352493,3993,0,0.73703635,0.27406454,-9.754634,0.005599684,-0.0008303537,-0.023392221,63.645428,156.9064,0.0047884034,1442826,911,-232,2233,10341
67456500,3990,0,0.16903117,-1.6340894,-10.787117,-0.008832438,-0.009124462,-0.030143086,63.648197,156.9064,0.0047884034,1442826,-486,409,2059,10342
67556493,3992,0,-0.028120883,-1.0046412,-10.038689,-0.00077389984,0.0060992613,-0.020947311,63.63989,156.9064,0.0047884034,1442826,-482,323,2792,10339
67656504,4011,0,-0.6634612,-0.33255738,-10.305874,0.0013757648,0.009873671,-0.055940066,63.664818,156.9064,0.0047884034,1442826,-523,-921,1287,10348
67760520,4027,0,0.14167744,1.2951832,-9.209935,-0.004673785,0.008137618,-0.032427933,63.684208,156.9064,0.0047884034,1442826,-660,601,2301,10355
67860493,4000,0,-0.29586676,1.7424307,-9.191278,-0.004970396,0.0059094923,-0.05124824,63.67867,156.9064,0.0047884034,1442826,191,-557,1787,10353
67962093,4000,0,-0.007720337,0.86553615,-9.606496,0.013686757,-0.0048306715,-0.050543997,63.65374,156.9064,0.0047884034,1442826,919,-698,2280,10344
68066118,4025,0,0.058363687,-0.67443687,-9.694664,-0.009306993,0.0027465676,-0.05625336,63.68144,156.9064,0.0047884034,1442826,-75,-106,3458,10354
68166076,3983,0,0.3040491,-0.28475875,-10.462468,0.0037737738,0.006634852,-0.037211023,63.70637,156.9064,0.0047884034,1442826,1154,-30,253,10363
68266132,4037,0,0.20910862,0.38750935,-10.075284,0.0013265482,-0.0027157594,-0.028485771,63.742382,156.9064,0.0047884034,1442826,-448,326,607,10376
68370070,4000,0,0.084612,1.6063564,-9.77639,0.008838247,0.002621417,-0.04598584,63.71468,156.9064,0.0047884034,1442826,192,160,1594,10366
68470070,4000,0,0.34124804,0.68937916,-9.558737,0.0031853288,-0.010144819,-0.0409411,63.74515,156.9064,0.0047884034,1442826,-245,-21,3286,10377
68570090,4020,0,0.570055,0.12278042,-9.3965435,0.0022997214,-0.0012168164,-0.02691982,63.75069,156.9064,0.0047884034,1442826,991,-266,2805,10379
69993330,3995,0,-0.08083519,-0.44788235,-10.061855,0.0058589224,-3.778783e-05,-0.028374547,63.828255,156.9064,0.0047884034,1442826,261,-17,1681,10407
70093294,3948,0,0.22378032,0.47049275,-10.062046,0.013350221,0.0069038016,-0.04102434,63.858727,156.9064,0.0047884034,1442826,-261,-39,1001,10418
70197346,4002,0,0.009206875,1.5603405,-9.085017,-0.002306564,0.0036120808,-0.029685339,63.869804,156.9064,0.0047884034,1442826,-119,89,2821,10422
70297296,3996,0,0.62243164,1.2801087,-9.515006,0.009575233,0.00048960187,-0.052543312,63.875347,156.9064,0.0047884034,1442826,1072,596,2534,10424
70397294,4001,0,0.2492791,0.28485927,-10.72969,0.011638013,-0.009818146,-0.05343284,63.886425,156.9064,0.0047884034,1442826,1082,-408,622,10428
70501328,4034,0,0.30368257,-1.6573204,-10.332103,-0.0063225753,-0.0056256084,-0.02884051,63.886425,156.9064,0.0047884034,1442826,-282,187,2412,10428
70601335,4041,0,-0.030266758,-0.821338,-10.11578,-0.002531061,-0.005182894,-0.042806357,63.875347,156.9064,0.0047884034,1442826,-329,403,2337,10424
70702886,4016,0,-0.3457524,0.43738514,-9.810876,0.0016312514,0.008433632,-0.026716946,63.894737,156.9064,0.0047884034,1442826,39,398,158,10431
70802896,4026,0,-0.013405853,1.3357131,-9.732007,0.0027621798,0.013135683,-0.029762471,63.891968,156.9064,0.0047884034,1442826,478,-29,-656,10430
70906870,3994,0,0.47693384,1.0459114,-9.44464,0.0029660296,-0.008968223,-0.04615336,63.916897,156.9064,0.0047884034,1442826,1161,-397,1456,10439
71006870,4000,0,0.3711835,-0.049991433,-10.479987,0.0074970145,-0.01185869,-0.050946925,63.922436,156.9064,0.0047884034,1442826,601,-715,-311,10441
71106870,4000,0,0.58109754,-1.178585,-10.34563,0.0006096962,-0.00738782,-0.0365123,63.92798,156.9064,0.0047884034,1442826,22,-341,2036,10443
71210870,3975,0,-0.33826816,-0.20264743,-10.023711,-0.0032334856,0.011306657,-0.06095367,63.916897,156.9064,0.0047884034,1442826,511,-340,-851,10439
71310870,3994,0,-0.88511395,0.5241425,-9.792617,-0.0088396,0.019173443,-0.049410116,63.933517,156.9064,0.0047884034,1442826,151,-902,124,10445
71414870,4000,0,-0.17007072,2.1189396,-9.158053,-0.003400751,0.01346176,-0.039595265,63.94737,156.9064,0.0047884034,1442826,912,-693,1216,10450
71516531,4037,0,0.1069188,1.266593,-9.191617,-0.008962273,0.00019716308,-0.046884775,63.96122,156.9064,0.0047884034,1442826,1047,-387,1703,10455
71616493,3987,0,0.5408996,-0.034089662,-10.230527,0.002306147,-0.00079878315,-0.0501689,63.9446,156.9064,0.0047884034,1442826,753,-187,-594,10449
71720500,4006,0,0.13751419,-1.7209729,-9.98954,-0.0024537437,-0.0010238665,-0.029462496,63.96122,156.9064,0.0047884034,1442826,-1167,611,2672,10455
71820500,3981,0,-0.36650112,-0.6118531,-9.776374,-0.0030620352,0.0025295604,-0.04932364,63.96399,156.9064,0.0047884034,1442826,-270,555,2953,10456
71920542,4049,0,-0.69020766,0.1962668,-9.935286,-0.00028653536,0.011892669,-0.044011418,63.98061,156.9064,0.0047884034,1442826,-93,-1058,-98,10462
72124521,4007,0,-0.78105354,1.7623508,-9.614252,0.0040461114,-0.0015209108,-0.04859733,63.98061,156.9064,0.0047884034,1442826,905,-924,2736,10462
72224514,4000,0,0.06889616,0.7887281,-9.58029,0.006208052,-0.012240356,-0.038736492,64.02216,156.9064,0.0047884034,1442826,243,-95,3825,10477
72328514,3966,0,0.24978475,-1.1028091,-9.984898,0.0056822,-0.005107799,-0.037192646,64.0,156.9064,0.0047884034,1442826,337,952,4532,10469
72428514,3988,0,-0.0438214,-0.9057833,-10.80604,0.00013991247,0.004136588,-0.053920582,64.058174,156.9064,0.0047884034,1442826,1062,246,1005,10490
72530143,4037,0,-0.14448889,-0.065298125,-9.892977,-0.0027508333,-0.0021620698,-0.034937568,64.02493,156.9064,0.0047884034,1442826,-1029,935,3231,10478
72630115,4013,0,-0.17028429,1.2018766,-9.910937,-0.007774143,0.0062786485,-0.021086449,63.98338,156.9064,0.0047884034,1442826,-23,336,1417,10463
72734105,4000,0,-0.292257,1.4160259,-9.147269,0.0013241946,0.0030888221,-0.048236944,64.03324,156.9064,0.0047884034,1442826,-335,-218,3284,10481
72838094,4000,0,0.17152412,-0.37582135,-9.650454,-0.0015722555,-0.0007563031,-0.032412477,64.0277,156.9064,0.0047884034,1442826,-190,39,2460,10479
72938120,4025,0,0.14260165,-0.8498992,-10.036733,-0.0062332214,0.0038619628,-0.03687162,64.07202,156.9064,0.0047884034,1442826,86,-190,1549,10495
73038094,3999,0,-0.23696546,-0.6733088,-10.729592,-0.002060135,-0.004001479,-0.038081802,64.06371,156.9064,0.0047884034,1442826,-306,269,1902,10492
73142104,3972,0,0.055820268,1.1399801,-9.614264,0.011149225,0.008542165,-0.030679284,64.091415,156.9064,0.0047884034,1442826,756,21,1029,10502
73242094,3994,0,-0.52843285,1.1216365,-9.617822,-0.0137446765,0.003247661,-0.044743143,64.055405,156.9064,0.0047884034,1442826,-565,-144,2190,10489
73342094,4000,0,0.27893955,1.1167495,-9.678033,-0.008762083,-0.0007913794,-0.05545608,64.07756,156.9064,0.0047884034,1442826,534,30,2111,10497
73443670,4000,0,0.20613874,0.014340966,-10.378507,0.008332792,-0.013537935,-0.046879914,64.08864,156.9064,0.0047884034,1442826,1080,39,2008,10501
73543670,4000,0,0.24537233,-0.94162536,-10.374628,-0.0017850947,-0.0021919506,-0.023295546,64.096954,156.9064,0.0047884034,1442826,-395,-564,943,10504
73647711,4041,0,-0.48572868,-0.5463227,-9.68642,-0.013805109,0.005908319,-0.03390633,64.094185,156.9064,0.0047884034,1442826,-435,-154,1852,10503
73747670,3946,0,-0.52122027,0.8594654,-9.827814,0.0077718366,0.0064031505,-0.033861633,64.07756,156.9064,0.0047884034,1442826,-168,-694,1605,10497
73851680,4004,0,-0.28639612,0.89434004,-9.562175,-0.014619118,-0.003666023,-0.051715452,64.1108,156.9064,0.0047884034,1442826,-449,111,1251,10509
73951670,4000,0,-0.09285595,0.39035538,-9.823254,0.010395296,0.0009223296,-0.05960417,64.11911,156.9064,0.0047884034,1442826,674,-661,2658,10512
74051670,3985,0,0.26329094,-0.9251197,-10.112237,0.007494111,-0.0069282143,-0.036067728,64.10249,156.9064,0.0047884034,1442826,-386,573,2244,10506
74155670,3962,0,-0.6190188,-0.13042241,-9.785478,-0.004311893,0.012769467,-0.04112655,64.14127,156.9064,0.0047884034,1442826,-86,-592,2530,10520
74257294,4001,0,-0.07679848,1.0552918,-9.209304,0.009783605,0.014025933,-0.04614353,64.15789,156.9064,0.0047884034,1442826,-9,-44,1894,10526
74357316,3964,0,0.31549633,1.476651,-8.8324995,0.0054329215,-0.0022532353,-0.045257628,64.14127,156.9064,0.0047884034,1442826,-490,245,3126,10520
74457348,4034,0,0.38484085,0.96833605,-9.345879,0.0015857603,-0.0094571775,-0.030804295,64.14958,156.9064,0.0047884034,1442826,224,160,3524,10523
74561363,4037,0,0.34037536,-0.8348912,-10.608061,0.00072589173,-0.012866053,-0.060307596,64.15512,156.9064,0.0047884034,1442826,614,-77,1423,10525
74661314,3994,0,0.2451117,-1.1438637,-10.981861,-0.0029564681,-0.009455197,-0.04569284,64.20222,156.9064,0.0047884034,1442826,465,302,1603,10542
74761314,4000,0,-0.22691011,-0.81902367,-10.054254,-0.0036324149,0.006594349,-0.032684676,64.19391,156.9064,0.0047884034,1442826,202,-177,1673,10539
74865365,4010,0,-0.0855412,0.89848614,-9.876654,0.011608375,0.0013850111,-0.03520664,64.23269,156.9064,0.0047884034,1442826,56,95,1993,10553
74965314,3985,0,0.13744497,1.5326939,-9.417908,0.010423348,-0.00023403125,-0.03877247,64.19391,156.9064,0.0047884034,1442826,246,54,1010,10539
75069340,3987,0,0.14305271,-0.36780939,-9.851525,-0.00591913,0.0015002056,-0.05112747,64.20222,156.9064,0.0047884034,1442826,465,-636,1618,10542
75173320,4006,0,0.06128635,-1.2867,-9.906744,-0.00089563534,0.000412834,-0.035059787,64.213295,156.9064,0.0047884034,1442826,18,604,1685,10546
75274894,3994,0,-0.42833957,-0.02965186,-9.032821,-0.0028387238,0.010851632,-0.04372184,64.207756,156.9064,0.0047884034,1442826,-494,-320,2941,10544
75374901,4006,0,0.026591685,0.73052835,-9.343613,0.0038734877,0.005726509,-0.04518923,64.218834,156.9064,0.0047884034,1442826,105,-99,725,10548
75478985,4091,0,-0.27003056,0.7121508,-9.410186,0.0005150351,0.0036004637,-0.03452578,64.22992,156.9064,0.0047884034,1442826,354,-646,1514,10552
75578894,3969,0,0.33730313,-0.120727606,-9.839864,0.010384873,-0.007272485,-0.048811782,64.22714,156.9064,0.0047884034,1442826,289,-377,1263,10551
75682894,4000,0,-0.4698778,-1.1097461,-10.292877,-0.0058350977,0.007999303,-0.050747607,64.23823,156.9064,0.0047884034,1442826,-280,-335,1532,10555
75782919,4025,0,-0.18517452,-0.01681471,-9.828236,0.006458482,0.008554113,-0.042099357,64.254845,156.9064,0.0047884034,1442826,322,-163,2217,10561
75886893,3999,0,-0.1374919,1.8939114,-9.168206,0.0018212219,0.012022885,-0.040104967,64.257614,156.9064,0.0047884034,1442826,350,-27,2534,10562
75990893,3998,0,0.16358992,0.68419296,-10.055411,-0.0007258771,0.000994585,-0.035550784,64.22992,156.9064,0.0047884034,1442826,262,-508,1885,10552
76088470,3994,0,0.1844921,0.6710802,-10.119489,-0.0013509961,-0.0044071423,-0.042279217,64.290855,156.9064,0.0047884034,1442826,1161,-886,1587,10574
76192476,4006,0,0.41901878,-1.4224019,-10.362521,-0.015817331,-0.004340227,-0.04805682,64.296394,156.9064,0.0047884034,1442826,-143,888,2212,10576
76292470,3992,0,0.013177082,-1.0393798,-10.509317,0.001122582,0.009090246,-0.032161646,64.31025,156.9064,0.0047884034,1442826,706,-104,1802,10581
76396470,3975,0,-0.2503266,0.46918032,-9.427935,-0.011696339,0.008275794,-0.041265905,64.29917,156.9064,0.0047884034,1442826,-1621,576,2817,10577
76500470,3926,0,-0.21579547,1.8130614,-9.67481,0.0017112575,-0.0012069277,-0.053093746,64.34349,156.9064,0.0047884034,1442826,343,-239,1258,10593
76600470,3994,0,0.14441697,1.1657499,-9.927872,0.015178789,-0.0013214803,-0.04322282,64.33795,156.9064,0.0047884034,1442826,578,-203,875,10591
76700493,4000,0,0.2551894,0.3457691,-9.9403515,0.005386507,-0.00952188,-0.040881954,64.31856,156.9064,0.0047884034,1442826,733,-101,1418,10584
76804493,4000,0,0.1651682,-1.0444065,-9.980937,-0.00708865,-0.006778339,-0.050388526,64.38504,156.9064,0.0047884034,1442826,-519,301,2325,10608
76904493,4001,0,0.124917045,-0.57000124,-10.218248,-0.008288419,0.004427176,-0.047320213,64.3241,156.9064,0.0047884034,1442826,246,-269,435,10586
77006120,4006,0,-0.16811806,0.53606796,-9.675829,-0.0016458862,0.010598874,-0.035818394,64.33795,156.9064,0.0047884034,1442826,-1436,462,2000,10591
77110142,4022,0,-0.35215774,1.734915,-9.000282,-0.004214484,0.0009812375,-0.050737903,64.39058,156.9064,0.0047884034,1442826,595,-468,3271,10610
77214120,3990,0,0.39145556,-0.29070276,-10.805792,0.010088212,-0.0129793845,-0.042263504,64.37119,156.9064,0.0047884034,1442826,907,241,1817,10603
77314120,3969,0,0.60372514,-1.1788236,-10.463135,-0.0013194783,-0.012510408,-0.0422517,64.36565,156.9064,0.0047884034,1442826,151,429,2037,10601
77418181,4046,0,-0.034964975,-0.3815784,-9.736366,-0.000104143735,0.010424925,-0.037826203,64.40997,156.9064,0.0047884034,1442826,-248,72,2593,10617
77518124,4010,0,-0.24311037,0.64719015,-9.310626,-0.01199081,0.010459885,-0.054080866,64.40997,156.9064,0.0047884034,1442826,-509,-200,1144,10617
77618114,3988,0,-0.06608711,1.416911,-9.192388,-0.00393206,0.0092783915,-0.05004207,64.39058,156.9064,0.0047884034,1442826,-765,90,1488,10610
77722114,3998,0,0.10092348,1.0534233,-10.074867,0.0036935697,-0.0038397158,-0.05640416,64.40997,156.9064,0.0047884034,1442826,522,-244,1240,10617
77822119,4005,0,0.3059256,-0.5070216,-10.368236,0.009921783,-0.010360181,-0.05229053,64.40997,156.9064,0.0047884034,1442826,466,-503,1100,10617
77923697,4003,0,0.3744885,-1.3961074,-10.066112,-0.0038981715,-0.011358718,-0.038640935,64.42382,156.9064,0.0047884034,1442826,363,881,3467,10622
78023740,4047,0,-0.42259172,-0.807711,-10.278072,-0.012270276,0.00055729283,-0.043858893,64.37673,156.9064,0.0047884034,1442826,510,-67,864,10605
78127701,4001,0,-0.021605367,1.2334708,-9.235989,0.0028961527,0.0051030633,-0.025619624,64.42659,156.9064,0.0047884034,1442826,-241,-200,2170,10623
78231700,4006,0,0.30327794,0.71395016,-9.416613,0.0010263165,-0.013369592,-0.019926667,64.45706,156.9064,0.0047884034,1442826,-212,-180,2199,10634
78335704,4010,0,0.25185287,-0.90224004,-10.0116,0.0008686322,-0.0010897559,-0.04717378,64.434906,156.9064,0.0047884034,1442826,-221,175,4276,10626
78435720,4026,0,0.021873243,-0.8906737,-9.7128315,0.00078368944,-0.0011897471,-0.0337509,64.440445,156.9064,0.0047884034,1442826,-483,145,4239,10628
78535737,4043,0,-0.3624955,-0.8408385,-9.7523575,0.0037059158,0.007208752,-0.031003434,64.45429,156.9064,0.0047884034,1442826,-517,-393,3627,10633
78639694,4000,0,0.07387436,1.418199,-9.846111,0.0009492584,0.00956794,-0.040581543,64.437675,156.9064,0.0047884034,1442826,-243,341,1864,10627
78741279,3945,0,0.34658098,1.5738804,-8.913396,-0.007618858,-0.005119316,-0.037690956,64.481995,156.9064,0.0047884034,1442826,-584,777,3386,10643
78841315,4045,0,0.25468907,0.9988089,-9.839891,-0.002613654,-0.011373479,-0.031257786,64.484764,156.9064,0.0047884034,1442826,-96,-424,805,10644
78945294,3994,0,0.6145718,-0.74238443,-9.843986,0.0003665001,0.000644196,-0.043385442,64.46814,156.9064,0.0047884034,1442826,490,294,3611,10638
79045294,4001,0,0.12625769,-0.8572428,-9.929863,-0.0077812094,0.005879435,-0.06173287,64.48753,156.9064,0.0047884034,1442826,615,107,2249,10645
79149301,4007,0,-0.30297408,0.45191196,-9.936588,0.0028577575,0.007784135,-0.035731345,64.50693,156.9064,0.0047884034,1442826,-31,-110,1689,10652
